[
  {
    "id": "SAVEDNIPRO_001",
    "cityName": "Dnipro",
    "stationName": "Geroev Avenue, 40",
    "localName": "Save Dnipro #1",
    "latitude": "48.408944",
    "longitude": "35.072505",
    "humidity": 41.53,
    "PM10": 28.21,
    "PM2n5": 8.45,
    "Pressure": 982,
    "Temperature": 15,
    "AirQualityIndex": 150.7
  },
  {
    "id": "SAVEDNIPRO_002",
    "cityName": "Dnipro",
    "stationName": "Pershogo Travnya Street, 7",
    "localName": "Save Dnipro #5",
    "latitude": "48.418962",
    "longitude": "35.009254",
    "humidity": 64.7,
    "PM10": 6.99,
    "PM2n5": 16.02,
    "Pressure": 1001,
    "Temperature": 17,
    "AirQualityIndex": 83.88
  },
  {
    "id": "SAVEDNIPRO_003",
    "cityName": "Dnipro",
    "stationName": "Ulyanova Street, 26",
    "localName": "Save Dnipro #3",
    "latitude": "48.46179",
    "longitude": "35.022893",
    "humidity": 67.2,
    "PM10": 71.09,
    "PM2n5": 10.95,
    "Pressure": 987,
    "Temperature": 16,
    "AirQualityIndex": 179.59
  },
  {
    "id": "SAVEDNIPRO_004",
    "cityName": "Dnipro",
    "stationName": "Novokrymskaya Street, 1",
    "localName": "Save Dnipro #2",
    "latitude": "48.428476",
    "longitude": "35.010238",
    "humidity": 60.71,
    "PM10": 17.54,
    "PM2n5": 12.13,
    "Pressure": 1017,
    "Temperature": 18,
    "AirQualityIndex": 198.79
  },
  {
    "id": "SAVEDNIPRO_006",
    "cityName": "Dnipro",
    "stationName": "Pryberezhna Street, 49",
    "localName": "Save Dnipro #4",
    "latitude": "48.405856",
    "longitude": "35.145451",
    "humidity": 63.47,
    "PM10": 10.68,
    "PM2n5": 2.54,
    "Pressure": 1017,
    "Temperature": 19,
    "AirQualityIndex": 36.86
  },
  {
    "id": "SAVEDNIPRO_007",
    "cityName": "Dnipro",
    "stationName": "Dmytra Yavornytskoho Avenue, 60",
    "localName": "Save Dnipro #9",
    "latitude": "48.467467",
    "longitude": "35.041472",
    "humidity": 51.16,
    "PM10": 46.64,
    "PM2n5": 16.61,
    "Pressure": 1006,
    "Temperature": 12,
    "AirQualityIndex": 190.93
  },
  {
    "id": "SAVEDNIPRO_008",
    "cityName": "Dnipro",
    "stationName": "Haharina Avenue, 43",
    "localName": "Save Dnipro #10",
    "latitude": "48.448030",
    "longitude": "35.058606",
    "humidity": 69.76,
    "PM10": 36,
    "PM2n5": 4.72,
    "Pressure": 999,
    "Temperature": 13,
    "AirQualityIndex": 5.54
  },
  {
    "id": "SAVEDNIPRO_009",
    "cityName": "Dnipro",
    "stationName": "Kalynova Street, 49",
    "localName": "Save Dnipro #11",
    "latitude": "48.513536",
    "longitude": "35.062787",
    "humidity": 61.77,
    "PM10": 71.7,
    "PM2n5": 15.04,
    "Pressure": 1001,
    "Temperature": 20,
    "AirQualityIndex": 182.51
  },
  {
    "id": "SAVEDNIPRO_014",
    "cityName": "Dnipro",
    "stationName": "Vokzalna Square, 2",
    "localName": "Save Dnipro #19",
    "latitude": "48.475959",
    "longitude": "35.016979",
    "humidity": 32.23,
    "PM10": 45.85,
    "PM2n5": 18.41,
    "Pressure": 1019,
    "Temperature": 17,
    "AirQualityIndex": 85.56
  },
  {
    "id": "SAVEDNIPRO_015",
    "cityName": "Dnipro",
    "stationName": "Pavla Nirinberha Street, 4-6",
    "localName": "Save Dnipro #30",
    "latitude": "48.467926",
    "longitude": "35.055617",
    "humidity": 37.24,
    "PM10": 38.67,
    "PM2n5": 17.47,
    "Pressure": 992,
    "Temperature": 16,
    "AirQualityIndex": 55.75
  },
  {
    "id": "SAVEDNIPRO_016",
    "cityName": "Dnipro",
    "stationName": "Street Shoduarivska, 5",
    "localName": "Save Dnipro #25",
    "latitude": "48.484034",
    "longitude": "34.936086",
    "humidity": 27.42,
    "PM10": 58.81,
    "PM2n5": 15.55,
    "Pressure": 995,
    "Temperature": 17,
    "AirQualityIndex": 25.35
  },
  {
    "id": "SAVEDNIPRO_018",
    "cityName": "Dnipro",
    "stationName": "Beregova Street, 29",
    "localName": "Save Dnipro #26",
    "latitude": "48.501095",
    "longitude": "34.990169",
    "humidity": 64.16,
    "PM10": 25.58,
    "PM2n5": 1.29,
    "Pressure": 1002,
    "Temperature": 18,
    "AirQualityIndex": 162.83
  },
  {
    "id": "SAVEDNIPRO_023",
    "cityName": "Dnipro",
    "stationName": "Shyroka Street, 173",
    "localName": "Save Dnipro #32",
    "latitude": "48.518050",
    "longitude": "34.964451",
    "humidity": 36.31,
    "PM10": 16.05,
    "PM2n5": 12.27,
    "Pressure": 997,
    "Temperature": 20,
    "AirQualityIndex": 68.36
  },
  {
    "id": "SAVEDNIPRO_024",
    "cityName": "Sursko-Lytovske",
    "stationName": "50 Rokiv Peremogy Street",
    "localName": "Save Dnipro #28",
    "latitude": "48.350994",
    "longitude": "34.946876",
    "humidity": 32.29,
    "PM10": 14.66,
    "PM2n5": 8.88,
    "Pressure": 991,
    "Temperature": 16,
    "AirQualityIndex": 168.08
  },
  {
    "id": "SAVEDNIPRO_025",
    "cityName": "Dnipro",
    "stationName": "Street Barykadna, 21",
    "localName": "",
    "latitude": "48.463293",
    "longitude": "35.056401",
    "humidity": 65.76,
    "PM10": 79.06,
    "PM2n5": 4.77,
    "Pressure": 996,
    "Temperature": 14,
    "AirQualityIndex": 123.11
  },
  {
    "id": "SAVEDNIPRO_032",
    "cityName": "Dnipro",
    "stationName": "Slavy Boulevard, 11",
    "localName": "Save Dnipro #22",
    "latitude": "48.4119490",
    "longitude": "35.0697377",
    "humidity": 41.94,
    "PM10": 61,
    "PM2n5": 2.44,
    "Pressure": 1019,
    "Temperature": 12,
    "AirQualityIndex": 137.93
  },
  {
    "id": "SAVEDNIPRO_035",
    "cityName": "Novooleksandrivka",
    "stationName": "Televiziyna \r\n Street / Arendnyy Lane",
    "localName": "Save Dnipro #17",
    "latitude": "48.343889",
    "longitude": "35.015000",
    "humidity": 55.62,
    "PM10": 74.96,
    "PM2n5": 19.24,
    "Pressure": 995,
    "Temperature": 14,
    "AirQualityIndex": 103.87
  },
  {
    "id": "SAVEDNIPRO_075",
    "cityName": "Dnipro",
    "stationName": "Pavla Nirinberha Street, 10",
    "localName": "Save Dnipro #14",
    "latitude": "48.466150",
    "longitude": "35.055459",
    "humidity": 73.79,
    "PM10": 59.12,
    "PM2n5": 19.27,
    "Pressure": 1001,
    "Temperature": 17,
    "AirQualityIndex": 61.63
  },
  {
    "id": "SAVEDNIPRO_090",
    "cityName": "Obukhivka",
    "stationName": "Dniprovs'ko-Oril's'kyy pryrodnyy zapovidnyk",
    "localName": "Save Dnipro #34",
    "latitude": "48.5339822",
    "longitude": "34.7914877",
    "humidity": 30.65,
    "PM10": 56.68,
    "PM2n5": 4.42,
    "Pressure": 990,
    "Temperature": 14,
    "AirQualityIndex": 101.87
  },
  {
    "id": "SAVEDNIPRO_094",
    "cityName": "Kam'ianske",
    "stationName": "Heroiv Boulevard, 38",
    "localName": "Save Dnipro #34",
    "latitude": "48.607373",
    "longitude": "34.570512",
    "humidity": 72.8,
    "PM10": 59.54,
    "PM2n5": 4.05,
    "Pressure": 1019,
    "Temperature": 16,
    "AirQualityIndex": 13.19
  },
  {
    "id": "SAVEDNIPRO_095",
    "cityName": "Dnipro",
    "stationName": "Velyka Diivska Street, 4",
    "localName": "Save Dnipro #53",
    "latitude": "48.480519",
    "longitude": "34.934133",
    "humidity": 52.91,
    "PM10": 68.91,
    "PM2n5": 7.13,
    "Pressure": 983,
    "Temperature": 13,
    "AirQualityIndex": 17.93
  },
  {
    "id": "SAVEDNIPRO_096",
    "cityName": "Dnipro",
    "stationName": "Hoholya Street, 10",
    "localName": "Save Dnipro #36",
    "latitude": "48.458139",
    "longitude": "35.052214",
    "humidity": 39.11,
    "PM10": 14.08,
    "PM2n5": 5.63,
    "Pressure": 1016,
    "Temperature": 20,
    "AirQualityIndex": 57.88
  },
  {
    "id": "SAVEDNIPRO_097",
    "cityName": "Halych",
    "stationName": "Karaimska Street, 3",
    "localName": "Save Dnipro #39",
    "latitude": "49.125336",
    "longitude": "24.730753",
    "humidity": 35.12,
    "PM10": 74.03,
    "PM2n5": 7.37,
    "Pressure": 994,
    "Temperature": 18,
    "AirQualityIndex": 25.65
  },
  {
    "id": "SAVEDNIPRO_101",
    "cityName": "Dnipro",
    "stationName": "Samarkandskyi provulok, 1",
    "localName": "Save Dnipro #40",
    "latitude": "48.4538103",
    "longitude": "35.0185786",
    "humidity": 61.26,
    "PM10": 19.13,
    "PM2n5": 14.59,
    "Pressure": 1017,
    "Temperature": 16,
    "AirQualityIndex": 4.74
  },
  {
    "id": "SAVEDNIPRO_102",
    "cityName": "Vilnohirsk",
    "stationName": "Molodizhna Street, 28",
    "localName": "Save Dnipro #49",
    "latitude": "48.480857",
    "longitude": "34.018492",
    "humidity": 44.24,
    "PM10": 22.39,
    "PM2n5": 14.48,
    "Pressure": 991,
    "Temperature": 12,
    "AirQualityIndex": 96.97
  },
  {
    "id": "SAVEDNIPRO_103",
    "cityName": "Dnipro",
    "stationName": "Topolia-2, 23",
    "localName": "Save Dnipro #38",
    "latitude": "48.391810",
    "longitude": "35.028813",
    "humidity": 71.62,
    "PM10": 13.13,
    "PM2n5": 16.6,
    "Pressure": 1010,
    "Temperature": 18,
    "AirQualityIndex": 25.58
  },
  {
    "id": "SAVEDNIPRO_132",
    "cityName": "Dnipro",
    "stationName": "prospekt Serhiia Nihoiana, 57",
    "localName": "",
    "latitude": "48.476276",
    "longitude": "34.984768",
    "humidity": 69.5,
    "PM10": 59.11,
    "PM2n5": 7.36,
    "Pressure": 1020,
    "Temperature": 18,
    "AirQualityIndex": 45.72
  },
  {
    "id": "SAVEDNIPRO_136",
    "cityName": "Dnipro",
    "stationName": "Forest Park of Friendship of Peoples",
    "localName": "Save Dnipro #42",
    "latitude": "48.540300",
    "longitude": "35.092615",
    "humidity": 67.41,
    "PM10": 45.62,
    "PM2n5": 9.26,
    "Pressure": 982,
    "Temperature": 13,
    "AirQualityIndex": 144.89
  },
  {
    "id": "SAVEDNIPRO_897",
    "cityName": "Novooleksandrivka",
    "stationName": "Surska Street, 74",
    "localName": "Save Dnipro #51",
    "latitude": "48.341841",
    "longitude": "35.005390",
    "humidity": 67.19,
    "PM10": 51.62,
    "PM2n5": 11.92,
    "Pressure": 1003,
    "Temperature": 18,
    "AirQualityIndex": 80.24
  },
  {
    "id": "SAVEDNIPRO_949",
    "cityName": "Zaporizhzhia",
    "stationName": "Street Haharina, 3",
    "localName": "Save Dnipro #48",
    "latitude": "47.8352753",
    "longitude": "35.1446249",
    "humidity": 33.85,
    "PM10": 32.01,
    "PM2n5": 15.29,
    "Pressure": 982,
    "Temperature": 14,
    "AirQualityIndex": 1.55
  },
  {
    "id": "SAVEDNIPRO_997",
    "cityName": "Dnipro",
    "stationName": "Street Darnytska, 9",
    "localName": "",
    "latitude": "48.5052009",
    "longitude": "35.0718389",
    "humidity": 29.54,
    "PM10": 63.73,
    "PM2n5": 6.45,
    "Pressure": 1005,
    "Temperature": 18,
    "AirQualityIndex": 34.53
  },
  {
    "id": "SAVEDNIPRO_1000",
    "cityName": "Dnipro",
    "stationName": "Street Ivana Akinfiieva, 10",
    "localName": "Save Dnipro #55",
    "latitude": "48.460155",
    "longitude": "35.066821",
    "humidity": 38.99,
    "PM10": 60.39,
    "PM2n5": 19.46,
    "Pressure": 1003,
    "Temperature": 14,
    "AirQualityIndex": 110.02
  },
  {
    "id": "SAVEDNIPRO_1001",
    "cityName": "Dnipro",
    "stationName": "Street Hladkova, 6",
    "localName": "",
    "latitude": "48.400802",
    "longitude": "35.001839",
    "humidity": 41.21,
    "PM10": 37.09,
    "PM2n5": 17.39,
    "Pressure": 1006,
    "Temperature": 20,
    "AirQualityIndex": 126.89
  },
  {
    "id": "SAVEDNIPRO_1002",
    "cityName": "Sursko-Klevtseve",
    "stationName": "",
    "localName": "Save Dnipro #56",
    "latitude": "48.312916",
    "longitude": "34.880235",
    "humidity": 57.49,
    "PM10": 59.19,
    "PM2n5": 17.46,
    "Pressure": 997,
    "Temperature": 13,
    "AirQualityIndex": 87.99
  },
  {
    "id": "SAVEDNIPRO_1004",
    "cityName": "Kyiv",
    "stationName": "Street Henerala Zhmachenka, 4",
    "localName": "Save Dnipro #58",
    "latitude": "50.458479",
    "longitude": "30.6079481",
    "humidity": 54.59,
    "PM10": 8.96,
    "PM2n5": 8.31,
    "Pressure": 997,
    "Temperature": 15,
    "AirQualityIndex": 98.12
  },
  {
    "id": "SAVEDNIPRO_1005",
    "cityName": "Dnipro",
    "stationName": "Street Serhiia Yefremova, 3A",
    "localName": "Save Dnipro #59",
    "latitude": "48.459042",
    "longitude": "35.058479",
    "humidity": 58.72,
    "PM10": 74.55,
    "PM2n5": 19.76,
    "Pressure": 1004,
    "Temperature": 18,
    "AirQualityIndex": 32.92
  },
  {
    "id": "SAVEDNIPRO_1006",
    "cityName": "Kam'ianske",
    "stationName": "Street Yuriia Volkova, 10A",
    "localName": "Save Dnipro #60",
    "latitude": "48.509524",
    "longitude": "34.61578",
    "humidity": 65.86,
    "PM10": 33.58,
    "PM2n5": 9.22,
    "Pressure": 1006,
    "Temperature": 12,
    "AirQualityIndex": 16.57
  },
  {
    "id": "SAVEDNIPRO_1007",
    "cityName": "Dnipro",
    "stationName": "prospekt Slobozhanskyi, 127A",
    "localName": "Save Dnipro #64",
    "latitude": "48.523936",
    "longitude": "35.0811455",
    "humidity": 38.32,
    "PM10": 59.18,
    "PM2n5": 9.65,
    "Pressure": 1013,
    "Temperature": 17,
    "AirQualityIndex": 80.23
  },
  {
    "id": "SAVEDNIPRO_1008",
    "cityName": "Vinnytsia",
    "stationName": "Street Stetsenka, 75",
    "localName": "Save Dnipro #63",
    "latitude": "49.239341",
    "longitude": "28.479885",
    "humidity": 33.89,
    "PM10": 12.5,
    "PM2n5": 7.74,
    "Pressure": 1018,
    "Temperature": 20,
    "AirQualityIndex": 58.43
  },
  {
    "id": "SAVEDNIPRO_1009",
    "cityName": "Dnipro",
    "stationName": "Donetske shose, 121",
    "localName": "Save Dnipro #62",
    "latitude": "48.523444",
    "longitude": "35.023331",
    "humidity": 41.39,
    "PM10": 33.11,
    "PM2n5": 2.36,
    "Pressure": 988,
    "Temperature": 17,
    "AirQualityIndex": 20.83
  },
  {
    "id": "SAVEDNIPRO_1021",
    "cityName": "Dnipro",
    "stationName": "Street Semaforna, 30A",
    "localName": "Save Dnipro #61",
    "latitude": "48.489936",
    "longitude": "35.1337483",
    "humidity": 66.81,
    "PM10": 24.16,
    "PM2n5": 3.22,
    "Pressure": 1008,
    "Temperature": 20,
    "AirQualityIndex": 25.59
  },
  {
    "id": "SAVEDNIPRO_1053",
    "cityName": "Dnipro",
    "stationName": "Yaroslavska Street, 12",
    "localName": "Save Dnipro #24",
    "latitude": "48.433796",
    "longitude": "35.030484",
    "humidity": 49.5,
    "PM10": 65.85,
    "PM2n5": 11.27,
    "Pressure": 1010,
    "Temperature": 18,
    "AirQualityIndex": 41.98
  },
  {
    "id": "SAVEDNIPRO_1102",
    "cityName": "Sumy",
    "stationName": "",
    "localName": "Save Dnipro #73",
    "latitude": "50.896400",
    "longitude": "34.830288",
    "humidity": 69.85,
    "PM10": 30.36,
    "PM2n5": 5.09,
    "Pressure": 1000,
    "Temperature": 19,
    "AirQualityIndex": 126.62
  },
  {
    "id": "SAVEDNIPRO_1131",
    "cityName": "Zaporizhzhia",
    "stationName": "Tbiliska Street, 27A",
    "localName": "",
    "latitude": "47.83602089075",
    "longitude": "35.10648322033",
    "humidity": 54.65,
    "PM10": 12.24,
    "PM2n5": 14.43,
    "Pressure": 1014,
    "Temperature": 20,
    "AirQualityIndex": 63.82
  },
  {
    "id": "SAVEDNIPRO_1143",
    "cityName": "Dobropillia",
    "stationName": "Street Zapovitna",
    "localName": "Save Dnipro #75",
    "latitude": "48.477333",
    "longitude": "37.092000",
    "humidity": 27.98,
    "PM10": 10.48,
    "PM2n5": 6.83,
    "Pressure": 1012,
    "Temperature": 14,
    "AirQualityIndex": 57.79
  },
  {
    "id": "SAVEDNIPRO_1168",
    "cityName": "Mariupol",
    "stationName": "Street Lomizova, 11",
    "localName": "",
    "latitude": "47.101121",
    "longitude": "37.627157",
    "humidity": 30.54,
    "PM10": 60.11,
    "PM2n5": 16.06,
    "Pressure": 984,
    "Temperature": 19,
    "AirQualityIndex": 14.38
  },
  {
    "id": "SAVEDNIPRO_1169",
    "cityName": "Mariupol",
    "stationName": "prospekt Metalurhiv, 206-A",
    "localName": "",
    "latitude": "47.137890",
    "longitude": "37.565452",
    "humidity": 36.4,
    "PM10": 79.33,
    "PM2n5": 18.47,
    "Pressure": 1020,
    "Temperature": 13,
    "AirQualityIndex": 24.83
  },
  {
    "id": "SAVEDNIPRO_1174",
    "cityName": "Kam'ianske",
    "stationName": "prospekt Svobody, 49",
    "localName": "",
    "latitude": "48.516430",
    "longitude": "34.614322",
    "humidity": 60.17,
    "PM10": 10.62,
    "PM2n5": 17.28,
    "Pressure": 1008,
    "Temperature": 16,
    "AirQualityIndex": 126.94
  },
  {
    "id": "SAVEDNIPRO_1175",
    "cityName": "Kam'ianske",
    "stationName": "Street Voiniv-afhantsiv, 5D",
    "localName": "",
    "latitude": "48.608365",
    "longitude": "34.558746",
    "humidity": 70.83,
    "PM10": 5.4,
    "PM2n5": 7.49,
    "Pressure": 1006,
    "Temperature": 13,
    "AirQualityIndex": 148.75
  },
  {
    "id": "SAVEDNIPRO_1176",
    "cityName": "Kam'ianske",
    "stationName": "prospekt Svobody, 56",
    "localName": "",
    "latitude": "48.507758",
    "longitude": "34.609865",
    "humidity": 29.36,
    "PM10": 50.48,
    "PM2n5": 6.92,
    "Pressure": 994,
    "Temperature": 16,
    "AirQualityIndex": 37.98
  },
  {
    "id": "SAVEDNIPRO_1178",
    "cityName": "Pisochyn",
    "stationName": "Street Zelena, 19",
    "localName": "",
    "latitude": "49.964888",
    "longitude": "36.122653",
    "humidity": 50.45,
    "PM10": 65.01,
    "PM2n5": 6.49,
    "Pressure": 1018,
    "Temperature": 17,
    "AirQualityIndex": 39.71
  },
  {
    "id": "SAVEDNIPRO_1179",
    "cityName": "Kam'ianske",
    "stationName": "Street Vorobiova, 15",
    "localName": "",
    "latitude": "48.503785",
    "longitude": "34.614396",
    "humidity": 47.96,
    "PM10": 48.07,
    "PM2n5": 18.84,
    "Pressure": 1000,
    "Temperature": 20,
    "AirQualityIndex": 157.22
  },
  {
    "id": "SAVEDNIPRO_1180",
    "cityName": "Kam'ianske",
    "stationName": "prospekt Anoshkina, 58A",
    "localName": "",
    "latitude": "48.509854",
    "longitude": "34.595553",
    "humidity": 36.8,
    "PM10": 44.37,
    "PM2n5": 19.87,
    "Pressure": 999,
    "Temperature": 18,
    "AirQualityIndex": 188.84
  },
  {
    "id": "SAVEDNIPRO_1182",
    "cityName": "Kam'ianske",
    "stationName": "Street Sportyvna, 19",
    "localName": "",
    "latitude": "48.517399",
    "longitude": "34.599969",
    "humidity": 54.51,
    "PM10": 60.98,
    "PM2n5": 16.23,
    "Pressure": 987,
    "Temperature": 16,
    "AirQualityIndex": 151.07
  },
  {
    "id": "SAVEDNIPRO_1183",
    "cityName": "Kam'ianske",
    "stationName": "Yuvileinyi prospekt, 57",
    "localName": "",
    "latitude": "48.489721",
    "longitude": "34.621939",
    "humidity": 45.51,
    "PM10": 23.84,
    "PM2n5": 18.4,
    "Pressure": 987,
    "Temperature": 19,
    "AirQualityIndex": 173.61
  },
  {
    "id": "SAVEDNIPRO_1212",
    "cityName": "Zaporizhzhia",
    "stationName": "Street Shkilna, 50",
    "localName": "",
    "latitude": "47.816804",
    "longitude": "35.169158",
    "humidity": 35.06,
    "PM10": 55.8,
    "PM2n5": 12.12,
    "Pressure": 1013,
    "Temperature": 12,
    "AirQualityIndex": 198.89
  },
  {
    "id": "SAVEDNIPRO_1260",
    "cityName": "Zaporizhzhia",
    "stationName": "Street Mykoly Koryshchenka, 26",
    "localName": "",
    "latitude": "47.82919027096",
    "longitude": "35.23301213980",
    "humidity": 68.39,
    "PM10": 2.03,
    "PM2n5": 2.51,
    "Pressure": 995,
    "Temperature": 20,
    "AirQualityIndex": 18.67
  },
  {
    "id": "SAVEDNIPRO_1266",
    "cityName": "Kyiv",
    "stationName": "Street Kostiantynivska, 73",
    "localName": "",
    "latitude": "50.473860",
    "longitude": "30.497474",
    "humidity": 34.24,
    "PM10": 64.56,
    "PM2n5": 5.47,
    "Pressure": 991,
    "Temperature": 18,
    "AirQualityIndex": 65.9
  },
  {
    "id": "SAVEDNIPRO_1268",
    "cityName": "Bobrovytsia",
    "stationName": "Street Nezalezhnosti, 46",
    "localName": "",
    "latitude": "50.741761",
    "longitude": "31.384359",
    "humidity": 40.11,
    "PM10": 74.14,
    "PM2n5": 18.01,
    "Pressure": 1011,
    "Temperature": 19,
    "AirQualityIndex": 65.59
  },
  {
    "id": "SAVEDNIPRO_1269",
    "cityName": "Poltava",
    "stationName": "Street Pidmonastyrska, 41",
    "localName": "",
    "latitude": "49.592648",
    "longitude": "34.570985",
    "humidity": 59.14,
    "PM10": 29.35,
    "PM2n5": 15.37,
    "Pressure": 980,
    "Temperature": 17,
    "AirQualityIndex": 6.11
  },
  {
    "id": "SAVEDNIPRO_1270",
    "cityName": "Dnipro",
    "stationName": "Street Mykhaila Hrushevskoho, 34",
    "localName": "Save Dnipro #104",
    "latitude": "48.454988",
    "longitude": "35.036721",
    "humidity": 56.36,
    "PM10": 13.05,
    "PM2n5": 1.71,
    "Pressure": 985,
    "Temperature": 14,
    "AirQualityIndex": 23.32
  },
  {
    "id": "SAVEDNIPRO_1271",
    "cityName": "Dnipro",
    "stationName": "prospekt Myru, 5",
    "localName": "",
    "latitude": "48.525274",
    "longitude": "35.019689",
    "humidity": 65.57,
    "PM10": 74.37,
    "PM2n5": 18.68,
    "Pressure": 980,
    "Temperature": 16,
    "AirQualityIndex": 113.81
  },
  {
    "id": "SAVEDNIPRO_1272",
    "cityName": "Kam'ianske",
    "stationName": "Street Kazanska, 35",
    "localName": "",
    "latitude": "48.494670",
    "longitude": "34.602290",
    "humidity": 30.94,
    "PM10": 68.41,
    "PM2n5": 3.65,
    "Pressure": 992,
    "Temperature": 20,
    "AirQualityIndex": 77.25
  },
  {
    "id": "SAVEDNIPRO_1274",
    "cityName": "Kyiv",
    "stationName": "prospekt Heroiv Stalinhrada, 6K8",
    "localName": "",
    "latitude": "50.494958",
    "longitude": "30.522702",
    "humidity": 61.47,
    "PM10": 68.42,
    "PM2n5": 19.33,
    "Pressure": 988,
    "Temperature": 17,
    "AirQualityIndex": 9.86
  },
  {
    "id": "SAVEDNIPRO_1275",
    "cityName": "Kam'ianske",
    "stationName": "prospekt Konstytutsii 19",
    "localName": "",
    "latitude": "48.475955",
    "longitude": "34.667161",
    "humidity": 38.43,
    "PM10": 55.28,
    "PM2n5": 12.57,
    "Pressure": 1013,
    "Temperature": 20,
    "AirQualityIndex": 37.67
  },
  {
    "id": "SAVEDNIPRO_1276",
    "cityName": "Poltava",
    "stationName": "Street Radyshcheva, 46",
    "localName": "",
    "latitude": "49.577176",
    "longitude": "34.607160",
    "humidity": 64.5,
    "PM10": 17.58,
    "PM2n5": 3.59,
    "Pressure": 988,
    "Temperature": 14,
    "AirQualityIndex": 3.69
  },
  {
    "id": "SAVEDNIPRO_1278",
    "cityName": "Kyiv",
    "stationName": "Street Saperno-Slobidska, 25/4",
    "localName": "",
    "latitude": "50.404417",
    "longitude": "30.534111",
    "humidity": 48.58,
    "PM10": 63.25,
    "PM2n5": 10.08,
    "Pressure": 991,
    "Temperature": 18,
    "AirQualityIndex": 176.04
  },
  {
    "id": "SAVEDNIPRO_1279",
    "cityName": "Dnipro",
    "stationName": "Street Maiachka, 14",
    "localName": "",
    "latitude": "48.4934802",
    "longitude": "35.1992773",
    "humidity": 40.85,
    "PM10": 2.15,
    "PM2n5": 16.64,
    "Pressure": 994,
    "Temperature": 18,
    "AirQualityIndex": 154.49
  },
  {
    "id": "SAVEDNIPRO_1293",
    "cityName": "Kushuhum",
    "stationName": "Street Partyzanska",
    "localName": "",
    "latitude": "47.723589",
    "longitude": "35.206665",
    "humidity": 60.07,
    "PM10": 6.67,
    "PM2n5": 2.31,
    "Pressure": 985,
    "Temperature": 19,
    "AirQualityIndex": 42.89
  },
  {
    "id": "SAVEDNIPRO_1294",
    "cityName": "Kyiv",
    "stationName": "Street 8-a Sadova",
    "localName": "",
    "latitude": "50.4682878",
    "longitude": "30.5729412",
    "humidity": 39.27,
    "PM10": 72.87,
    "PM2n5": 3.17,
    "Pressure": 987,
    "Temperature": 18,
    "AirQualityIndex": 85.11
  },
  {
    "id": "SAVEDNIPRO_1295",
    "cityName": "Brovary",
    "stationName": "Sadove tovarystvo Khimik",
    "localName": "",
    "latitude": "50.514441",
    "longitude": "30.797268",
    "humidity": 46.89,
    "PM10": 48.25,
    "PM2n5": 15.28,
    "Pressure": 1000,
    "Temperature": 20,
    "AirQualityIndex": 90.38
  },
  {
    "id": "SAVEDNIPRO_1297",
    "cityName": "Zaporizhzhia",
    "stationName": "Street Charivna, 157",
    "localName": "",
    "latitude": "47.844147",
    "longitude": "35.230268",
    "humidity": 65.91,
    "PM10": 35.2,
    "PM2n5": 19.68,
    "Pressure": 1001,
    "Temperature": 13,
    "AirQualityIndex": 132.32
  },
  {
    "id": "SAVEDNIPRO_1298",
    "cityName": "Zaporizhzhia",
    "stationName": "Street Leonida Zhabotynskoho, 63",
    "localName": "",
    "latitude": "47.8382123",
    "longitude": "35.1351085",
    "humidity": 47.54,
    "PM10": 64.16,
    "PM2n5": 7.49,
    "Pressure": 980,
    "Temperature": 13,
    "AirQualityIndex": 47.46
  },
  {
    "id": "SAVEDNIPRO_1300",
    "cityName": "Cherkaske",
    "stationName": "Street Yasna, 3",
    "localName": "",
    "latitude": "48.835490",
    "longitude": "37.392544",
    "humidity": 65.14,
    "PM10": 56.15,
    "PM2n5": 19.5,
    "Pressure": 985,
    "Temperature": 15,
    "AirQualityIndex": 137.02
  },
  {
    "id": "SAVEDNIPRO_1301",
    "cityName": "Zaporizhzhia",
    "stationName": "Street Vesnina, 1A",
    "localName": "",
    "latitude": "47.865793",
    "longitude": "35.058838",
    "humidity": 51.79,
    "PM10": 61.65,
    "PM2n5": 6.58,
    "Pressure": 1002,
    "Temperature": 17,
    "AirQualityIndex": 34.24
  },
  {
    "id": "SAVEDNIPRO_1302",
    "cityName": "Yurivka",
    "stationName": "Street Naberezhna, 3",
    "localName": "",
    "latitude": "50.317396",
    "longitude": "30.390961",
    "humidity": 73.15,
    "PM10": 37.78,
    "PM2n5": 15.31,
    "Pressure": 982,
    "Temperature": 19,
    "AirQualityIndex": 165.34
  },
  {
    "id": "SAVEDNIPRO_1303",
    "cityName": "Chornomorsk",
    "stationName": "Street Vitaliia Shuma, 2H",
    "localName": "",
    "latitude": "46.297067",
    "longitude": "30.639265",
    "humidity": 72.73,
    "PM10": 31.35,
    "PM2n5": 5.32,
    "Pressure": 987,
    "Temperature": 20,
    "AirQualityIndex": 109.75
  },
  {
    "id": "SAVEDNIPRO_1306",
    "cityName": "Kyiv",
    "stationName": "Street Marshala Malynovskoho, 4V",
    "localName": "",
    "latitude": "50.505132",
    "longitude": "30.489238",
    "humidity": 27.5,
    "PM10": 6.18,
    "PM2n5": 18.86,
    "Pressure": 1011,
    "Temperature": 15,
    "AirQualityIndex": 199.07
  },
  {
    "id": "SAVEDNIPRO_1308",
    "cityName": "Zaporizhzhia",
    "stationName": "Avtobusna Street, 13",
    "localName": "",
    "latitude": "47.8630359",
    "longitude": "35.1845460",
    "humidity": 44.08,
    "PM10": 45.6,
    "PM2n5": 18.62,
    "Pressure": 984,
    "Temperature": 15,
    "AirQualityIndex": 164.73
  },
  {
    "id": "SAVEDNIPRO_1309",
    "cityName": "Zaporizhzhia",
    "stationName": "Tsentralnyi bulvar, 22A",
    "localName": "",
    "latitude": "47.835703",
    "longitude": "35.134718",
    "humidity": 27.62,
    "PM10": 28.49,
    "PM2n5": 4.32,
    "Pressure": 1005,
    "Temperature": 15,
    "AirQualityIndex": 12.12
  },
  {
    "id": "SAVEDNIPRO_1311",
    "cityName": "Vita-Poshtova",
    "stationName": "Street Zvenyhorodska",
    "localName": "",
    "latitude": "50.312514",
    "longitude": "30.375136",
    "humidity": 27.27,
    "PM10": 32.68,
    "PM2n5": 5.64,
    "Pressure": 1009,
    "Temperature": 14,
    "AirQualityIndex": 16.49
  },
  {
    "id": "SAVEDNIPRO_1313",
    "cityName": "Yurivka",
    "stationName": "Street Naberezhna, 12",
    "localName": "",
    "latitude": "50.326257",
    "longitude": "30.375458",
    "humidity": 52.31,
    "PM10": 14.77,
    "PM2n5": 13.45,
    "Pressure": 1001,
    "Temperature": 19,
    "AirQualityIndex": 67.88
  },
  {
    "id": "SAVEDNIPRO_1315",
    "cityName": "Zaporizhzhia",
    "stationName": "Street Svitla, 16",
    "localName": "",
    "latitude": "47.815380",
    "longitude": "35.053843",
    "humidity": 48.19,
    "PM10": 16.83,
    "PM2n5": 10.65,
    "Pressure": 1012,
    "Temperature": 14,
    "AirQualityIndex": 32.29
  },
  {
    "id": "SAVEDNIPRO_1316",
    "cityName": "Zaporizhzhia",
    "stationName": "prospekt Sobornyi, 228",
    "localName": "",
    "latitude": "47.8606913",
    "longitude": "35.1002317",
    "humidity": 36.37,
    "PM10": 20.09,
    "PM2n5": 12.59,
    "Pressure": 986,
    "Temperature": 17,
    "AirQualityIndex": 8.19
  },
  {
    "id": "SAVEDNIPRO_1354",
    "cityName": "Velyka Severynka",
    "stationName": "Street Myru, 2A",
    "localName": "",
    "latitude": "48.608155",
    "longitude": "32.231918",
    "humidity": 52.09,
    "PM10": 17.64,
    "PM2n5": 6.46,
    "Pressure": 997,
    "Temperature": 13,
    "AirQualityIndex": 117.35
  },
  {
    "id": "SAVEDNIPRO_1372",
    "cityName": "Kyiv",
    "stationName": "Street Verkhovynna, 37",
    "localName": "",
    "latitude": "50.452314",
    "longitude": "30.371420",
    "humidity": 62.05,
    "PM10": 15.39,
    "PM2n5": 12.31,
    "Pressure": 1000,
    "Temperature": 15,
    "AirQualityIndex": 35.76
  },
  {
    "id": "SAVEDNIPRO_1373",
    "cityName": "Kyiv",
    "stationName": "Street Marshala Malynovskoho, 13B",
    "localName": "",
    "latitude": "50.502855",
    "longitude": "30.495153",
    "humidity": 29.61,
    "PM10": 61.14,
    "PM2n5": 13.51,
    "Pressure": 999,
    "Temperature": 15,
    "AirQualityIndex": 160.49
  },
  {
    "id": "SAVEDNIPRO_1376",
    "cityName": "Kyiv",
    "stationName": "Street Volodymyro-Lybidska 25",
    "localName": "",
    "latitude": "50.421359",
    "longitude": "30.514859",
    "humidity": 52.36,
    "PM10": 19.9,
    "PM2n5": 8,
    "Pressure": 1008,
    "Temperature": 15,
    "AirQualityIndex": 65.89
  },
  {
    "id": "SAVEDNIPRO_1377",
    "cityName": "Chornomorsk",
    "stationName": "Street Transportna, 14A",
    "localName": "Save Dnipro #159",
    "latitude": "46.311634",
    "longitude": "30.654892",
    "humidity": 28.82,
    "PM10": 36.03,
    "PM2n5": 10.53,
    "Pressure": 1018,
    "Temperature": 15,
    "AirQualityIndex": 56.75
  },
  {
    "id": "SAVEDNIPRO_1378",
    "cityName": "Hatne",
    "stationName": "Street Yaroslava Mudroho, 6",
    "localName": "",
    "latitude": "50.359801",
    "longitude": "30.424000",
    "humidity": 26.55,
    "PM10": 14.94,
    "PM2n5": 4.64,
    "Pressure": 1016,
    "Temperature": 15,
    "AirQualityIndex": 76.23
  },
  {
    "id": "SAVEDNIPRO_1380",
    "cityName": "Odesa",
    "stationName": "Street Armiiska, 19",
    "localName": "Save Dnipro #162",
    "latitude": "46.452237",
    "longitude": "30.748921",
    "humidity": 64.93,
    "PM10": 38.36,
    "PM2n5": 15.92,
    "Pressure": 1000,
    "Temperature": 20,
    "AirQualityIndex": 90.48
  },
  {
    "id": "SAVEDNIPRO_1381",
    "cityName": "Reshetylivka",
    "stationName": "Street Pokrovska, 14",
    "localName": "",
    "latitude": "49.562487",
    "longitude": "34.078514",
    "humidity": 26.22,
    "PM10": 40.96,
    "PM2n5": 13.16,
    "Pressure": 1004,
    "Temperature": 19,
    "AirQualityIndex": 133.85
  },
  {
    "id": "SAVEDNIPRO_1382",
    "cityName": "Zaporizhzhia",
    "stationName": "Street Nezalezhnoi Ukrainy, 68A",
    "localName": "",
    "latitude": "47.827955",
    "longitude": "35.204411",
    "humidity": 67.59,
    "PM10": 28.39,
    "PM2n5": 11.46,
    "Pressure": 996,
    "Temperature": 17,
    "AirQualityIndex": 130.95
  },
  {
    "id": "SAVEDNIPRO_1384",
    "cityName": "Hnidyn",
    "stationName": "Street Nova, 1",
    "localName": "",
    "latitude": "50.33948",
    "longitude": "30.70528",
    "humidity": 31.2,
    "PM10": 61.87,
    "PM2n5": 3.07,
    "Pressure": 1018,
    "Temperature": 12,
    "AirQualityIndex": 50.09
  },
  {
    "id": "SAVEDNIPRO_1385",
    "cityName": "Hnidyn",
    "stationName": "Street Kuzbasova, 22",
    "localName": "",
    "latitude": "50.327707",
    "longitude": "30.696919",
    "humidity": 61.4,
    "PM10": 25.67,
    "PM2n5": 13.56,
    "Pressure": 1018,
    "Temperature": 18,
    "AirQualityIndex": 49.94
  },
  {
    "id": "SAVEDNIPRO_1386",
    "cityName": "Odesa",
    "stationName": "Street Balkivska, 40A",
    "localName": "",
    "latitude": "46.486764",
    "longitude": "30.707282",
    "humidity": 50.44,
    "PM10": 46.24,
    "PM2n5": 9.89,
    "Pressure": 999,
    "Temperature": 13,
    "AirQualityIndex": 142.8
  },
  {
    "id": "SAVEDNIPRO_1387",
    "cityName": "Kyiv",
    "stationName": "Street Reitarska, 17",
    "localName": "",
    "latitude": "50.4515820",
    "longitude": "30.5115602",
    "humidity": 26.16,
    "PM10": 40.31,
    "PM2n5": 9.81,
    "Pressure": 1005,
    "Temperature": 18,
    "AirQualityIndex": 192.36
  },
  {
    "id": "SAVEDNIPRO_1388",
    "cityName": "Brovary",
    "stationName": "Street Symona Petliury, 36",
    "localName": "",
    "latitude": "50.5245",
    "longitude": "30.798465",
    "humidity": 62.55,
    "PM10": 41.17,
    "PM2n5": 15.27,
    "Pressure": 983,
    "Temperature": 19,
    "AirQualityIndex": 13.86
  },
  {
    "id": "SAVEDNIPRO_1392",
    "cityName": "Brovary",
    "stationName": "bulvar Nezalezhnosti, 4A",
    "localName": "",
    "latitude": "50.512282",
    "longitude": "30.796358",
    "humidity": 53.03,
    "PM10": 5.48,
    "PM2n5": 14.58,
    "Pressure": 1013,
    "Temperature": 13,
    "AirQualityIndex": 100.21
  },
  {
    "id": "SAVEDNIPRO_1394",
    "cityName": "Kyiv",
    "stationName": "Street Kyrylivska 64",
    "localName": "",
    "latitude": "50.4742163",
    "longitude": "30.4942892",
    "humidity": 39.94,
    "PM10": 9.08,
    "PM2n5": 16.25,
    "Pressure": 982,
    "Temperature": 12,
    "AirQualityIndex": 140.52
  },
  {
    "id": "SAVEDNIPRO_1395",
    "cityName": "Rivne",
    "stationName": "Street Kostromska, 73",
    "localName": "",
    "latitude": "50.6331689",
    "longitude": "26.2856835",
    "humidity": 68.09,
    "PM10": 51.48,
    "PM2n5": 1.73,
    "Pressure": 1015,
    "Temperature": 20,
    "AirQualityIndex": 187.17
  },
  {
    "id": "SAVEDNIPRO_1396",
    "cityName": "Khrystanivka",
    "stationName": "Street Shevchenka, 23",
    "localName": "",
    "latitude": "50.297342",
    "longitude": "33.376383",
    "humidity": 61.84,
    "PM10": 69.77,
    "PM2n5": 16.09,
    "Pressure": 1010,
    "Temperature": 13,
    "AirQualityIndex": 112.69
  },
  {
    "id": "SAVEDNIPRO_1397",
    "cityName": "Baranivka",
    "stationName": "Street Soborna, 6",
    "localName": "",
    "latitude": "50.293875",
    "longitude": "27.669171",
    "humidity": 27.43,
    "PM10": 35.9,
    "PM2n5": 5.74,
    "Pressure": 1015,
    "Temperature": 20,
    "AirQualityIndex": 3.62
  },
  {
    "id": "SAVEDNIPRO_1411",
    "cityName": "Chornomorsk",
    "stationName": "Street Parkova, 22",
    "localName": "",
    "latitude": "46.2997433",
    "longitude": "30.6593683",
    "humidity": 67.76,
    "PM10": 71.35,
    "PM2n5": 9.09,
    "Pressure": 1012,
    "Temperature": 16,
    "AirQualityIndex": 53.56
  },
  {
    "id": "SAVEDNIPRO_1412",
    "cityName": "Nadvirna",
    "stationName": "maidan Shevchenka, 33",
    "localName": "",
    "latitude": "48.633951",
    "longitude": "24.567418",
    "humidity": 68.4,
    "PM10": 38.3,
    "PM2n5": 17.41,
    "Pressure": 1005,
    "Temperature": 16,
    "AirQualityIndex": 127
  },
  {
    "id": "SAVEDNIPRO_1424",
    "cityName": "Kyiv",
    "stationName": "Street Yuriia Popravky, 4",
    "localName": "",
    "latitude": "50.455080",
    "longitude": "30.629557",
    "humidity": 71.25,
    "PM10": 31.42,
    "PM2n5": 15.04,
    "Pressure": 987,
    "Temperature": 15,
    "AirQualityIndex": 149.99
  },
  {
    "id": "SAVEDNIPRO_1425",
    "cityName": "Kyiv",
    "stationName": "prospekt Heroiv Stalinhrada 28",
    "localName": "",
    "latitude": "50.513766",
    "longitude": "30.508991",
    "humidity": 54.8,
    "PM10": 54.74,
    "PM2n5": 5.08,
    "Pressure": 997,
    "Temperature": 17,
    "AirQualityIndex": 85.64
  },
  {
    "id": "SAVEDNIPRO_1426",
    "cityName": "Zaporizhzhia",
    "stationName": "prospekt Yuvileinyi, 19",
    "localName": "",
    "latitude": "47.817382",
    "longitude": "35.054906",
    "humidity": 30.8,
    "PM10": 59.17,
    "PM2n5": 13.43,
    "Pressure": 990,
    "Temperature": 17,
    "AirQualityIndex": 31.9
  },
  {
    "id": "SAVEDNIPRO_1427",
    "cityName": "Chornomorsk",
    "stationName": "Street Vitaliia Shuma, 9",
    "localName": "",
    "latitude": "46.302583",
    "longitude": "30.642833",
    "humidity": 54.27,
    "PM10": 57.22,
    "PM2n5": 2.98,
    "Pressure": 986,
    "Temperature": 17,
    "AirQualityIndex": 39.74
  },
  {
    "id": "SAVEDNIPRO_1428",
    "cityName": "Dobropillia",
    "stationName": "mikroraion Molodizhnyi, 36",
    "localName": "",
    "latitude": "48.469470",
    "longitude": "37.079867",
    "humidity": 47.49,
    "PM10": 35.02,
    "PM2n5": 19.77,
    "Pressure": 1019,
    "Temperature": 19,
    "AirQualityIndex": 115.8
  },
  {
    "id": "SAVEDNIPRO_1448",
    "cityName": "Rusaniv",
    "stationName": "Street Partyzanska",
    "localName": "",
    "latitude": "50.503785",
    "longitude": "31.149722",
    "humidity": 32.7,
    "PM10": 3.24,
    "PM2n5": 4.6,
    "Pressure": 991,
    "Temperature": 15,
    "AirQualityIndex": 13.68
  },
  {
    "id": "SAVEDNIPRO_1507",
    "cityName": "Irpin",
    "stationName": "Street Varshavska, 114",
    "localName": "",
    "latitude": "50.537636",
    "longitude": "30.266628",
    "humidity": 73.6,
    "PM10": 66.36,
    "PM2n5": 6.86,
    "Pressure": 1004,
    "Temperature": 16,
    "AirQualityIndex": 154.78
  },
  {
    "id": "SAVEDNIPRO_1510",
    "cityName": "Kharkiv",
    "stationName": "Street Tobolska, 41A",
    "localName": "",
    "latitude": "50.027901",
    "longitude": "36.215151",
    "humidity": 65.25,
    "PM10": 69.17,
    "PM2n5": 16.4,
    "Pressure": 983,
    "Temperature": 14,
    "AirQualityIndex": 45.17
  },
  {
    "id": "SAVEDNIPRO_1511",
    "cityName": "Voropaiv",
    "stationName": "Street Kyivska, 100",
    "localName": "",
    "latitude": "50.785232",
    "longitude": "30.683176",
    "humidity": 67.06,
    "PM10": 22.39,
    "PM2n5": 2.6,
    "Pressure": 994,
    "Temperature": 13,
    "AirQualityIndex": 110.72
  },
  {
    "id": "SAVEDNIPRO_1513",
    "cityName": "Chaiky",
    "stationName": "Street Leontovycha, 16",
    "localName": "",
    "latitude": "50.432666",
    "longitude": "30.279492",
    "humidity": 61.15,
    "PM10": 36.22,
    "PM2n5": 14.3,
    "Pressure": 982,
    "Temperature": 20,
    "AirQualityIndex": 12.71
  },
  {
    "id": "SAVEDNIPRO_1514",
    "cityName": "Radomyshl",
    "stationName": "Street Shevchenka, 25",
    "localName": "",
    "latitude": "50.501932",
    "longitude": "29.229013",
    "humidity": 37.33,
    "PM10": 77.57,
    "PM2n5": 2.43,
    "Pressure": 999,
    "Temperature": 19,
    "AirQualityIndex": 185.32
  },
  {
    "id": "SAVEDNIPRO_1538",
    "cityName": "Hnidyn",
    "stationName": "Street Luhova",
    "localName": "",
    "latitude": "50.3290625",
    "longitude": "30.6978125",
    "humidity": 63.25,
    "PM10": 2.86,
    "PM2n5": 10.39,
    "Pressure": 1007,
    "Temperature": 14,
    "AirQualityIndex": 77.94
  },
  {
    "id": "SAVEDNIPRO_1540",
    "cityName": "Kyiv",
    "stationName": "Street Borshchahivska, 16",
    "localName": "",
    "latitude": "50.447179",
    "longitude": "30.468070",
    "humidity": 68.5,
    "PM10": 16.98,
    "PM2n5": 3.68,
    "Pressure": 1018,
    "Temperature": 17,
    "AirQualityIndex": 53.06
  },
  {
    "id": "SAVEDNIPRO_1542",
    "cityName": "Liubar",
    "stationName": "Street Nezalezhnosti, 39",
    "localName": "",
    "latitude": "49.924459",
    "longitude": "27.746386",
    "humidity": 55.23,
    "PM10": 79.25,
    "PM2n5": 14.55,
    "Pressure": 1009,
    "Temperature": 13,
    "AirQualityIndex": 197.52
  },
  {
    "id": "SAVEDNIPRO_1543",
    "cityName": "Kharkiv",
    "stationName": "Hryhorivske shose, 57",
    "localName": "",
    "latitude": "49.979663",
    "longitude": "36.184030",
    "humidity": 68.74,
    "PM10": 50.95,
    "PM2n5": 4.91,
    "Pressure": 994,
    "Temperature": 19,
    "AirQualityIndex": 145.34
  },
  {
    "id": "SAVEDNIPRO_1544",
    "cityName": "Kyiv",
    "stationName": "Street Anny Akhmatovoi, 47",
    "localName": "",
    "latitude": "50.404406",
    "longitude": "30.615846",
    "humidity": 60.99,
    "PM10": 33.78,
    "PM2n5": 2.09,
    "Pressure": 983,
    "Temperature": 14,
    "AirQualityIndex": 88.37
  },
  {
    "id": "SAVEDNIPRO_1555",
    "cityName": "Raihorodok",
    "stationName": "Street Skhidna, 4",
    "localName": "",
    "latitude": "48.905655",
    "longitude": "37.724880",
    "humidity": 55.6,
    "PM10": 24.17,
    "PM2n5": 6.63,
    "Pressure": 1011,
    "Temperature": 14,
    "AirQualityIndex": 67.96
  },
  {
    "id": "SAVEDNIPRO_1557",
    "cityName": "Sloviansk",
    "stationName": "ploshcha Soborna, 2",
    "localName": "",
    "latitude": "48.851999",
    "longitude": "37.606324",
    "humidity": 69.86,
    "PM10": 50.4,
    "PM2n5": 1.08,
    "Pressure": 984,
    "Temperature": 14,
    "AirQualityIndex": 182.2
  },
  {
    "id": "SAVEDNIPRO_1558",
    "cityName": "Bakhmut",
    "stationName": "Street Myru, 44",
    "localName": "",
    "latitude": "48.589113",
    "longitude": "38.000524",
    "humidity": 56.24,
    "PM10": 39.44,
    "PM2n5": 6.21,
    "Pressure": 984,
    "Temperature": 18,
    "AirQualityIndex": 60.84
  },
  {
    "id": "SAVEDNIPRO_1560",
    "cityName": "Mykolaivka",
    "stationName": "Street Mykhaila Petrenka, 7",
    "localName": "",
    "latitude": "48.855326",
    "longitude": "37.774202",
    "humidity": 25.78,
    "PM10": 10.21,
    "PM2n5": 15.64,
    "Pressure": 991,
    "Temperature": 14,
    "AirQualityIndex": 27.47
  },
  {
    "id": "SAVEDNIPRO_1561",
    "cityName": "Izmail",
    "stationName": "Street Riepina, 12",
    "localName": "",
    "latitude": "45.360426",
    "longitude": "28.818493",
    "humidity": 55.78,
    "PM10": 21.44,
    "PM2n5": 13.33,
    "Pressure": 997,
    "Temperature": 15,
    "AirQualityIndex": 183.54
  },
  {
    "id": "SAVEDNIPRO_1562",
    "cityName": "Toretsk",
    "stationName": "Street Maiakovskoho, 10",
    "localName": "",
    "latitude": "48.397121",
    "longitude": "37.843989",
    "humidity": 53.69,
    "PM10": 53.23,
    "PM2n5": 4.29,
    "Pressure": 982,
    "Temperature": 19,
    "AirQualityIndex": 159.71
  },
  {
    "id": "SAVEDNIPRO_1563",
    "cityName": "Druzhkivka",
    "stationName": "Street Minska, 12",
    "localName": "",
    "latitude": "48.613735",
    "longitude": "37.486107",
    "humidity": 70.89,
    "PM10": 2.75,
    "PM2n5": 11.03,
    "Pressure": 982,
    "Temperature": 13,
    "AirQualityIndex": 125.8
  },
  {
    "id": "SAVEDNIPRO_1564",
    "cityName": "Teplodar",
    "stationName": "Street Biliayivska, 3",
    "localName": "",
    "latitude": "46.5228989",
    "longitude": "30.3185014",
    "humidity": 46.16,
    "PM10": 64.47,
    "PM2n5": 18.63,
    "Pressure": 1002,
    "Temperature": 16,
    "AirQualityIndex": 30.59
  },
  {
    "id": "SAVEDNIPRO_1565",
    "cityName": "Serhiivka",
    "stationName": "Street Haharina, 1A",
    "localName": "",
    "latitude": "46.024188",
    "longitude": "30.362985",
    "humidity": 69.69,
    "PM10": 1.99,
    "PM2n5": 9.89,
    "Pressure": 994,
    "Temperature": 17,
    "AirQualityIndex": 89.49
  },
  {
    "id": "SAVEDNIPRO_1566",
    "cityName": "Tsarychanka",
    "stationName": "Street 14 Hvardiiskoi Dyvizii, 10",
    "localName": "",
    "latitude": "48.941752",
    "longitude": "34.486318",
    "humidity": 30.91,
    "PM10": 7.34,
    "PM2n5": 19.3,
    "Pressure": 1005,
    "Temperature": 15,
    "AirQualityIndex": 192.32
  },
  {
    "id": "SAVEDNIPRO_1568",
    "cityName": "Perechyn",
    "stationName": "ploshcha Narodna, 16",
    "localName": "",
    "latitude": "48.735167",
    "longitude": "22.477306",
    "humidity": 46.34,
    "PM10": 22.49,
    "PM2n5": 17.05,
    "Pressure": 999,
    "Temperature": 20,
    "AirQualityIndex": 93.85
  },
  {
    "id": "SAVEDNIPRO_1569",
    "cityName": "Kozova",
    "stationName": "Street Mykhaila Hrushevskoho, 32",
    "localName": "",
    "latitude": "49.432754",
    "longitude": "25.144195",
    "humidity": 61.94,
    "PM10": 24.74,
    "PM2n5": 14.7,
    "Pressure": 980,
    "Temperature": 17,
    "AirQualityIndex": 38.21
  },
  {
    "id": "SAVEDNIPRO_1570",
    "cityName": "Novopskov",
    "stationName": "Street Shkilna, 15B",
    "localName": "",
    "latitude": "49.537144",
    "longitude": "39.114868",
    "humidity": 59.49,
    "PM10": 17.18,
    "PM2n5": 9.09,
    "Pressure": 1007,
    "Temperature": 19,
    "AirQualityIndex": 117.03
  },
  {
    "id": "SAVEDNIPRO_1571",
    "cityName": "Bilokurakyne",
    "stationName": "ploshcha Tarasa Shevchenka, 4",
    "localName": "",
    "latitude": "49.525283",
    "longitude": "38.731923",
    "humidity": 31.22,
    "PM10": 61.79,
    "PM2n5": 16.43,
    "Pressure": 998,
    "Temperature": 12,
    "AirQualityIndex": 19.56
  },
  {
    "id": "SAVEDNIPRO_1572",
    "cityName": "Pechenizhyn",
    "stationName": "Street Nezalezhnosti, 15",
    "localName": "",
    "latitude": "48.516707",
    "longitude": "24.883313",
    "humidity": 43.48,
    "PM10": 17.05,
    "PM2n5": 6.93,
    "Pressure": 990,
    "Temperature": 12,
    "AirQualityIndex": 199.47
  },
  {
    "id": "SAVEDNIPRO_1573",
    "cityName": "Petropil",
    "stationName": "Street Molodizhna, 1",
    "localName": "",
    "latitude": "48.014856",
    "longitude": "34.950205",
    "humidity": 49.25,
    "PM10": 47.86,
    "PM2n5": 6.51,
    "Pressure": 1009,
    "Temperature": 18,
    "AirQualityIndex": 62.62
  },
  {
    "id": "SAVEDNIPRO_1576",
    "cityName": "Vyshniv",
    "stationName": "Street Nezalezhnosti, 80A",
    "localName": "",
    "latitude": "51.197866",
    "longitude": "24.030688",
    "humidity": 68.76,
    "PM10": 53.9,
    "PM2n5": 16.28,
    "Pressure": 981,
    "Temperature": 17,
    "AirQualityIndex": 198.41
  },
  {
    "id": "SAVEDNIPRO_1577",
    "cityName": "Drohobych",
    "stationName": "Street Hrushevskoho, 170",
    "localName": "",
    "latitude": "49.354152",
    "longitude": "23.540407",
    "humidity": 30.07,
    "PM10": 27.86,
    "PM2n5": 17.1,
    "Pressure": 985,
    "Temperature": 16,
    "AirQualityIndex": 51.91
  },
  {
    "id": "SAVEDNIPRO_1579",
    "cityName": "Koriukivka",
    "stationName": "Street Bulvarna, 6",
    "localName": "",
    "latitude": "51.772445",
    "longitude": "32.258389",
    "humidity": 26.73,
    "PM10": 61.62,
    "PM2n5": 11.6,
    "Pressure": 1007,
    "Temperature": 18,
    "AirQualityIndex": 141.33
  },
  {
    "id": "SAVEDNIPRO_1580",
    "cityName": "Semenivka",
    "stationName": "3-y Tsentralnyi provulok, 2",
    "localName": "",
    "latitude": "52.173104",
    "longitude": "32.591975",
    "humidity": 26.66,
    "PM10": 54.99,
    "PM2n5": 16.31,
    "Pressure": 1006,
    "Temperature": 18,
    "AirQualityIndex": 82.96
  },
  {
    "id": "SAVEDNIPRO_1581",
    "cityName": "Khmilnyk",
    "stationName": "Street Stoliarchuka, 10",
    "localName": "",
    "latitude": "49.558073",
    "longitude": "27.956940",
    "humidity": 44.18,
    "PM10": 42.08,
    "PM2n5": 13.82,
    "Pressure": 998,
    "Temperature": 12,
    "AirQualityIndex": 198.57
  },
  {
    "id": "SAVEDNIPRO_1582",
    "cityName": "Khorostkiv",
    "stationName": "Street Bohdana Lepkoho, 1",
    "localName": "",
    "latitude": "49.212406",
    "longitude": "25.923519",
    "humidity": 46.88,
    "PM10": 19.52,
    "PM2n5": 7.69,
    "Pressure": 995,
    "Temperature": 13,
    "AirQualityIndex": 16.7
  },
  {
    "id": "SAVEDNIPRO_1583",
    "cityName": "Sambir",
    "stationName": "ploshcha Rynok, 1",
    "localName": "",
    "latitude": "49.518117",
    "longitude": "23.196529",
    "humidity": 28.6,
    "PM10": 75.75,
    "PM2n5": 2.85,
    "Pressure": 982,
    "Temperature": 19,
    "AirQualityIndex": 68.73
  },
  {
    "id": "SAVEDNIPRO_1585",
    "cityName": "Chernihivka",
    "stationName": "Street Ukrainska, 57",
    "localName": "",
    "latitude": "47.194468",
    "longitude": "36.216471",
    "humidity": 53.9,
    "PM10": 22.33,
    "PM2n5": 12.79,
    "Pressure": 984,
    "Temperature": 14,
    "AirQualityIndex": 189.08
  },
  {
    "id": "SAVEDNIPRO_1586",
    "cityName": "Tetiiv",
    "stationName": "Street Yanusha Ostrozkoho, 5",
    "localName": "",
    "latitude": "49.371778",
    "longitude": "29.679528",
    "humidity": 69.76,
    "PM10": 59.76,
    "PM2n5": 4.13,
    "Pressure": 995,
    "Temperature": 20,
    "AirQualityIndex": 158.55
  },
  {
    "id": "SAVEDNIPRO_1587",
    "cityName": "Snovsk",
    "stationName": "Street Nezalezhnosti, 19",
    "localName": "",
    "latitude": "51.819637",
    "longitude": "31.942129",
    "humidity": 62.02,
    "PM10": 20.43,
    "PM2n5": 14.94,
    "Pressure": 991,
    "Temperature": 12,
    "AirQualityIndex": 20.15
  },
  {
    "id": "SAVEDNIPRO_1588",
    "cityName": "Sosnytsia",
    "stationName": "Street Osvity, 21A",
    "localName": "",
    "latitude": "51.524997",
    "longitude": "32.510375",
    "humidity": 69.72,
    "PM10": 15.48,
    "PM2n5": 14.87,
    "Pressure": 994,
    "Temperature": 20,
    "AirQualityIndex": 28.19
  },
  {
    "id": "SAVEDNIPRO_1589",
    "cityName": "Kiliia",
    "stationName": "Street Dunaiska, 92",
    "localName": "",
    "latitude": "45.452392",
    "longitude": "29.261819",
    "humidity": 70.59,
    "PM10": 29.73,
    "PM2n5": 15.99,
    "Pressure": 1005,
    "Temperature": 15,
    "AirQualityIndex": 8.95
  },
  {
    "id": "SAVEDNIPRO_1590",
    "cityName": "Yuzhne",
    "stationName": "prospekt Hryhorivskoho Desanta, 18",
    "localName": "",
    "latitude": "46.621765",
    "longitude": "31.101823",
    "humidity": 63.34,
    "PM10": 54.57,
    "PM2n5": 17.92,
    "Pressure": 981,
    "Temperature": 18,
    "AirQualityIndex": 64.07
  },
  {
    "id": "SAVEDNIPRO_1592",
    "cityName": "Novoukrainka",
    "stationName": "Street Pokrovska, 70",
    "localName": "",
    "latitude": "48.316617",
    "longitude": "31.523581",
    "humidity": 57.92,
    "PM10": 34.96,
    "PM2n5": 11.78,
    "Pressure": 981,
    "Temperature": 13,
    "AirQualityIndex": 189.83
  },
  {
    "id": "SAVEDNIPRO_1593",
    "cityName": "Vasylkivka",
    "stationName": "Vasylkivka",
    "localName": "",
    "latitude": "48.217358",
    "longitude": "36.011523",
    "humidity": 42.84,
    "PM10": 12.35,
    "PM2n5": 2.96,
    "Pressure": 1012,
    "Temperature": 14,
    "AirQualityIndex": 157.85
  },
  {
    "id": "SAVEDNIPRO_1595",
    "cityName": "Kulykivka",
    "stationName": "Street Myru, 67",
    "localName": "",
    "latitude": "51.373776",
    "longitude": "31.645106",
    "humidity": 43.87,
    "PM10": 26.39,
    "PM2n5": 16.52,
    "Pressure": 991,
    "Temperature": 16,
    "AirQualityIndex": 128.61
  },
  {
    "id": "SAVEDNIPRO_1596",
    "cityName": "Mykhailivka",
    "stationName": "Street Shevchenka, 31",
    "localName": "",
    "latitude": "46.585535",
    "longitude": "34.562095",
    "humidity": 62.32,
    "PM10": 44.45,
    "PM2n5": 10,
    "Pressure": 982,
    "Temperature": 17,
    "AirQualityIndex": 156.42
  },
  {
    "id": "SAVEDNIPRO_1597",
    "cityName": "Fastiv",
    "stationName": "Street Trudova, 32",
    "localName": "",
    "latitude": "50.062178",
    "longitude": "29.918784",
    "humidity": 56.34,
    "PM10": 65.04,
    "PM2n5": 19.82,
    "Pressure": 988,
    "Temperature": 14,
    "AirQualityIndex": 175.51
  },
  {
    "id": "SAVEDNIPRO_1601",
    "cityName": "Bilhorod-Dnistrovskyi",
    "stationName": "Street Peremohy, 25",
    "localName": "",
    "latitude": "46.181611",
    "longitude": "30.362611",
    "humidity": 40.73,
    "PM10": 23.45,
    "PM2n5": 14.11,
    "Pressure": 989,
    "Temperature": 19,
    "AirQualityIndex": 160.73
  },
  {
    "id": "SAVEDNIPRO_1602",
    "cityName": "Zatoka",
    "stationName": "Street Prymorska, 20",
    "localName": "",
    "latitude": "46.067602",
    "longitude": "30.457430",
    "humidity": 66.08,
    "PM10": 41.51,
    "PM2n5": 18.64,
    "Pressure": 1020,
    "Temperature": 13,
    "AirQualityIndex": 175.75
  },
  {
    "id": "SAVEDNIPRO_1603",
    "cityName": "Verkhovyna",
    "stationName": "Street Ivana Franka, 3",
    "localName": "",
    "latitude": "48.155409",
    "longitude": "24.829758",
    "humidity": 43.52,
    "PM10": 71.31,
    "PM2n5": 13.61,
    "Pressure": 989,
    "Temperature": 12,
    "AirQualityIndex": 175
  },
  {
    "id": "SAVEDNIPRO_1604",
    "cityName": "Vorokhta",
    "stationName": "Street Danyla Halytsoho, 41",
    "localName": "",
    "latitude": "48.292875",
    "longitude": "24.563048",
    "humidity": 67.62,
    "PM10": 10.26,
    "PM2n5": 15.64,
    "Pressure": 985,
    "Temperature": 18,
    "AirQualityIndex": 74.29
  },
  {
    "id": "SAVEDNIPRO_1605",
    "cityName": "Yasinia",
    "stationName": "Street Myru, 6",
    "localName": "",
    "latitude": "48.271480",
    "longitude": "24.360622",
    "humidity": 48.64,
    "PM10": 55.06,
    "PM2n5": 5.05,
    "Pressure": 985,
    "Temperature": 18,
    "AirQualityIndex": 198.32
  },
  {
    "id": "SAVEDNIPRO_1606",
    "cityName": "Kosiv",
    "stationName": "maidan Nezalezhnosti, 11",
    "localName": "",
    "latitude": "48.320237",
    "longitude": "25.091142",
    "humidity": 61.49,
    "PM10": 36.88,
    "PM2n5": 14.99,
    "Pressure": 989,
    "Temperature": 14,
    "AirQualityIndex": 63.28
  },
  {
    "id": "SAVEDNIPRO_1607",
    "cityName": "Yaremche",
    "stationName": "Street Svobody, 265",
    "localName": "",
    "latitude": "48.448912",
    "longitude": "24.553462",
    "humidity": 52.1,
    "PM10": 76.36,
    "PM2n5": 4.23,
    "Pressure": 999,
    "Temperature": 15,
    "AirQualityIndex": 30.8
  },
  {
    "id": "SAVEDNIPRO_1637",
    "cityName": "Maniava",
    "stationName": "Street Nezalezhnosti, 20",
    "localName": "",
    "latitude": "48.653396",
    "longitude": "24.374891",
    "humidity": 50.26,
    "PM10": 14.67,
    "PM2n5": 14.05,
    "Pressure": 997,
    "Temperature": 14,
    "AirQualityIndex": 130.42
  },
  {
    "id": "SAVEDNIPRO_1638",
    "cityName": "Cherkasy",
    "stationName": "provulok Krainii, 24",
    "localName": "",
    "latitude": "49.4058272",
    "longitude": "32.0392034",
    "humidity": 33.86,
    "PM10": 77.79,
    "PM2n5": 8.76,
    "Pressure": 1004,
    "Temperature": 14,
    "AirQualityIndex": 86.23
  },
  {
    "id": "SAVEDNIPRO_1639",
    "cityName": "Tomashpil",
    "stationName": "ploshcha Tarasa Shevchenka, 1",
    "localName": "",
    "latitude": "48.536566",
    "longitude": "28.513644",
    "humidity": 49.81,
    "PM10": 76.84,
    "PM2n5": 18.02,
    "Pressure": 991,
    "Temperature": 13,
    "AirQualityIndex": 164.45
  },
  {
    "id": "SAVEDNIPRO_1645",
    "cityName": "Bilshivtsi",
    "stationName": "Street Striletska, 5",
    "localName": "",
    "latitude": "49.182508",
    "longitude": "24.743334",
    "humidity": 68.38,
    "PM10": 15.7,
    "PM2n5": 17.3,
    "Pressure": 1011,
    "Temperature": 17,
    "AirQualityIndex": 115.61
  },
  {
    "id": "SAVEDNIPRO_1646",
    "cityName": "Zaozerne",
    "stationName": "Street Shkilna, 59",
    "localName": "",
    "latitude": "48.690250",
    "longitude": "29.155364",
    "humidity": 55.49,
    "PM10": 14.3,
    "PM2n5": 8.48,
    "Pressure": 1002,
    "Temperature": 14,
    "AirQualityIndex": 41.36
  },
  {
    "id": "SAVEDNIPRO_2738",
    "cityName": "Zaporizhzhia",
    "stationName": "Street Sviatoho Mykolaia 67",
    "localName": "",
    "latitude": "47.8159538",
    "longitude": "35.1734128",
    "humidity": 33.31,
    "PM10": 41.98,
    "PM2n5": 17.17,
    "Pressure": 1011,
    "Temperature": 19,
    "AirQualityIndex": 82.51
  },
  {
    "id": "SAVEDNIPRO_2923",
    "cityName": "Petropavlivska Borshchahivka",
    "stationName": "Street Lvivska, 1A, k.4-2",
    "localName": "",
    "latitude": "50.433252",
    "longitude": "30.319928",
    "humidity": 64.56,
    "PM10": 11.97,
    "PM2n5": 16.04,
    "Pressure": 1016,
    "Temperature": 20,
    "AirQualityIndex": 10.9
  },
  {
    "id": "SAVEDNIPRO_2924",
    "cityName": "Kyiv",
    "stationName": "Street Heroiv Oborony, 13",
    "localName": "",
    "latitude": "50.383883",
    "longitude": "30.496689",
    "humidity": 29.61,
    "PM10": 74.68,
    "PM2n5": 5.69,
    "Pressure": 1002,
    "Temperature": 18,
    "AirQualityIndex": 183.65
  },
  {
    "id": "SAVEDNIPRO_2925",
    "cityName": "Kyiv",
    "stationName": "Street Tykhoritska, 30/7",
    "localName": "",
    "latitude": "50.4003378",
    "longitude": "30.4966682",
    "humidity": 72.95,
    "PM10": 75.92,
    "PM2n5": 5.74,
    "Pressure": 998,
    "Temperature": 13,
    "AirQualityIndex": 177.43
  },
  {
    "id": "SAVEDNIPRO_2944",
    "cityName": "Nadvirna",
    "stationName": "Street Soborna, 120",
    "localName": "",
    "latitude": "48.613466",
    "longitude": "24.575289",
    "humidity": 49.73,
    "PM10": 45.28,
    "PM2n5": 6.57,
    "Pressure": 1009,
    "Temperature": 13,
    "AirQualityIndex": 49.03
  },
  {
    "id": "SAVEDNIPRO_2946",
    "cityName": "Verkhovyna",
    "stationName": "Street Kryvets",
    "localName": "",
    "latitude": "48.147531",
    "longitude": "24.785409",
    "humidity": 57.49,
    "PM10": 5.7,
    "PM2n5": 3.18,
    "Pressure": 1020,
    "Temperature": 12,
    "AirQualityIndex": 70.38
  },
  {
    "id": "SAVEDNIPRO_2947",
    "cityName": "Kyiv",
    "stationName": "Street Desiatynna, 13",
    "localName": "",
    "latitude": "50.382794",
    "longitude": "30.457889",
    "humidity": 41.95,
    "PM10": 59.45,
    "PM2n5": 16.62,
    "Pressure": 1013,
    "Temperature": 16,
    "AirQualityIndex": 66.54
  },
  {
    "id": "SAVEDNIPRO_2948",
    "cityName": "Dachne",
    "stationName": "provulok Aptechnyi, 5",
    "localName": "",
    "latitude": "46.582371",
    "longitude": "30.550164",
    "humidity": 72.53,
    "PM10": 26.89,
    "PM2n5": 3.47,
    "Pressure": 1007,
    "Temperature": 20,
    "AirQualityIndex": 162.25
  },
  {
    "id": "SAVEDNIPRO_2971",
    "cityName": "Nadvirna",
    "stationName": "Street Danyla Halytskoho",
    "localName": "",
    "latitude": "48.637791",
    "longitude": "24.589826",
    "humidity": 72.7,
    "PM10": 6.94,
    "PM2n5": 13.08,
    "Pressure": 1005,
    "Temperature": 19,
    "AirQualityIndex": 14.99
  },
  {
    "id": "SAVEDNIPRO_2972",
    "cityName": "Tatariv",
    "stationName": "urochyshche Pihy, 660",
    "localName": "",
    "latitude": "48.334527",
    "longitude": "24.581930",
    "humidity": 42.1,
    "PM10": 37.85,
    "PM2n5": 8.72,
    "Pressure": 989,
    "Temperature": 18,
    "AirQualityIndex": 88.1
  },
  {
    "id": "SAVEDNIPRO_2973",
    "cityName": "Kyiv",
    "stationName": "2-y Tupykovyi provulok, 18",
    "localName": "",
    "latitude": "50.3683248",
    "longitude": "30.6842978",
    "humidity": 74.79,
    "PM10": 26.28,
    "PM2n5": 2.87,
    "Pressure": 1004,
    "Temperature": 20,
    "AirQualityIndex": 196.91
  },
  {
    "id": "SAVEDNIPRO_2974",
    "cityName": "Dnipro",
    "stationName": "prospekt Bohdana Khmelnytskoho, 156",
    "localName": "",
    "latitude": "48.389709",
    "longitude": "34.999168",
    "humidity": 68.39,
    "PM10": 44.36,
    "PM2n5": 12.91,
    "Pressure": 998,
    "Temperature": 14,
    "AirQualityIndex": 86.96
  },
  {
    "id": "SAVEDNIPRO_3014",
    "cityName": "Brovary",
    "stationName": "Street Haidamatska, 33",
    "localName": "",
    "latitude": "50.496656",
    "longitude": "30.744022",
    "humidity": 30.88,
    "PM10": 5.84,
    "PM2n5": 5.91,
    "Pressure": 980,
    "Temperature": 14,
    "AirQualityIndex": 41.97
  },
  {
    "id": "SAVEDNIPRO_3015",
    "cityName": "Peremoha",
    "stationName": "Street Korolova, 10",
    "localName": "",
    "latitude": "50.542000",
    "longitude": "30.825502",
    "humidity": 73.91,
    "PM10": 1.61,
    "PM2n5": 3.53,
    "Pressure": 990,
    "Temperature": 18,
    "AirQualityIndex": 117.7
  },
  {
    "id": "SAVEDNIPRO_3016",
    "cityName": "Kyiv",
    "stationName": "Street Budindustrii, 4",
    "localName": "",
    "latitude": "50.402528",
    "longitude": "30.568056",
    "humidity": 72.65,
    "PM10": 27.96,
    "PM2n5": 16.5,
    "Pressure": 999,
    "Temperature": 20,
    "AirQualityIndex": 142.4
  },
  {
    "id": "SAVEDNIPRO_3017",
    "cityName": "Illinivka",
    "stationName": "Street Krynychna, 32",
    "localName": "",
    "latitude": "48.491370",
    "longitude": "37.673650",
    "humidity": 53.61,
    "PM10": 73.84,
    "PM2n5": 4.12,
    "Pressure": 992,
    "Temperature": 18,
    "AirQualityIndex": 191.53
  },
  {
    "id": "SAVEDNIPRO_3018",
    "cityName": "Kyiv",
    "stationName": "Street Zhylianska, 30A",
    "localName": "",
    "latitude": "50.434808",
    "longitude": "30.510823",
    "humidity": 66.57,
    "PM10": 77.9,
    "PM2n5": 15.78,
    "Pressure": 1009,
    "Temperature": 13,
    "AirQualityIndex": 145.46
  },
  {
    "id": "SAVEDNIPRO_3021",
    "cityName": "Mykolaiv",
    "stationName": "Street Metalurhiv 8",
    "localName": "",
    "latitude": "46.868088",
    "longitude": "32.009947",
    "humidity": 31.02,
    "PM10": 70.57,
    "PM2n5": 17.58,
    "Pressure": 991,
    "Temperature": 14,
    "AirQualityIndex": 115.17
  },
  {
    "id": "SAVEDNIPRO_3022",
    "cityName": "Dnipro",
    "stationName": "Street Nakhimova 41",
    "localName": "",
    "latitude": "48.4464278",
    "longitude": "35.0151460",
    "humidity": 61.42,
    "PM10": 56.3,
    "PM2n5": 8.49,
    "Pressure": 983,
    "Temperature": 17,
    "AirQualityIndex": 191.75
  },
  {
    "id": "SAVEDNIPRO_3144",
    "cityName": "Svydivok",
    "stationName": "Street Sydorchuka, 37",
    "localName": "",
    "latitude": "49.512636",
    "longitude": "31.906911",
    "humidity": 52.25,
    "PM10": 36.8,
    "PM2n5": 5.29,
    "Pressure": 1000,
    "Temperature": 13,
    "AirQualityIndex": 25.09
  },
  {
    "id": "SAVEDNIPRO_3210",
    "cityName": "Vyshneve",
    "stationName": "Street Pershotravneva, 21",
    "localName": "Luftdaten #40723",
    "latitude": "50.382",
    "longitude": "30.38",
    "humidity": 68.2,
    "PM10": 54.07,
    "PM2n5": 7.54,
    "Pressure": 986,
    "Temperature": 13,
    "AirQualityIndex": 8.56
  },
  {
    "id": "SAVEDNIPRO_3260",
    "cityName": "Cherkasy",
    "stationName": "Street 30-richchia Peremohy, 38",
    "localName": "",
    "latitude": "49.4255539915765",
    "longitude": "32.01328954180976",
    "humidity": 32.79,
    "PM10": 69.89,
    "PM2n5": 1.68,
    "Pressure": 1010,
    "Temperature": 13,
    "AirQualityIndex": 52.59
  },
  {
    "id": "SAVEDNIPRO_3262",
    "cityName": "Cherkasy",
    "stationName": "bulvar Shevchenko, 460",
    "localName": "",
    "latitude": "49.422005",
    "longitude": "32.096475",
    "humidity": 60.67,
    "PM10": 17.7,
    "PM2n5": 7.4,
    "Pressure": 986,
    "Temperature": 15,
    "AirQualityIndex": 7.57
  },
  {
    "id": "SAVEDNIPRO_3263",
    "cityName": "Cherkasy",
    "stationName": "Street Baidy Vyshnevetskoho, 49",
    "localName": "",
    "latitude": "49.442538",
    "longitude": "32.056531",
    "humidity": 29.44,
    "PM10": 12.21,
    "PM2n5": 1.98,
    "Pressure": 1008,
    "Temperature": 15,
    "AirQualityIndex": 4.1
  },
  {
    "id": "SAVEDNIPRO_3264",
    "cityName": "Cherkasy",
    "stationName": "Street Pakhariv Khutir, 29",
    "localName": "",
    "latitude": "49.456974",
    "longitude": "32.007218",
    "humidity": 74.72,
    "PM10": 77.26,
    "PM2n5": 8.34,
    "Pressure": 999,
    "Temperature": 16,
    "AirQualityIndex": 137.47
  },
  {
    "id": "SAVEDNIPRO_3306",
    "cityName": "Kyiv",
    "stationName": "Street Lavrska, 8",
    "localName": "",
    "latitude": "50.436484",
    "longitude": "30.552905",
    "humidity": 65.17,
    "PM10": 25.46,
    "PM2n5": 7.41,
    "Pressure": 984,
    "Temperature": 20,
    "AirQualityIndex": 120.88
  },
  {
    "id": "SAVEDNIPRO_3398",
    "cityName": "Kyiv",
    "stationName": "Street Vasylia Tiutiunnyka, 53",
    "localName": "",
    "latitude": "50.417128",
    "longitude": "30.528690",
    "humidity": 49.86,
    "PM10": 46.69,
    "PM2n5": 2.56,
    "Pressure": 992,
    "Temperature": 13,
    "AirQualityIndex": 164.66
  },
  {
    "id": "SAVEDNIPRO_3401",
    "cityName": "Kyiv",
    "stationName": "Street Yelyzavety Chavdar, 6",
    "localName": "",
    "latitude": "50.3915128",
    "longitude": "30.6237862",
    "humidity": 68.23,
    "PM10": 40.68,
    "PM2n5": 17.57,
    "Pressure": 1006,
    "Temperature": 13,
    "AirQualityIndex": 122.59
  },
  {
    "id": "SAVEDNIPRO_3418",
    "cityName": "Kremenets",
    "stationName": "Street Slovatskoho",
    "localName": "",
    "latitude": "50.095595",
    "longitude": "25.722824",
    "humidity": 46.95,
    "PM10": 48.12,
    "PM2n5": 12.66,
    "Pressure": 1004,
    "Temperature": 14,
    "AirQualityIndex": 118.24
  },
  {
    "id": "SAVEDNIPRO_3419",
    "cityName": "Petropavlivska Borshchahivka",
    "stationName": "Street Dnipropetrovska",
    "localName": "",
    "latitude": "50.4218146",
    "longitude": "30.3273005",
    "humidity": 28.49,
    "PM10": 5.38,
    "PM2n5": 7.25,
    "Pressure": 983,
    "Temperature": 12,
    "AirQualityIndex": 184.62
  },
  {
    "id": "SAVEDNIPRO_3420",
    "cityName": "Lviv",
    "stationName": "Street Zelena, 27",
    "localName": "",
    "latitude": "49.833325",
    "longitude": "24.039184",
    "humidity": 65.66,
    "PM10": 13.33,
    "PM2n5": 11.52,
    "Pressure": 983,
    "Temperature": 13,
    "AirQualityIndex": 199.65
  },
  {
    "id": "SAVEDNIPRO_3422",
    "cityName": "Kyiv",
    "stationName": "bulvar Perova, 10A",
    "localName": "",
    "latitude": "50.471205",
    "longitude": "30.598600",
    "humidity": 40.71,
    "PM10": 52.42,
    "PM2n5": 5.95,
    "Pressure": 1009,
    "Temperature": 19,
    "AirQualityIndex": 119.73
  },
  {
    "id": "SAVEDNIPRO_3423",
    "cityName": "Kozyn",
    "stationName": "Street Zarichna, 4",
    "localName": "",
    "latitude": "50.234897",
    "longitude": "30.663275",
    "humidity": 45.26,
    "PM10": 8.49,
    "PM2n5": 12.17,
    "Pressure": 1003,
    "Temperature": 12,
    "AirQualityIndex": 172.64
  },
  {
    "id": "SAVEDNIPRO_3424",
    "cityName": "Vyshenky",
    "stationName": "Street Velyka Naberezhna",
    "localName": "",
    "latitude": "50.2850885",
    "longitude": "30.6995002",
    "humidity": 45.95,
    "PM10": 43.97,
    "PM2n5": 7.56,
    "Pressure": 1019,
    "Temperature": 18,
    "AirQualityIndex": 16.9
  },
  {
    "id": "SAVEDNIPRO_3535",
    "cityName": "Kyiv",
    "stationName": "Street Sovska, 23",
    "localName": "",
    "latitude": "50.397128",
    "longitude": "30.455709",
    "humidity": 35.01,
    "PM10": 76.15,
    "PM2n5": 5.3,
    "Pressure": 991,
    "Temperature": 13,
    "AirQualityIndex": 198.02
  },
  {
    "id": "SAVEDNIPRO_3572",
    "cityName": "Kyiv",
    "stationName": "Street Mykhaila Drahomanova, 17",
    "localName": "",
    "latitude": "50.409345",
    "longitude": "30.639613",
    "humidity": 49.29,
    "PM10": 8.28,
    "PM2n5": 18.67,
    "Pressure": 993,
    "Temperature": 17,
    "AirQualityIndex": 69.69
  },
  {
    "id": "SAVEDNIPRO_3594",
    "cityName": "Baranivka",
    "stationName": "Street Ivana Franka, 1A",
    "localName": "",
    "latitude": "50.287114",
    "longitude": "27.648709",
    "humidity": 40.39,
    "PM10": 20.87,
    "PM2n5": 12.14,
    "Pressure": 1014,
    "Temperature": 16,
    "AirQualityIndex": 142.79
  },
  {
    "id": "SAVEDNIPRO_3595",
    "cityName": "Dnipro",
    "stationName": "Street Vysokovoltna, 14m",
    "localName": "",
    "latitude": "48.423869",
    "longitude": "35.031133",
    "humidity": 52.76,
    "PM10": 19.97,
    "PM2n5": 8.32,
    "Pressure": 1002,
    "Temperature": 14,
    "AirQualityIndex": 139.41
  },
  {
    "id": "SAVEDNIPRO_3596",
    "cityName": "Horishni Plavni",
    "stationName": "Street Horkoho, 195",
    "localName": "",
    "latitude": "49.034799",
    "longitude": "33.564750",
    "humidity": 68.97,
    "PM10": 65.92,
    "PM2n5": 11.85,
    "Pressure": 990,
    "Temperature": 18,
    "AirQualityIndex": 118.5
  },
  {
    "id": "SAVEDNIPRO_3597",
    "cityName": "Khotiv",
    "stationName": "Street Lisova, 34",
    "localName": "",
    "latitude": "50.3328803",
    "longitude": "30.4440768",
    "humidity": 40.86,
    "PM10": 58.03,
    "PM2n5": 9.83,
    "Pressure": 999,
    "Temperature": 18,
    "AirQualityIndex": 10.31
  },
  {
    "id": "SAVEDNIPRO_3605",
    "cityName": "Dnipro",
    "stationName": "Street Molodohvardiiska, 18",
    "localName": "",
    "latitude": "48.476547",
    "longitude": "35.117154",
    "humidity": 26.48,
    "PM10": 11.99,
    "PM2n5": 16.91,
    "Pressure": 1002,
    "Temperature": 19,
    "AirQualityIndex": 190.44
  },
  {
    "id": "SAVEDNIPRO_3608",
    "cityName": "Dnipro",
    "stationName": "Street 20-richchia Peremohy, 43",
    "localName": "",
    "latitude": "48.416020",
    "longitude": "35.132420",
    "humidity": 54.64,
    "PM10": 29.36,
    "PM2n5": 3.09,
    "Pressure": 1009,
    "Temperature": 14,
    "AirQualityIndex": 56.85
  },
  {
    "id": "SAVEDNIPRO_3616",
    "cityName": "Dnipro",
    "stationName": "Street Topolyna, 35",
    "localName": "",
    "latitude": "48.391809",
    "longitude": "35.021741",
    "humidity": 53.75,
    "PM10": 61.07,
    "PM2n5": 11.53,
    "Pressure": 985,
    "Temperature": 15,
    "AirQualityIndex": 125.4
  },
  {
    "id": "SAVEDNIPRO_3617",
    "cityName": "Dnipro",
    "stationName": "Street Chernyshevskoho, 24A",
    "localName": "",
    "latitude": "48.453418",
    "longitude": "35.053162",
    "humidity": 46.97,
    "PM10": 58.52,
    "PM2n5": 10.59,
    "Pressure": 1006,
    "Temperature": 15,
    "AirQualityIndex": 107.3
  },
  {
    "id": "SAVEDNIPRO_3683",
    "cityName": "Krekhaiv",
    "stationName": "Sadove tovarystvo Khimik",
    "localName": "",
    "latitude": "50.783955",
    "longitude": "30.769977",
    "humidity": 31.98,
    "PM10": 75.38,
    "PM2n5": 1.53,
    "Pressure": 997,
    "Temperature": 18,
    "AirQualityIndex": 181.03
  },
  {
    "id": "SAVEDNIPRO_4061",
    "cityName": "Dnipro",
    "stationName": "Donetske shose, 1",
    "localName": "",
    "latitude": "48.5104497",
    "longitude": "34.9874743",
    "humidity": 65.64,
    "PM10": 23,
    "PM2n5": 14.43,
    "Pressure": 980,
    "Temperature": 14,
    "AirQualityIndex": 136.68
  },
  {
    "id": "SAVEDNIPRO_4185",
    "cityName": "Rozhivka",
    "stationName": "Street Slavy, 17",
    "localName": "",
    "latitude": "50.600621",
    "longitude": "30.761064",
    "humidity": 61.09,
    "PM10": 71.21,
    "PM2n5": 6.2,
    "Pressure": 996,
    "Temperature": 18,
    "AirQualityIndex": 36.62
  },
  {
    "id": "SAVEDNIPRO_4186",
    "cityName": "Ukrainka",
    "stationName": "Street Sosnova",
    "localName": "",
    "latitude": "50.155032",
    "longitude": "30.746305",
    "humidity": 50.73,
    "PM10": 69.22,
    "PM2n5": 3.3,
    "Pressure": 990,
    "Temperature": 12,
    "AirQualityIndex": 85.86
  },
  {
    "id": "SAVEDNIPRO_4187",
    "cityName": "Brovary",
    "stationName": "Street Oleksiia Bolshechenka, 7",
    "localName": "",
    "latitude": "50.519816",
    "longitude": "30.774017",
    "humidity": 68.88,
    "PM10": 72.33,
    "PM2n5": 18.38,
    "Pressure": 1013,
    "Temperature": 14,
    "AirQualityIndex": 44.77
  },
  {
    "id": "SAVEDNIPRO_4189",
    "cityName": "Kharkiv",
    "stationName": "prospekt Nauky, 43",
    "localName": "",
    "latitude": "50.033602",
    "longitude": "36.220648",
    "humidity": 25.57,
    "PM10": 15.91,
    "PM2n5": 12.46,
    "Pressure": 987,
    "Temperature": 20,
    "AirQualityIndex": 196.68
  },
  {
    "id": "SAVEDNIPRO_4190",
    "cityName": "Vita-Poshtova",
    "stationName": "Street Ozerna",
    "localName": "",
    "latitude": "50.307679",
    "longitude": "30.363271",
    "humidity": 31.47,
    "PM10": 67.34,
    "PM2n5": 8.13,
    "Pressure": 981,
    "Temperature": 12,
    "AirQualityIndex": 198.45
  },
  {
    "id": "SAVEDNIPRO_4200",
    "cityName": "Dnipro",
    "stationName": "Street Hidroparkova, 9",
    "localName": "",
    "latitude": "48.478241",
    "longitude": "34.903792",
    "humidity": 74.27,
    "PM10": 64.1,
    "PM2n5": 8.2,
    "Pressure": 1010,
    "Temperature": 19,
    "AirQualityIndex": 146.24
  },
  {
    "id": "SAVEDNIPRO_4201",
    "cityName": "Kyiv",
    "stationName": "Street Pavla Pototskoho",
    "localName": "",
    "latitude": "50.3963897",
    "longitude": "30.4485849",
    "humidity": 74.03,
    "PM10": 21.63,
    "PM2n5": 6.39,
    "Pressure": 1009,
    "Temperature": 15,
    "AirQualityIndex": 124.12
  },
  {
    "id": "SAVEDNIPRO_4202",
    "cityName": "Nova Kakhovka",
    "stationName": "Street Paryzkoi komuny",
    "localName": "",
    "latitude": "46.757534",
    "longitude": "33.369862",
    "humidity": 46.62,
    "PM10": 74.35,
    "PM2n5": 5.51,
    "Pressure": 1003,
    "Temperature": 17,
    "AirQualityIndex": 77.16
  },
  {
    "id": "SAVEDNIPRO_4208",
    "cityName": "Dnipro",
    "stationName": "Street Berdianska, 1",
    "localName": "",
    "latitude": "48.487060",
    "longitude": "35.066893",
    "humidity": 70.91,
    "PM10": 46,
    "PM2n5": 18.5,
    "Pressure": 1003,
    "Temperature": 18,
    "AirQualityIndex": 170.47
  },
  {
    "id": "SAVEDNIPRO_4210",
    "cityName": "Dnipro",
    "stationName": "prospekt Bohdana Khmelnytskoho, 229",
    "localName": "",
    "latitude": "48.373500",
    "longitude": "34.995097",
    "humidity": 47.3,
    "PM10": 45.96,
    "PM2n5": 6.88,
    "Pressure": 989,
    "Temperature": 12,
    "AirQualityIndex": 97.95
  },
  {
    "id": "SAVEDNIPRO_4232",
    "cityName": "Kyiv",
    "stationName": "Street Desiatynna, 13",
    "localName": "",
    "latitude": "50.457508",
    "longitude": "30.519401",
    "humidity": 58.66,
    "PM10": 56.45,
    "PM2n5": 3.25,
    "Pressure": 989,
    "Temperature": 17,
    "AirQualityIndex": 80.47
  },
  {
    "id": "SAVEDNIPRO_13405",
    "cityName": "Roslavychi",
    "stationName": "KH Berezovaia roshcha",
    "localName": "",
    "latitude": "50.266944",
    "longitude": "30.443000",
    "humidity": 32.78,
    "PM10": 77.32,
    "PM2n5": 8.24,
    "Pressure": 1005,
    "Temperature": 15,
    "AirQualityIndex": 12.77
  },
  {
    "id": "SAVEDNIPRO_13406",
    "cityName": "Hatne",
    "stationName": "vulytsa Barvinkova, 11a",
    "localName": "",
    "latitude": "50.371506",
    "longitude": "30.422791",
    "humidity": 35.72,
    "PM10": 69.89,
    "PM2n5": 3.02,
    "Pressure": 989,
    "Temperature": 16,
    "AirQualityIndex": 32.51
  },
  {
    "id": "SAVEDNIPRO_13407",
    "cityName": "Kyiv",
    "stationName": "bulvar Darnytskyi, 10",
    "localName": "",
    "latitude": "50.464790",
    "longitude": "30.611383",
    "humidity": 25.82,
    "PM10": 27.68,
    "PM2n5": 4.53,
    "Pressure": 1009,
    "Temperature": 17,
    "AirQualityIndex": 72.58
  },
  {
    "id": "SAVEDNIPRO_13409",
    "cityName": "Severynivka",
    "stationName": "Street Pavla Skoropadskoho",
    "localName": "",
    "latitude": "50.395791",
    "longitude": "29.978961",
    "humidity": 44.69,
    "PM10": 40.68,
    "PM2n5": 9.17,
    "Pressure": 987,
    "Temperature": 15,
    "AirQualityIndex": 70.06
  },
  {
    "id": "SAVEDNIPRO_13411",
    "cityName": "Kozyn",
    "stationName": "Street Starokyivska",
    "localName": "",
    "latitude": "50.257856",
    "longitude": "30.653474",
    "humidity": 62.55,
    "PM10": 71.68,
    "PM2n5": 16.54,
    "Pressure": 981,
    "Temperature": 18,
    "AirQualityIndex": 188.11
  },
  {
    "id": "SAVEDNIPRO_13413",
    "cityName": "Kyiv",
    "stationName": "Street Hertsena, 35",
    "localName": "",
    "latitude": "50.472750",
    "longitude": "30.463750",
    "humidity": 43.96,
    "PM10": 62.41,
    "PM2n5": 14.86,
    "Pressure": 1014,
    "Temperature": 13,
    "AirQualityIndex": 160.01
  },
  {
    "id": "SAVEDNIPRO_13414",
    "cityName": "Bohuslav",
    "stationName": "Street Ivana Franka, 22/1",
    "localName": "",
    "latitude": "49.537806",
    "longitude": "30.864059",
    "humidity": 26.87,
    "PM10": 56.86,
    "PM2n5": 2.78,
    "Pressure": 1020,
    "Temperature": 13,
    "AirQualityIndex": 33.89
  },
  {
    "id": "SAVEDNIPRO_13419",
    "cityName": "Shevchenkove",
    "stationName": "provulok Yuvileinyi, 7",
    "localName": "",
    "latitude": "50.416389",
    "longitude": "30.241333",
    "humidity": 53.07,
    "PM10": 6.45,
    "PM2n5": 4.65,
    "Pressure": 986,
    "Temperature": 20,
    "AirQualityIndex": 140.88
  },
  {
    "id": "SAVEDNIPRO_13533",
    "cityName": "Vyshenky",
    "stationName": "Zoloche-Provans, 2",
    "localName": "",
    "latitude": "50.298605",
    "longitude": "30.703356",
    "humidity": 34.23,
    "PM10": 23.64,
    "PM2n5": 3.71,
    "Pressure": 1007,
    "Temperature": 16,
    "AirQualityIndex": 110.16
  },
  {
    "id": "SAVEDNIPRO_13536",
    "cityName": "Lviv",
    "stationName": "Street Sumska, 10",
    "localName": "",
    "latitude": "49.812327",
    "longitude": "24.036764",
    "humidity": 28.13,
    "PM10": 61.6,
    "PM2n5": 3.2,
    "Pressure": 1012,
    "Temperature": 14,
    "AirQualityIndex": 93.8
  },
  {
    "id": "SAVEDNIPRO_13537",
    "cityName": "Kyiv",
    "stationName": "prospekt Beresteiskyi, 67",
    "localName": "",
    "latitude": "50.458610",
    "longitude": "30.410043",
    "humidity": 38.28,
    "PM10": 68.26,
    "PM2n5": 9.88,
    "Pressure": 997,
    "Temperature": 13,
    "AirQualityIndex": 161.63
  },
  {
    "id": "SAVEDNIPRO_13538",
    "cityName": "Dnipro",
    "stationName": "Street Zooparkova",
    "localName": "",
    "latitude": "48.473475",
    "longitude": "35.195720",
    "humidity": 68.51,
    "PM10": 43.16,
    "PM2n5": 18.33,
    "Pressure": 1001,
    "Temperature": 12,
    "AirQualityIndex": 29.6
  },
  {
    "id": "SAVEDNIPRO_13539",
    "cityName": "Zhovkva",
    "stationName": "Street Kyivska",
    "localName": "",
    "latitude": "50.054100",
    "longitude": "23.956800",
    "humidity": 41.34,
    "PM10": 40.67,
    "PM2n5": 6.33,
    "Pressure": 993,
    "Temperature": 16,
    "AirQualityIndex": 170.25
  },
  {
    "id": "SAVEDNIPRO_13540",
    "cityName": "Kyiv",
    "stationName": "Street Levitana, 3",
    "localName": "",
    "latitude": "50.375516",
    "longitude": "30.541971",
    "humidity": 50.96,
    "PM10": 74.6,
    "PM2n5": 7.55,
    "Pressure": 982,
    "Temperature": 15,
    "AirQualityIndex": 139.88
  },
  {
    "id": "SAVEDNIPRO_13710",
    "cityName": "Vyshenky",
    "stationName": "Zoloche-Provans, 1",
    "localName": "",
    "latitude": "50.299113",
    "longitude": "30.703047",
    "humidity": 47.56,
    "PM10": 75.24,
    "PM2n5": 12.59,
    "Pressure": 993,
    "Temperature": 18,
    "AirQualityIndex": 106.65
  },
  {
    "id": "SAVEDNIPRO_13711",
    "cityName": "Petrushky",
    "stationName": "Sadivnytske Tovarystvo \"Yuryst\"",
    "localName": "",
    "latitude": "50.4073682",
    "longitude": "30.1595883",
    "humidity": 51.33,
    "PM10": 26.5,
    "PM2n5": 8.88,
    "Pressure": 1012,
    "Temperature": 16,
    "AirQualityIndex": 78.17
  },
  {
    "id": "SAVEDNIPRO_13715",
    "cityName": "Zvenyhorodka",
    "stationName": "Street Viacheslava Chornovola, 40",
    "localName": "",
    "latitude": "49.0768671",
    "longitude": "30.9639523",
    "humidity": 62.91,
    "PM10": 54.59,
    "PM2n5": 6.85,
    "Pressure": 1003,
    "Temperature": 14,
    "AirQualityIndex": 184.56
  },
  {
    "id": "SAVEDNIPRO_13965",
    "cityName": "Kyiv",
    "stationName": "prospekt Akademika Hlushkova, 1P30",
    "localName": "",
    "latitude": "50.3774076",
    "longitude": "30.4815071",
    "humidity": 72.85,
    "PM10": 46.34,
    "PM2n5": 19.14,
    "Pressure": 1006,
    "Temperature": 13,
    "AirQualityIndex": 72.53
  },
  {
    "id": "SAVEDNIPRO_14712",
    "cityName": "Mykolaivka",
    "stationName": "Street Henerala Pushkina, 45",
    "localName": "",
    "latitude": "48.362656",
    "longitude": "34.703311",
    "humidity": 50.45,
    "PM10": 9.51,
    "PM2n5": 15,
    "Pressure": 981,
    "Temperature": 12,
    "AirQualityIndex": 104.57
  },
  {
    "id": "SAVEDNIPRO_14713",
    "cityName": "Cherkasy",
    "stationName": "provulok Sichovyi, 17",
    "localName": "",
    "latitude": "49.428755",
    "longitude": "32.066555",
    "humidity": 55.79,
    "PM10": 11.38,
    "PM2n5": 16.58,
    "Pressure": 1019,
    "Temperature": 13,
    "AirQualityIndex": 118.33
  },
  {
    "id": "SAVEDNIPRO_14714",
    "cityName": "Dnipro",
    "stationName": "Street Naberezhna Zavodska, 44",
    "localName": "",
    "latitude": "48.490444",
    "longitude": "34.985071",
    "humidity": 59.71,
    "PM10": 17.1,
    "PM2n5": 3.31,
    "Pressure": 1006,
    "Temperature": 15,
    "AirQualityIndex": 129.15
  },
  {
    "id": "SAVEDNIPRO_14758",
    "cityName": "Zaporizhzhia",
    "stationName": "Street Nezalezhnoi Ukrainy, 68A",
    "localName": "",
    "latitude": "47.847054111908996",
    "longitude": "35.12933723683439",
    "humidity": 50.59,
    "PM10": 14.57,
    "PM2n5": 9.8,
    "Pressure": 1019,
    "Temperature": 17,
    "AirQualityIndex": 166.64
  },
  {
    "id": "SAVEDNIPRO_15702",
    "cityName": "Kluziv",
    "stationName": "Street Spilna",
    "localName": "",
    "latitude": "48.954444",
    "longitude": "24.715858",
    "humidity": 26.21,
    "PM10": 77.34,
    "PM2n5": 4.69,
    "Pressure": 991,
    "Temperature": 18,
    "AirQualityIndex": 184.42
  },
  {
    "id": "SAVEDNIPRO_15703",
    "cityName": "Kruhlyk",
    "stationName": "Street Teremkivska, 10",
    "localName": "",
    "latitude": "50.306289",
    "longitude": "30.420185",
    "humidity": 50.86,
    "PM10": 3.51,
    "PM2n5": 3.01,
    "Pressure": 1017,
    "Temperature": 18,
    "AirQualityIndex": 167.41
  },
  {
    "id": "SAVEDNIPRO_15705",
    "cityName": "Kharkiv",
    "stationName": "Street Valentynivska, 24A",
    "localName": "",
    "latitude": "50.012753",
    "longitude": "36.334998",
    "humidity": 70.05,
    "PM10": 43.25,
    "PM2n5": 18.56,
    "Pressure": 1003,
    "Temperature": 18,
    "AirQualityIndex": 38.88
  },
  {
    "id": "SAVEDNIPRO_15712",
    "cityName": "Stari Petrivtsi",
    "stationName": "vul. Dachna",
    "localName": "",
    "latitude": "50.642541",
    "longitude": "30.432218",
    "humidity": 72.51,
    "PM10": 25.58,
    "PM2n5": 8.88,
    "Pressure": 1020,
    "Temperature": 17,
    "AirQualityIndex": 59.27
  },
  {
    "id": "SAVEDNIPRO_16860",
    "cityName": "Sievierodonetsk",
    "stationName": "75-y mykroraion",
    "localName": "",
    "latitude": "48.946746",
    "longitude": "38.524948",
    "humidity": 38.33,
    "PM10": 32.66,
    "PM2n5": 16.53,
    "Pressure": 994,
    "Temperature": 16,
    "AirQualityIndex": 133.6
  },
  {
    "id": "SAVEDNIPRO_16862",
    "cityName": "Khotiv",
    "stationName": "vul. Partyzanska, 1A",
    "localName": "",
    "latitude": "50.326409",
    "longitude": "30.470360",
    "humidity": 33.06,
    "PM10": 77.68,
    "PM2n5": 19.62,
    "Pressure": 1013,
    "Temperature": 14,
    "AirQualityIndex": 145.8
  },
  {
    "id": "SAVEDNIPRO_17448",
    "cityName": "Dnipro",
    "stationName": "Street Vykonkomivska, 24B",
    "localName": "",
    "latitude": "48.456973",
    "longitude": "35.047031",
    "humidity": 64.5,
    "PM10": 43.49,
    "PM2n5": 14.13,
    "Pressure": 985,
    "Temperature": 13,
    "AirQualityIndex": 151.72
  },
  {
    "id": "SAVEDNIPRO_17802",
    "cityName": "Nikopol",
    "stationName": "Street Dovhalivska",
    "localName": "",
    "latitude": "47.576907",
    "longitude": "34.459222",
    "humidity": 62.55,
    "PM10": 55.1,
    "PM2n5": 6.45,
    "Pressure": 988,
    "Temperature": 13,
    "AirQualityIndex": 19.02
  },
  {
    "id": "SAVEDNIPRO_17817",
    "cityName": "Nizhyn",
    "stationName": "Street Syniakivska, 96",
    "localName": "",
    "latitude": "51.037223",
    "longitude": "31.876354",
    "humidity": 26.5,
    "PM10": 29.81,
    "PM2n5": 10.82,
    "Pressure": 990,
    "Temperature": 16,
    "AirQualityIndex": 191.99
  },
  {
    "id": "SAVEDNIPRO_17865",
    "cityName": "Kolomyia",
    "stationName": "Street Hnata Kovtsuniaka, 2",
    "localName": "",
    "latitude": "48.535159",
    "longitude": "25.034321",
    "humidity": 33.63,
    "PM10": 18.21,
    "PM2n5": 19.4,
    "Pressure": 987,
    "Temperature": 18,
    "AirQualityIndex": 57.21
  },
  {
    "id": "SAVEDNIPRO_17895",
    "cityName": "Odesa",
    "stationName": "Street Akademika Korolova, 81",
    "localName": "",
    "latitude": "46.387139",
    "longitude": "30.723278",
    "humidity": 56.76,
    "PM10": 15.89,
    "PM2n5": 16.28,
    "Pressure": 1019,
    "Temperature": 13,
    "AirQualityIndex": 190.19
  },
  {
    "id": "SAVEDNIPRO_17896",
    "cityName": "Vyshhorod",
    "stationName": "Street Sholudenka, 24",
    "localName": "",
    "latitude": "50.597002",
    "longitude": "30.465978",
    "humidity": 31.46,
    "PM10": 48.69,
    "PM2n5": 10.29,
    "Pressure": 1009,
    "Temperature": 13,
    "AirQualityIndex": 56.44
  },
  {
    "id": "SAVEDNIPRO_18420",
    "cityName": "Berezhany",
    "stationName": "ploshcha Rynok",
    "localName": "",
    "latitude": "49.445221",
    "longitude": "24.938534",
    "humidity": 29.89,
    "PM10": 65.42,
    "PM2n5": 19.12,
    "Pressure": 1006,
    "Temperature": 18,
    "AirQualityIndex": 154.02
  },
  {
    "id": "SAVEDNIPRO_18511",
    "cityName": "Kherson",
    "stationName": "Beryslavske shose, 12A",
    "localName": "",
    "latitude": "46.665987",
    "longitude": "32.635329",
    "humidity": 63.75,
    "PM10": 3.62,
    "PM2n5": 17.14,
    "Pressure": 1009,
    "Temperature": 20,
    "AirQualityIndex": 2.76
  },
  {
    "id": "SAVEDNIPRO_18729",
    "cityName": "Mala Oleksandrivka",
    "stationName": "Street Molodizhna, 12",
    "localName": "",
    "latitude": "47.2973894",
    "longitude": "33.2816014",
    "humidity": 37.83,
    "PM10": 73.34,
    "PM2n5": 17.85,
    "Pressure": 993,
    "Temperature": 17,
    "AirQualityIndex": 137.64
  },
  {
    "id": "SAVEDNIPRO_18736",
    "cityName": "Mykolaivka",
    "stationName": "Sadivnytske Tovarystvo \"Mekhanik\"",
    "localName": "",
    "latitude": "50.449945",
    "longitude": "30.016305",
    "humidity": 51.99,
    "PM10": 37.15,
    "PM2n5": 8.4,
    "Pressure": 1007,
    "Temperature": 19,
    "AirQualityIndex": 15.36
  },
  {
    "id": "SAVEDNIPRO_18802",
    "cityName": "Kyiv",
    "stationName": "prospekt Beresteiskyi, 30",
    "localName": "",
    "latitude": "50.452248",
    "longitude": "30.464829",
    "humidity": 35,
    "PM10": 5.28,
    "PM2n5": 10.15,
    "Pressure": 1016,
    "Temperature": 20,
    "AirQualityIndex": 61.27
  },
  {
    "id": "SAVEDNIPRO_18986",
    "cityName": "Dolishnii Luzhok",
    "stationName": "Dolishnoluzhetska SZSh Drohobytskoi miskoi rady",
    "localName": "",
    "latitude": "49.455202",
    "longitude": "23.377091",
    "humidity": 73.08,
    "PM10": 71.16,
    "PM2n5": 5.17,
    "Pressure": 997,
    "Temperature": 15,
    "AirQualityIndex": 96.78
  },
  {
    "id": "SAVEDNIPRO_19014",
    "cityName": "Dniprorudne",
    "stationName": "Street Heroiv pratsi, 7",
    "localName": "",
    "latitude": "47.385610",
    "longitude": "35.000290",
    "humidity": 58.79,
    "PM10": 63.96,
    "PM2n5": 12.64,
    "Pressure": 981,
    "Temperature": 12,
    "AirQualityIndex": 49.69
  },
  {
    "id": "SAVEDNIPRO_19101",
    "cityName": "Novyi Buh",
    "stationName": "Street Shepelia",
    "localName": "",
    "latitude": "47.6801522",
    "longitude": "32.5082539",
    "humidity": 59.18,
    "PM10": 64.64,
    "PM2n5": 7.63,
    "Pressure": 987,
    "Temperature": 14,
    "AirQualityIndex": 19.16
  },
  {
    "id": "SAVEDNIPRO_19104",
    "cityName": "Kyiv",
    "stationName": "prospekt Peremohy, 30",
    "localName": "",
    "latitude": "50.452174",
    "longitude": "30.464789",
    "humidity": 35.73,
    "PM10": 77.08,
    "PM2n5": 19.93,
    "Pressure": 1001,
    "Temperature": 19,
    "AirQualityIndex": 183.13
  },
  {
    "id": "SAVEDNIPRO_19108",
    "cityName": "Vita-Poshtova",
    "stationName": "Britannica School",
    "localName": "",
    "latitude": "50.333593",
    "longitude": "30.351063",
    "humidity": 66.7,
    "PM10": 60.33,
    "PM2n5": 19.87,
    "Pressure": 1005,
    "Temperature": 12,
    "AirQualityIndex": 33.32
  },
  {
    "id": "SAVEDNIPRO_19116",
    "cityName": "Kyiv",
    "stationName": "Street Lysychanska, 35",
    "localName": "",
    "latitude": "50.411976",
    "longitude": "30.496778",
    "humidity": 36.57,
    "PM10": 24.41,
    "PM2n5": 1.84,
    "Pressure": 992,
    "Temperature": 16,
    "AirQualityIndex": 178.67
  },
  {
    "id": "SAVEDNIPRO_19117",
    "cityName": "Zaporizhzhia",
    "stationName": "Street Patorzhynskoho",
    "localName": "",
    "latitude": "47.8689649",
    "longitude": "35.2297073",
    "humidity": 64.86,
    "PM10": 74.26,
    "PM2n5": 1.59,
    "Pressure": 995,
    "Temperature": 15,
    "AirQualityIndex": 109.35
  },
  {
    "id": "SAVEDNIPRO_19179",
    "cityName": "Mariupol",
    "stationName": "Street Novorosiisiiska, 12",
    "localName": "",
    "latitude": "47.067450",
    "longitude": "37.485584",
    "humidity": 42.64,
    "PM10": 75.35,
    "PM2n5": 2.75,
    "Pressure": 983,
    "Temperature": 18,
    "AirQualityIndex": 70.56
  },
  {
    "id": "SAVEDNIPRO_19246",
    "cityName": "Hrushkivtsi",
    "stationName": "Street Peremohy, 32",
    "localName": "",
    "latitude": "49.51477",
    "longitude": "28.44255",
    "humidity": 54.36,
    "PM10": 58.44,
    "PM2n5": 15.55,
    "Pressure": 1018,
    "Temperature": 20,
    "AirQualityIndex": 115.01
  },
  {
    "id": "SAVEDNIPRO_19298",
    "cityName": "Chornobai",
    "stationName": "provulok Slynka, 4",
    "localName": "",
    "latitude": "49.666631",
    "longitude": "32.325405",
    "humidity": 41.91,
    "PM10": 58.7,
    "PM2n5": 15.84,
    "Pressure": 1003,
    "Temperature": 16,
    "AirQualityIndex": 189.52
  },
  {
    "id": "SAVEDNIPRO_19301",
    "cityName": "Klavdiievo-Tarasove",
    "stationName": "Street Shevchenko, 99",
    "localName": "",
    "latitude": "50.583284162702796",
    "longitude": "29.991048352270333",
    "humidity": 72.07,
    "PM10": 45.68,
    "PM2n5": 1.3,
    "Pressure": 1002,
    "Temperature": 14,
    "AirQualityIndex": 177.69
  },
  {
    "id": "SAVEDNIPRO_19306",
    "cityName": "Katerynivka",
    "stationName": "Street Tsentralna, 32A",
    "localName": "",
    "latitude": "47.876249",
    "longitude": "37.344970",
    "humidity": 68.75,
    "PM10": 79.77,
    "PM2n5": 7.12,
    "Pressure": 1003,
    "Temperature": 16,
    "AirQualityIndex": 41.25
  },
  {
    "id": "SAVEDNIPRO_19320",
    "cityName": "Novohrodivka",
    "stationName": "Street Parkova, 30",
    "localName": "",
    "latitude": "48.202876",
    "longitude": "37.341606",
    "humidity": 34.78,
    "PM10": 57.9,
    "PM2n5": 15.62,
    "Pressure": 1017,
    "Temperature": 17,
    "AirQualityIndex": 109.84
  },
  {
    "id": "SAVEDNIPRO_19387",
    "cityName": "Bereznehuvatske",
    "stationName": "Street Shkolna, 34",
    "localName": "",
    "latitude": "47.747778",
    "longitude": "32.279167",
    "humidity": 27.78,
    "PM10": 55.51,
    "PM2n5": 16.79,
    "Pressure": 1005,
    "Temperature": 13,
    "AirQualityIndex": 65.87
  },
  {
    "id": "SAVEDNIPRO_19454",
    "cityName": "Pavlohrad",
    "stationName": "Street Ozerna, 87",
    "localName": "",
    "latitude": "48.536410",
    "longitude": "35.866605",
    "humidity": 37.93,
    "PM10": 7.26,
    "PM2n5": 3.88,
    "Pressure": 1017,
    "Temperature": 16,
    "AirQualityIndex": 100.51
  },
  {
    "id": "SAVEDNIPRO_19476",
    "cityName": "Zymne",
    "stationName": "Street Myru",
    "localName": "",
    "latitude": "50.799637",
    "longitude": "24.327239",
    "humidity": 70.13,
    "PM10": 35.57,
    "PM2n5": 10.7,
    "Pressure": 993,
    "Temperature": 14,
    "AirQualityIndex": 92.76
  },
  {
    "id": "SAVEDNIPRO_19477",
    "cityName": "Novopokrovka",
    "stationName": "Street Molodizhna, 1",
    "localName": "",
    "latitude": "48.057804",
    "longitude": "34.606344",
    "humidity": 41.01,
    "PM10": 56.01,
    "PM2n5": 18.8,
    "Pressure": 986,
    "Temperature": 17,
    "AirQualityIndex": 25.11
  },
  {
    "id": "SAVEDNIPRO_19684",
    "cityName": "Rakiv Lis",
    "stationName": "Street Shkilna, 4",
    "localName": "",
    "latitude": "51.621694",
    "longitude": "24.921318",
    "humidity": 48.29,
    "PM10": 58.32,
    "PM2n5": 17.38,
    "Pressure": 1003,
    "Temperature": 12,
    "AirQualityIndex": 192.29
  },
  {
    "id": "SAVEDNIPRO_19708",
    "cityName": "Sumy",
    "stationName": "Street Berezova, 28",
    "localName": "",
    "latitude": "50.940911",
    "longitude": "34.746837",
    "humidity": 42.37,
    "PM10": 46.37,
    "PM2n5": 19.41,
    "Pressure": 980,
    "Temperature": 17,
    "AirQualityIndex": 111.74
  },
  {
    "id": "SAVEDNIPRO_19810",
    "cityName": "Sumy",
    "stationName": "Street Zasumska, 3",
    "localName": "",
    "latitude": "50.9119348",
    "longitude": "34.7949552",
    "humidity": 55.68,
    "PM10": 75.25,
    "PM2n5": 18.13,
    "Pressure": 1018,
    "Temperature": 19,
    "AirQualityIndex": 136.48
  },
  {
    "id": "SAVEDNIPRO_19997",
    "cityName": "Velyki Viknyny",
    "stationName": "Velykoviknynska zahalnoosvitnia shkola I-IIIstupeniv",
    "localName": "",
    "latitude": "49.929920",
    "longitude": "25.868925",
    "humidity": 25.13,
    "PM10": 43.45,
    "PM2n5": 13,
    "Pressure": 994,
    "Temperature": 12,
    "AirQualityIndex": 56.92
  },
  {
    "id": "SAVEDNIPRO_20013",
    "cityName": "Pustomyty",
    "stationName": "Street Darii Diachenko, 17",
    "localName": "",
    "latitude": "49.718539",
    "longitude": "23.912361",
    "humidity": 32.04,
    "PM10": 59.94,
    "PM2n5": 18.38,
    "Pressure": 998,
    "Temperature": 12,
    "AirQualityIndex": 32.87
  },
  {
    "id": "SAVEDNIPRO_20060",
    "cityName": "Korosten",
    "stationName": "Street Mykhaila Hrushevskoho, 22/1",
    "localName": "",
    "latitude": "50.949312",
    "longitude": "28.642018",
    "humidity": 29.36,
    "PM10": 74.66,
    "PM2n5": 6.43,
    "Pressure": 1016,
    "Temperature": 15,
    "AirQualityIndex": 127.44
  },
  {
    "id": "SAVEDNIPRO_20061",
    "cityName": "Kazanka",
    "stationName": "Street Myru, 208",
    "localName": "",
    "latitude": "47.831669",
    "longitude": "32.830301",
    "humidity": 25.03,
    "PM10": 19.45,
    "PM2n5": 10.31,
    "Pressure": 1003,
    "Temperature": 18,
    "AirQualityIndex": 5.41
  },
  {
    "id": "SAVEDNIPRO_20081",
    "cityName": "Yuzhnoukrainsk",
    "stationName": "Street Parkova, 5",
    "localName": "",
    "latitude": "47.815861",
    "longitude": "31.189776",
    "humidity": 61.21,
    "PM10": 65.22,
    "PM2n5": 16.06,
    "Pressure": 986,
    "Temperature": 18,
    "AirQualityIndex": 116.81
  },
  {
    "id": "SAVEDNIPRO_20084",
    "cityName": "Kyiv",
    "stationName": "Street Heroiv Dnipra, 1",
    "localName": "",
    "latitude": "50.518246",
    "longitude": "30.486426",
    "humidity": 48.92,
    "PM10": 72.32,
    "PM2n5": 4.91,
    "Pressure": 998,
    "Temperature": 12,
    "AirQualityIndex": 107.96
  },
  {
    "id": "SAVEDNIPRO_20086",
    "cityName": "Khmilnyk",
    "stationName": "prospekt Svobody, 12",
    "localName": "",
    "latitude": "49.555501",
    "longitude": "27.952070",
    "humidity": 74.85,
    "PM10": 6.68,
    "PM2n5": 12.99,
    "Pressure": 982,
    "Temperature": 20,
    "AirQualityIndex": 17.58
  },
  {
    "id": "SAVEDNIPRO_20088",
    "cityName": "Volodymyr",
    "stationName": "Street Danyla Halytskoho, 5",
    "localName": "",
    "latitude": "50.845376",
    "longitude": "24.319157",
    "humidity": 31.49,
    "PM10": 76.06,
    "PM2n5": 12.22,
    "Pressure": 986,
    "Temperature": 17,
    "AirQualityIndex": 125.06
  },
  {
    "id": "SAVEDNIPRO_20091",
    "cityName": "Kiliia",
    "stationName": "Street Myru",
    "localName": "",
    "latitude": "45.444840",
    "longitude": "29.264418",
    "humidity": 52.05,
    "PM10": 75.4,
    "PM2n5": 13.99,
    "Pressure": 1019,
    "Temperature": 17,
    "AirQualityIndex": 182.96
  },
  {
    "id": "SAVEDNIPRO_20095",
    "cityName": "Verkhivtseve",
    "stationName": "2-y provulok Pylypa Orlyka, 23",
    "localName": "",
    "latitude": "48.478732",
    "longitude": "34.225964",
    "humidity": 56.25,
    "PM10": 66.25,
    "PM2n5": 3.9,
    "Pressure": 1005,
    "Temperature": 19,
    "AirQualityIndex": 144.33
  },
  {
    "id": "SAVEDNIPRO_20103",
    "cityName": "Zinkiv",
    "stationName": "Street Vozdvyzhenska, 40",
    "localName": "",
    "latitude": "50.209194",
    "longitude": "34.358694",
    "humidity": 72.05,
    "PM10": 51.69,
    "PM2n5": 13.22,
    "Pressure": 1006,
    "Temperature": 13,
    "AirQualityIndex": 179.51
  },
  {
    "id": "SAVEDNIPRO_20104",
    "cityName": "Lyshnia",
    "stationName": "Street Soniachna, 169",
    "localName": "",
    "latitude": "50.315879",
    "longitude": "29.962585",
    "humidity": 45.87,
    "PM10": 4.77,
    "PM2n5": 15.78,
    "Pressure": 981,
    "Temperature": 20,
    "AirQualityIndex": 56.09
  },
  {
    "id": "SAVEDNIPRO_20106",
    "cityName": "Stebnyk",
    "stationName": "Street Mazepy",
    "localName": "",
    "latitude": "49.296660",
    "longitude": "23.551930",
    "humidity": 74.54,
    "PM10": 8.97,
    "PM2n5": 5.96,
    "Pressure": 1014,
    "Temperature": 12,
    "AirQualityIndex": 140.77
  },
  {
    "id": "SAVEDNIPRO_20107",
    "cityName": "Tairove",
    "stationName": "Street 40-richchia Peremohy, 55",
    "localName": "",
    "latitude": "46.362202",
    "longitude": "30.650345",
    "humidity": 45.99,
    "PM10": 58.86,
    "PM2n5": 8.91,
    "Pressure": 1014,
    "Temperature": 14,
    "AirQualityIndex": 147.92
  },
  {
    "id": "SAVEDNIPRO_20121",
    "cityName": "Sumy",
    "stationName": "Street Kharkivska, 35",
    "localName": "",
    "latitude": "50.903766",
    "longitude": "34.817852",
    "humidity": 54.53,
    "PM10": 68.56,
    "PM2n5": 16.92,
    "Pressure": 998,
    "Temperature": 17,
    "AirQualityIndex": 65.54
  },
  {
    "id": "SAVEDNIPRO_20128",
    "cityName": "Kolomyia",
    "stationName": "prospekt Viacheslava Chornovola, 45",
    "localName": "",
    "latitude": "48.529049",
    "longitude": "25.039789",
    "humidity": 63.16,
    "PM10": 12.95,
    "PM2n5": 13.86,
    "Pressure": 1010,
    "Temperature": 13,
    "AirQualityIndex": 75.35
  },
  {
    "id": "SAVEDNIPRO_20131",
    "cityName": "Bobrovytsia",
    "stationName": "Street Nezalezhnosti, 46",
    "localName": "",
    "latitude": "50.741897",
    "longitude": "31.384233",
    "humidity": 54.78,
    "PM10": 77.03,
    "PM2n5": 17.59,
    "Pressure": 1002,
    "Temperature": 19,
    "AirQualityIndex": 168.06
  },
  {
    "id": "SAVEDNIPRO_20296",
    "cityName": "Varash",
    "stationName": "mikroraion Peremohy, 8",
    "localName": "",
    "latitude": "51.351281",
    "longitude": "25.850776",
    "humidity": 51.51,
    "PM10": 12.53,
    "PM2n5": 5,
    "Pressure": 1005,
    "Temperature": 16,
    "AirQualityIndex": 75.07
  },
  {
    "id": "SAVEDNIPRO_21957",
    "cityName": "Stryzhavka",
    "stationName": "Street 40-richchia Peremohy, 7",
    "localName": "",
    "latitude": "49.309646",
    "longitude": "28.472136",
    "humidity": 61.82,
    "PM10": 6.45,
    "PM2n5": 19.69,
    "Pressure": 994,
    "Temperature": 19,
    "AirQualityIndex": 120.96
  },
  {
    "id": "SAVEDNIPRO_21958",
    "cityName": "Nebelytsia",
    "stationName": "Street Myru, 11",
    "localName": "",
    "latitude": "50.412212",
    "longitude": "29.605634",
    "humidity": 28.22,
    "PM10": 48.3,
    "PM2n5": 12.21,
    "Pressure": 1003,
    "Temperature": 20,
    "AirQualityIndex": 183.24
  },