[
  {
    "id": "SAVEDNIPRO_001",
    "cityName": "Dnipro",
    "stationName": "Geroev Avenue, 40",
    "localName": "Save Dnipro #1",
    "latitude": "48.408944",
    "longitude": "35.072505",
    "humidity": 58.71,
    "PM10": 70.18,
    "PM2n5": 13.66,
    "Pressure": 995,
    "Temperature": 16,
    "AirQualityIndex": 77.81
  },
  {
    "id": "SAVEDNIPRO_002",
    "cityName": "Dnipro",
    "stationName": "Pershogo Travnya Street, 7",
    "localName": "Save Dnipro #5",
    "latitude": "48.418962",
    "longitude": "35.009254",
    "humidity": 35.42,
    "PM10": 40.35,
    "PM2n5": 16.31,
    "Pressure": 1011,
    "Temperature": 13,
    "AirQualityIndex": 34.82
  },
  {
    "id": "SAVEDNIPRO_003",
    "cityName": "Dnipro",
    "stationName": "Ulyanova Street, 26",
    "localName": "Save Dnipro #3",
    "latitude": "48.46179",
    "longitude": "35.022893",
    "humidity": 25.05,
    "PM10": 38.83,
    "PM2n5": 2.12,
    "Pressure": 1018,
    "Temperature": 17,
    "AirQualityIndex": 4.48
  },
  {
    "id": "SAVEDNIPRO_004",
    "cityName": "Dnipro",
    "stationName": "Novokrymskaya Street, 1",
    "localName": "Save Dnipro #2",
    "latitude": "48.428476",
    "longitude": "35.010238",
    "humidity": 52.81,
    "PM10": 13.83,
    "PM2n5": 11.08,
    "Pressure": 1005,
    "Temperature": 20,
    "AirQualityIndex": 15.75
  },
  {
    "id": "SAVEDNIPRO_006",
    "cityName": "Dnipro",
    "stationName": "Pryberezhna Street, 49",
    "localName": "Save Dnipro #4",
    "latitude": "48.405856",
    "longitude": "35.145451",
    "humidity": 62.32,
    "PM10": 7.73,
    "PM2n5": 2.15,
    "Pressure": 998,
    "Temperature": 18,
    "AirQualityIndex": 119.24
  },
  {
    "id": "SAVEDNIPRO_007",
    "cityName": "Dnipro",
    "stationName": "Dmytra Yavornytskoho Avenue, 60",
    "localName": "Save Dnipro #9",
    "latitude": "48.467467",
    "longitude": "35.041472",
    "humidity": 52.76,
    "PM10": 27.05,
    "PM2n5": 2.94,
    "Pressure": 1014,
    "Temperature": 13,
    "AirQualityIndex": 169.47
  },
  {
    "id": "SAVEDNIPRO_008",
    "cityName": "Dnipro",
    "stationName": "Haharina Avenue, 43",
    "localName": "Save Dnipro #10",
    "latitude": "48.448030",
    "longitude": "35.058606",
    "humidity": 65.06,
    "PM10": 10.77,
    "PM2n5": 4.35,
    "Pressure": 992,
    "Temperature": 16,
    "AirQualityIndex": 82.61
  },
  {
    "id": "SAVEDNIPRO_009",
    "cityName": "Dnipro",
    "stationName": "Kalynova Street, 49",
    "localName": "Save Dnipro #11",
    "latitude": "48.513536",
    "longitude": "35.062787",
    "humidity": 60.29,
    "PM10": 46.05,
    "PM2n5": 4.81,
    "Pressure": 1011,
    "Temperature": 12,
    "AirQualityIndex": 15.77
  },
  {
    "id": "SAVEDNIPRO_014",
    "cityName": "Dnipro",
    "stationName": "Vokzalna Square, 2",
    "localName": "Save Dnipro #19",
    "latitude": "48.475959",
    "longitude": "35.016979",
    "humidity": 25.64,
    "PM10": 37.65,
    "PM2n5": 10.85,
    "Pressure": 1003,
    "Temperature": 19,
    "AirQualityIndex": 21.85
  },
  {
    "id": "SAVEDNIPRO_015",
    "cityName": "Dnipro",
    "stationName": "Pavla Nirinberha Street, 4-6",
    "localName": "Save Dnipro #30",
    "latitude": "48.467926",
    "longitude": "35.055617",
    "humidity": 44.68,
    "PM10": 79.52,
    "PM2n5": 11.86,
    "Pressure": 1016,
    "Temperature": 17,
    "AirQualityIndex": 37.74
  },
  {
    "id": "SAVEDNIPRO_016",
    "cityName": "Dnipro",
    "stationName": "Street Shoduarivska, 5",
    "localName": "Save Dnipro #25",
    "latitude": "48.484034",
    "longitude": "34.936086",
    "humidity": 70.79,
    "PM10": 54.45,
    "PM2n5": 12.49,
    "Pressure": 1007,
    "Temperature": 18,
    "AirQualityIndex": 106.53
  },
  {
    "id": "SAVEDNIPRO_018",
    "cityName": "Dnipro",
    "stationName": "Beregova Street, 29",
    "localName": "Save Dnipro #26",
    "latitude": "48.501095",
    "longitude": "34.990169",
    "humidity": 55.62,
    "PM10": 7.81,
    "PM2n5": 6.87,
    "Pressure": 995,
    "Temperature": 14,
    "AirQualityIndex": 3.96
  },
  {
    "id": "SAVEDNIPRO_023",
    "cityName": "Dnipro",
    "stationName": "Shyroka Street, 173",
    "localName": "Save Dnipro #32",
    "latitude": "48.518050",
    "longitude": "34.964451",
    "humidity": 59.14,
    "PM10": 30.76,
    "PM2n5": 18.89,
    "Pressure": 981,
    "Temperature": 18,
    "AirQualityIndex": 106.48
  },
  {
    "id": "SAVEDNIPRO_024",
    "cityName": "Sursko-Lytovske",
    "stationName": "50 Rokiv Peremogy Street",
    "localName": "Save Dnipro #28",
    "latitude": "48.350994",
    "longitude": "34.946876",
    "humidity": 36.71,
    "PM10": 47.81,
    "PM2n5": 5.5,
    "Pressure": 1004,
    "Temperature": 13,
    "AirQualityIndex": 152.79
  },
  {
    "id": "SAVEDNIPRO_025",
    "cityName": "Dnipro",
    "stationName": "Street Barykadna, 21",
    "localName": "",
    "latitude": "48.463293",
    "longitude": "35.056401",
    "humidity": 64.77,
    "PM10": 46.08,
    "PM2n5": 8.33,
    "Pressure": 982,
    "Temperature": 17,
    "AirQualityIndex": 147.59
  },
  {
    "id": "SAVEDNIPRO_032",
    "cityName": "Dnipro",
    "stationName": "Slavy Boulevard, 11",
    "localName": "Save Dnipro #22",
    "latitude": "48.4119490",
    "longitude": "35.0697377",
    "humidity": 56.09,
    "PM10": 37.33,
    "PM2n5": 9.05,
    "Pressure": 990,
    "Temperature": 17,
    "AirQualityIndex": 189.76
  },
  {
    "id": "SAVEDNIPRO_035",
    "cityName": "Novooleksandrivka",
    "stationName": "Televiziyna \r\n Street / Arendnyy Lane",
    "localName": "Save Dnipro #17",
    "latitude": "48.343889",
    "longitude": "35.015000",
    "humidity": 39.95,
    "PM10": 65.8,
    "PM2n5": 4.46,
    "Pressure": 1018,
    "Temperature": 19,
    "AirQualityIndex": 176.58
  },
  {
    "id": "SAVEDNIPRO_075",
    "cityName": "Dnipro",
    "stationName": "Pavla Nirinberha Street, 10",
    "localName": "Save Dnipro #14",
    "latitude": "48.466150",
    "longitude": "35.055459",
    "humidity": 68.15,
    "PM10": 67.36,
    "PM2n5": 2.09,
    "Pressure": 989,
    "Temperature": 13,
    "AirQualityIndex": 128.78
  },
  {
    "id": "SAVEDNIPRO_090",
    "cityName": "Obukhivka",
    "stationName": "Dniprovs'ko-Oril's'kyy pryrodnyy zapovidnyk",
    "localName": "Save Dnipro #34",
    "latitude": "48.5339822",
    "longitude": "34.7914877",
    "humidity": 71.35,
    "PM10": 12.95,
    "PM2n5": 18.13,
    "Pressure": 991,
    "Temperature": 18,
    "AirQualityIndex": 47.59
  },
  {
    "id": "SAVEDNIPRO_094",
    "cityName": "Kam'ianske",
    "stationName": "Heroiv Boulevard, 38",
    "localName": "Save Dnipro #34",
    "latitude": "48.607373",
    "longitude": "34.570512",
    "humidity": 48.6,
    "PM10": 31.98,
    "PM2n5": 3.84,
    "Pressure": 990,
    "Temperature": 20,
    "AirQualityIndex": 161.69
  },
  {
    "id": "SAVEDNIPRO_095",
    "cityName": "Dnipro",
    "stationName": "Velyka Diivska Street, 4",
    "localName": "Save Dnipro #53",
    "latitude": "48.480519",
    "longitude": "34.934133",
    "humidity": 60.79,
    "PM10": 8.37,
    "PM2n5": 16.93,
    "Pressure": 1000,
    "Temperature": 12,
    "AirQualityIndex": 107.82
  },
  {
    "id": "SAVEDNIPRO_096",
    "cityName": "Dnipro",
    "stationName": "Hoholya Street, 10",
    "localName": "Save Dnipro #36",
    "latitude": "48.458139",
    "longitude": "35.052214",
    "humidity": 49,
    "PM10": 22.39,
    "PM2n5": 19.95,
    "Pressure": 991,
    "Temperature": 15,
    "AirQualityIndex": 58.96
  },
  {
    "id": "SAVEDNIPRO_097",
    "cityName": "Halych",
    "stationName": "Karaimska Street, 3",
    "localName": "Save Dnipro #39",
    "latitude": "49.125336",
    "longitude": "24.730753",
    "humidity": 34.79,
    "PM10": 21.75,
    "PM2n5": 11.41,
    "Pressure": 995,
    "Temperature": 15,
    "AirQualityIndex": 151.43
  },
  {
    "id": "SAVEDNIPRO_101",
    "cityName": "Dnipro",
    "stationName": "Samarkandskyi provulok, 1",
    "localName": "Save Dnipro #40",
    "latitude": "48.4538103",
    "longitude": "35.0185786",
    "humidity": 57.69,
    "PM10": 75.73,
    "PM2n5": 4.85,
    "Pressure": 1004,
    "Temperature": 12,
    "AirQualityIndex": 89.73
  },
  {
    "id": "SAVEDNIPRO_102",
    "cityName": "Vilnohirsk",
    "stationName": "Molodizhna Street, 28",
    "localName": "Save Dnipro #49",
    "latitude": "48.480857",
    "longitude": "34.018492",
    "humidity": 74.23,
    "PM10": 61.16,
    "PM2n5": 1.02,
    "Pressure": 987,
    "Temperature": 20,
    "AirQualityIndex": 16.76
  },
  {
    "id": "SAVEDNIPRO_103",
    "cityName": "Dnipro",
    "stationName": "Topolia-2, 23",
    "localName": "Save Dnipro #38",
    "latitude": "48.391810",
    "longitude": "35.028813",
    "humidity": 63.42,
    "PM10": 2.21,
    "PM2n5": 14.17,
    "Pressure": 997,
    "Temperature": 16,
    "AirQualityIndex": 77.18
  },
  {
    "id": "SAVEDNIPRO_132",
    "cityName": "Dnipro",
    "stationName": "prospekt Serhiia Nihoiana, 57",
    "localName": "",
    "latitude": "48.476276",
    "longitude": "34.984768",
    "humidity": 59.83,
    "PM10": 46.26,
    "PM2n5": 17.51,
    "Pressure": 984,
    "Temperature": 14,
    "AirQualityIndex": 184.97
  },
  {
    "id": "SAVEDNIPRO_136",
    "cityName": "Dnipro",
    "stationName": "Forest Park of Friendship of Peoples",
    "localName": "Save Dnipro #42",
    "latitude": "48.540300",
    "longitude": "35.092615",
    "humidity": 50.46,
    "PM10": 13.35,
    "PM2n5": 4.32,
    "Pressure": 993,
    "Temperature": 18,
    "AirQualityIndex": 1.84
  },
  {
    "id": "SAVEDNIPRO_897",
    "cityName": "Novooleksandrivka",
    "stationName": "Surska Street, 74",
    "localName": "Save Dnipro #51",
    "latitude": "48.341841",
    "longitude": "35.005390",
    "humidity": 43.25,
    "PM10": 50,
    "PM2n5": 19.21,
    "Pressure": 1000,
    "Temperature": 18,
    "AirQualityIndex": 84.62
  },
  {
    "id": "SAVEDNIPRO_949",
    "cityName": "Zaporizhzhia",
    "stationName": "Street Haharina, 3",
    "localName": "Save Dnipro #48",
    "latitude": "47.8352753",
    "longitude": "35.1446249",
    "humidity": 40.86,
    "PM10": 28.8,
    "PM2n5": 14.46,
    "Pressure": 999,
    "Temperature": 13,
    "AirQualityIndex": 23.26
  },
  {
    "id": "SAVEDNIPRO_997",
    "cityName": "Dnipro",
    "stationName": "Street Darnytska, 9",
    "localName": "",
    "latitude": "48.5052009",
    "longitude": "35.0718389",
    "humidity": 53.26,
    "PM10": 11.41,
    "PM2n5": 3.57,
    "Pressure": 1008,
    "Temperature": 18,
    "AirQualityIndex": 66.44
  },
  {
    "id": "SAVEDNIPRO_1000",
    "cityName": "Dnipro",
    "stationName": "Street Ivana Akinfiieva, 10",
    "localName": "Save Dnipro #55",
    "latitude": "48.460155",
    "longitude": "35.066821",
    "humidity": 27.74,
    "PM10": 25.73,
    "PM2n5": 19.13,
    "Pressure": 1005,
    "Temperature": 13,
    "AirQualityIndex": 21.91
  },
  {
    "id": "SAVEDNIPRO_1001",
    "cityName": "Dnipro",
    "stationName": "Street Hladkova, 6",
    "localName": "",
    "latitude": "48.400802",
    "longitude": "35.001839",
    "humidity": 69.3,
    "PM10": 24.65,
    "PM2n5": 9.97,
    "Pressure": 1015,
    "Temperature": 16,
    "AirQualityIndex": 84.93
  },
  {
    "id": "SAVEDNIPRO_1002",
    "cityName": "Sursko-Klevtseve",
    "stationName": "",
    "localName": "Save Dnipro #56",
    "latitude": "48.312916",
    "longitude": "34.880235",
    "humidity": 32.7,
    "PM10": 77.21,
    "PM2n5": 4.66,
    "Pressure": 991,
    "Temperature": 18,
    "AirQualityIndex": 131.67
  },
  {
    "id": "SAVEDNIPRO_1004",
    "cityName": "Kyiv",
    "stationName": "Street Henerala Zhmachenka, 4",
    "localName": "Save Dnipro #58",
    "latitude": "50.458479",
    "longitude": "30.6079481",
    "humidity": 69.34,
    "PM10": 63.48,
    "PM2n5": 1.63,
    "Pressure": 992,
    "Temperature": 13,
    "AirQualityIndex": 195.19
  },
  {
    "id": "SAVEDNIPRO_1005",
    "cityName": "Dnipro",
    "stationName": "Street Serhiia Yefremova, 3A",
    "localName": "Save Dnipro #59",
    "latitude": "48.459042",
    "longitude": "35.058479",
    "humidity": 41.47,
    "PM10": 35.1,
    "PM2n5": 15.31,
    "Pressure": 986,
    "Temperature": 15,
    "AirQualityIndex": 54.91
  },
  {
    "id": "SAVEDNIPRO_1006",
    "cityName": "Kam'ianske",
    "stationName": "Street Yuriia Volkova, 10A",
    "localName": "Save Dnipro #60",
    "latitude": "48.509524",
    "longitude": "34.61578",
    "humidity": 45.62,
    "PM10": 2.24,
    "PM2n5": 14.84,
    "Pressure": 1013,
    "Temperature": 19,
    "AirQualityIndex": 184.18
  },
  {
    "id": "SAVEDNIPRO_1007",
    "cityName": "Dnipro",
    "stationName": "prospekt Slobozhanskyi, 127A",
    "localName": "Save Dnipro #64",
    "latitude": "48.523936",
    "longitude": "35.0811455",
    "humidity": 56.46,
    "PM10": 31.05,
    "PM2n5": 7.03,
    "Pressure": 995,
    "Temperature": 14,
    "AirQualityIndex": 127.31
  },
  {
    "id": "SAVEDNIPRO_1008",
    "cityName": "Vinnytsia",
    "stationName": "Street Stetsenka, 75",
    "localName": "Save Dnipro #63",
    "latitude": "49.239341",
    "longitude": "28.479885",
    "humidity": 31.64,
    "PM10": 11.44,
    "PM2n5": 10.31,
    "Pressure": 991,
    "Temperature": 17,
    "AirQualityIndex": 58.95
  },
  {
    "id": "SAVEDNIPRO_1009",
    "cityName": "Dnipro",
    "stationName": "Donetske shose, 121",
    "localName": "Save Dnipro #62",
    "latitude": "48.523444",
    "longitude": "35.023331",
    "humidity": 54.4,
    "PM10": 75.58,
    "PM2n5": 17.7,
    "Pressure": 1016,
    "Temperature": 19,
    "AirQualityIndex": 67.52
  },
  {
    "id": "SAVEDNIPRO_1021",
    "cityName": "Dnipro",
    "stationName": "Street Semaforna, 30A",
    "localName": "Save Dnipro #61",
    "latitude": "48.489936",
    "longitude": "35.1337483",
    "humidity": 43.21,
    "PM10": 6.02,
    "PM2n5": 6.87,
    "Pressure": 1016,
    "Temperature": 17,
    "AirQualityIndex": 68.56
  },
  {
    "id": "SAVEDNIPRO_1053",
    "cityName": "Dnipro",
    "stationName": "Yaroslavska Street, 12",
    "localName": "Save Dnipro #24",
    "latitude": "48.433796",
    "longitude": "35.030484",
    "humidity": 41.11,
    "PM10": 32.76,
    "PM2n5": 11.86,
    "Pressure": 1015,
    "Temperature": 20,
    "AirQualityIndex": 190.66
  },
  {
    "id": "SAVEDNIPRO_1102",
    "cityName": "Sumy",
    "stationName": "",
    "localName": "Save Dnipro #73",
    "latitude": "50.896400",
    "longitude": "34.830288",
    "humidity": 33.99,
    "PM10": 51.87,
    "PM2n5": 3.97,
    "Pressure": 1000,
    "Temperature": 16,
    "AirQualityIndex": 88.44
  },
  {
    "id": "SAVEDNIPRO_1131",
    "cityName": "Zaporizhzhia",
    "stationName": "Tbiliska Street, 27A",
    "localName": "",
    "latitude": "47.83602089075",
    "longitude": "35.10648322033",
    "humidity": 65.62,
    "PM10": 71.51,
    "PM2n5": 14.46,
    "Pressure": 980,
    "Temperature": 20,
    "AirQualityIndex": 36.73
  },
  {
    "id": "SAVEDNIPRO_1143",
    "cityName": "Dobropillia",
    "stationName": "Street Zapovitna",
    "localName": "Save Dnipro #75",
    "latitude": "48.477333",
    "longitude": "37.092000",
    "humidity": 29.14,
    "PM10": 58.3,
    "PM2n5": 19.95,
    "Pressure": 996,
    "Temperature": 19,
    "AirQualityIndex": 6.5
  },
  {
    "id": "SAVEDNIPRO_1168",
    "cityName": "Mariupol",
    "stationName": "Street Lomizova, 11",
    "localName": "",
    "latitude": "47.101121",
    "longitude": "37.627157",
    "humidity": 55.32,
    "PM10": 53.73,
    "PM2n5": 10.84,
    "Pressure": 982,
    "Temperature": 12,
    "AirQualityIndex": 18.92
  },
  {
    "id": "SAVEDNIPRO_1169",
    "cityName": "Mariupol",
    "stationName": "prospekt Metalurhiv, 206-A",
    "localName": "",
    "latitude": "47.137890",
    "longitude": "37.565452",
    "humidity": 53.43,
    "PM10": 4.11,
    "PM2n5": 13.41,
    "Pressure": 1003,
    "Temperature": 15,
    "AirQualityIndex": 109.92
  },
  {
    "id": "SAVEDNIPRO_1174",
    "cityName": "Kam'ianske",
    "stationName": "prospekt Svobody, 49",
    "localName": "",
    "latitude": "48.516430",
    "longitude": "34.614322",
    "humidity": 62.75,
    "PM10": 20.34,
    "PM2n5": 16.12,
    "Pressure": 1015,
    "Temperature": 13,
    "AirQualityIndex": 13.66
  },
  {
    "id": "SAVEDNIPRO_1175",
    "cityName": "Kam'ianske",
    "stationName": "Street Voiniv-afhantsiv, 5D",
    "localName": "",
    "latitude": "48.608365",
    "longitude": "34.558746",
    "humidity": 50.6,
    "PM10": 13.93,
    "PM2n5": 19.15,
    "Pressure": 1007,
    "Temperature": 20,
    "AirQualityIndex": 77.05
  },
  {
    "id": "SAVEDNIPRO_1176",
    "cityName": "Kam'ianske",
    "stationName": "prospekt Svobody, 56",
    "localName": "",
    "latitude": "48.507758",
    "longitude": "34.609865",
    "humidity": 37.1,
    "PM10": 22.79,
    "PM2n5": 7.5,
    "Pressure": 1000,
    "Temperature": 19,
    "AirQualityIndex": 160.24
  },
  {
    "id": "SAVEDNIPRO_1178",
    "cityName": "Pisochyn",
    "stationName": "Street Zelena, 19",
    "localName": "",
    "latitude": "49.964888",
    "longitude": "36.122653",
    "humidity": 63.97,
    "PM10": 36.15,
    "PM2n5": 1.5,
    "Pressure": 985,
    "Temperature": 14,
    "AirQualityIndex": 126.85
  },
  {
    "id": "SAVEDNIPRO_1179",
    "cityName": "Kam'ianske",
    "stationName": "Street Vorobiova, 15",
    "localName": "",
    "latitude": "48.503785",
    "longitude": "34.614396",
    "humidity": 44.67,
    "PM10": 25.7,
    "PM2n5": 16.78,
    "Pressure": 995,
    "Temperature": 19,
    "AirQualityIndex": 11.8
  },
  {
    "id": "SAVEDNIPRO_1180",
    "cityName": "Kam'ianske",
    "stationName": "prospekt Anoshkina, 58A",
    "localName": "",
    "latitude": "48.509854",
    "longitude": "34.595553",
    "humidity": 71.72,
    "PM10": 36.83,
    "PM2n5": 3.21,
    "Pressure": 1010,
    "Temperature": 13,
    "AirQualityIndex": 14.62
  },
  {
    "id": "SAVEDNIPRO_1182",
    "cityName": "Kam'ianske",
    "stationName": "Street Sportyvna, 19",
    "localName": "",
    "latitude": "48.517399",
    "longitude": "34.599969",
    "humidity": 34.05,
    "PM10": 34.9,
    "PM2n5": 15.07,
    "Pressure": 999,
    "Temperature": 12,
    "AirQualityIndex": 121.05
  },
  {
    "id": "SAVEDNIPRO_1183",
    "cityName": "Kam'ianske",
    "stationName": "Yuvileinyi prospekt, 57",
    "localName": "",
    "latitude": "48.489721",
    "longitude": "34.621939",
    "humidity": 63.52,
    "PM10": 73.97,
    "PM2n5": 18.97,
    "Pressure": 986,
    "Temperature": 15,
    "AirQualityIndex": 75.23
  },
  {
    "id": "SAVEDNIPRO_1212",
    "cityName": "Zaporizhzhia",
    "stationName": "Street Shkilna, 50",
    "localName": "",
    "latitude": "47.816804",
    "longitude": "35.169158",
    "humidity": 40.14,
    "PM10": 76.57,
    "PM2n5": 12.6,
    "Pressure": 1004,
    "Temperature": 15,
    "AirQualityIndex": 91.99
  },
  {
    "id": "SAVEDNIPRO_1260",
    "cityName": "Zaporizhzhia",
    "stationName": "Street Mykoly Koryshchenka, 26",
    "localName": "",
    "latitude": "47.82919027096",
    "longitude": "35.23301213980",
    "humidity": 42.26,
    "PM10": 55.89,
    "PM2n5": 1.1,
    "Pressure": 988,
    "Temperature": 17,
    "AirQualityIndex": 33.21
  },
  {
    "id": "SAVEDNIPRO_1266",
    "cityName": "Kyiv",
    "stationName": "Street Kostiantynivska, 73",
    "localName": "",
    "latitude": "50.473860",
    "longitude": "30.497474",
    "humidity": 63.15,
    "PM10": 22.49,
    "PM2n5": 18.92,
    "Pressure": 982,
    "Temperature": 16,
    "AirQualityIndex": 139.34
  },
  {
    "id": "SAVEDNIPRO_1268",
    "cityName": "Bobrovytsia",
    "stationName": "Street Nezalezhnosti, 46",
    "localName": "",
    "latitude": "50.741761",
    "longitude": "31.384359",
    "humidity": 42.9,
    "PM10": 54.82,
    "PM2n5": 14.28,
    "Pressure": 980,
    "Temperature": 18,
    "AirQualityIndex": 173.07
  },
  {
    "id": "SAVEDNIPRO_1269",
    "cityName": "Poltava",
    "stationName": "Street Pidmonastyrska, 41",
    "localName": "",
    "latitude": "49.592648",
    "longitude": "34.570985",
    "humidity": 25.19,
    "PM10": 44.26,
    "PM2n5": 7.94,
    "Pressure": 992,
    "Temperature": 19,
    "AirQualityIndex": 27.55
  },
  {
    "id": "SAVEDNIPRO_1270",
    "cityName": "Dnipro",
    "stationName": "Street Mykhaila Hrushevskoho, 34",
    "localName": "Save Dnipro #104",
    "latitude": "48.454988",
    "longitude": "35.036721",
    "humidity": 42.39,
    "PM10": 4.6,
    "PM2n5": 15.95,
    "Pressure": 1003,
    "Temperature": 14,
    "AirQualityIndex": 97.03
  },
  {
    "id": "SAVEDNIPRO_1271",
    "cityName": "Dnipro",
    "stationName": "prospekt Myru, 5",
    "localName": "",
    "latitude": "48.525274",
    "longitude": "35.019689",
    "humidity": 54.3,
    "PM10": 15.95,
    "PM2n5": 12.76,
    "Pressure": 999,
    "Temperature": 16,
    "AirQualityIndex": 13.86
  },
  {
    "id": "SAVEDNIPRO_1272",
    "cityName": "Kam'ianske",
    "stationName": "Street Kazanska, 35",
    "localName": "",
    "latitude": "48.494670",
    "longitude": "34.602290",
    "humidity": 66.83,
    "PM10": 57.28,
    "PM2n5": 6.62,
    "Pressure": 991,
    "Temperature": 13,
    "AirQualityIndex": 195.16
  },
  {
    "id": "SAVEDNIPRO_1274",
    "cityName": "Kyiv",
    "stationName": "prospekt Heroiv Stalinhrada, 6K8",
    "localName": "",
    "latitude": "50.494958",
    "longitude": "30.522702",
    "humidity": 70.77,
    "PM10": 59.1,
    "PM2n5": 3.35,
    "Pressure": 1006,
    "Temperature": 20,
    "AirQualityIndex": 137.05
  },
  {
    "id": "SAVEDNIPRO_1275",
    "cityName": "Kam'ianske",
    "stationName": "prospekt Konstytutsii 19",
    "localName": "",
    "latitude": "48.475955",
    "longitude": "34.667161",
    "humidity": 52.59,
    "PM10": 48.03,
    "PM2n5": 1.93,
    "Pressure": 1003,
    "Temperature": 18,
    "AirQualityIndex": 68.94
  },
  {
    "id": "SAVEDNIPRO_1276",
    "cityName": "Poltava",
    "stationName": "Street Radyshcheva, 46",
    "localName": "",
    "latitude": "49.577176",
    "longitude": "34.607160",
    "humidity": 41.2,
    "PM10": 75.32,
    "PM2n5": 4.01,
    "Pressure": 1003,
    "Temperature": 14,
    "AirQualityIndex": 151.71
  },
  {
    "id": "SAVEDNIPRO_1278",
    "cityName": "Kyiv",
    "stationName": "Street Saperno-Slobidska, 25/4",
    "localName": "",
    "latitude": "50.404417",
    "longitude": "30.534111",
    "humidity": 54.6,
    "PM10": 41.4,
    "PM2n5": 3.66,
    "Pressure": 994,
    "Temperature": 19,
    "AirQualityIndex": 34.13
  },
  {
    "id": "SAVEDNIPRO_1279",
    "cityName": "Dnipro",
    "stationName": "Street Maiachka, 14",
    "localName": "",
    "latitude": "48.4934802",
    "longitude": "35.1992773",
    "humidity": 46.21,
    "PM10": 71.23,
    "PM2n5": 14.58,
    "Pressure": 1012,
    "Temperature": 16,
    "AirQualityIndex": 171.58
  },
  {
    "id": "SAVEDNIPRO_1293",
    "cityName": "Kushuhum",
    "stationName": "Street Partyzanska",
    "localName": "",
    "latitude": "47.723589",
    "longitude": "35.206665",
    "humidity": 67.47,
    "PM10": 70.68,
    "PM2n5": 17.43,
    "Pressure": 1006,
    "Temperature": 19,
    "AirQualityIndex": 140.98
  },
  {
    "id": "SAVEDNIPRO_1294",
    "cityName": "Kyiv",
    "stationName": "Street 8-a Sadova",
    "localName": "",
    "latitude": "50.4682878",
    "longitude": "30.5729412",
    "humidity": 27,
    "PM10": 48.98,
    "PM2n5": 3.43,
    "Pressure": 980,
    "Temperature": 14,
    "AirQualityIndex": 31.21
  },
  {
    "id": "SAVEDNIPRO_1295",
    "cityName": "Brovary",
    "stationName": "Sadove tovarystvo Khimik",
    "localName": "",
    "latitude": "50.514441",
    "longitude": "30.797268",
    "humidity": 59.15,
    "PM10": 59.1,
    "PM2n5": 17.27,
    "Pressure": 1013,
    "Temperature": 16,
    "AirQualityIndex": 65.56
  },
  {
    "id": "SAVEDNIPRO_1297",
    "cityName": "Zaporizhzhia",
    "stationName": "Street Charivna, 157",
    "localName": "",
    "latitude": "47.844147",
    "longitude": "35.230268",
    "humidity": 69.68,
    "PM10": 8.94,
    "PM2n5": 10.04,
    "Pressure": 1008,
    "Temperature": 12,
    "AirQualityIndex": 122.47
  },
  {
    "id": "SAVEDNIPRO_1298",
    "cityName": "Zaporizhzhia",
    "stationName": "Street Leonida Zhabotynskoho, 63",
    "localName": "",
    "latitude": "47.8382123",
    "longitude": "35.1351085",
    "humidity": 55.13,
    "PM10": 24.08,
    "PM2n5": 12.91,
    "Pressure": 999,
    "Temperature": 19,
    "AirQualityIndex": 72.46
  },
  {
    "id": "SAVEDNIPRO_1300",
    "cityName": "Cherkaske",
    "stationName": "Street Yasna, 3",
    "localName": "",
    "latitude": "48.835490",
    "longitude": "37.392544",
    "humidity": 44.01,
    "PM10": 52.14,
    "PM2n5": 5.84,
    "Pressure": 1009,
    "Temperature": 19,
    "AirQualityIndex": 76.68
  },
  {
    "id": "SAVEDNIPRO_1301",
    "cityName": "Zaporizhzhia",
    "stationName": "Street Vesnina, 1A",
    "localName": "",
    "latitude": "47.865793",
    "longitude": "35.058838",
    "humidity": 51.39,
    "PM10": 59,
    "PM2n5": 7.24,
    "Pressure": 990,
    "Temperature": 15,
    "AirQualityIndex": 73.21
  },
  {
    "id": "SAVEDNIPRO_1302",
    "cityName": "Yurivka",
    "stationName": "Street Naberezhna, 3",
    "localName": "",
    "latitude": "50.317396",
    "longitude": "30.390961",
    "humidity": 25.43,
    "PM10": 15.98,
    "PM2n5": 7.67,
    "Pressure": 983,
    "Temperature": 13,
    "AirQualityIndex": 34.78
  },
  {
    "id": "SAVEDNIPRO_1303",
    "cityName": "Chornomorsk",
    "stationName": "Street Vitaliia Shuma, 2H",
    "localName": "",
    "latitude": "46.297067",
    "longitude": "30.639265",
    "humidity": 61.94,
    "PM10": 45.02,
    "PM2n5": 6.05,
    "Pressure": 1005,
    "Temperature": 17,
    "AirQualityIndex": 32.12
  },
  {
    "id": "SAVEDNIPRO_1306",
    "cityName": "Kyiv",
    "stationName": "Street Marshala Malynovskoho, 4V",
    "localName": "",
    "latitude": "50.505132",
    "longitude": "30.489238",
    "humidity": 71.93,
    "PM10": 43.9,
    "PM2n5": 8.36,
    "Pressure": 981,
    "Temperature": 14,
    "AirQualityIndex": 25.99
  },
  {
    "id": "SAVEDNIPRO_1308",
    "cityName": "Zaporizhzhia",
    "stationName": "Avtobusna Street, 13",
    "localName": "",
    "latitude": "47.8630359",
    "longitude": "35.1845460",
    "humidity": 41.54,
    "PM10": 26.36,
    "PM2n5": 14.93,
    "Pressure": 987,
    "Temperature": 15,
    "AirQualityIndex": 40.77
  },
  {
    "id": "SAVEDNIPRO_1309",
    "cityName": "Zaporizhzhia",
    "stationName": "Tsentralnyi bulvar, 22A",
    "localName": "",
    "latitude": "47.835703",
    "longitude": "35.134718",
    "humidity": 25.35,
    "PM10": 30.01,
    "PM2n5": 17.48,
    "Pressure": 981,
    "Temperature": 13,
    "AirQualityIndex": 118.05
  },
  {
    "id": "SAVEDNIPRO_1311",
    "cityName": "Vita-Poshtova",
    "stationName": "Street Zvenyhorodska",
    "localName": "",
    "latitude": "50.312514",
    "longitude": "30.375136",
    "humidity": 55.5,
    "PM10": 26.97,
    "PM2n5": 10.76,
    "Pressure": 1010,
    "Temperature": 20,
    "AirQualityIndex": 156.22
  },
  {
    "id": "SAVEDNIPRO_1313",
    "cityName": "Yurivka",
    "stationName": "Street Naberezhna, 12",
    "localName": "",
    "latitude": "50.326257",
    "longitude": "30.375458",
    "humidity": 58.9,
    "PM10": 27.22,
    "PM2n5": 17.68,
    "Pressure": 1001,
    "Temperature": 15,
    "AirQualityIndex": 112.31
  },
  {
    "id": "SAVEDNIPRO_1315",
    "cityName": "Zaporizhzhia",
    "stationName": "Street Svitla, 16",
    "localName": "",
    "latitude": "47.815380",
    "longitude": "35.053843",
    "humidity": 56.89,
    "PM10": 7.33,
    "PM2n5": 12.49,
    "Pressure": 992,
    "Temperature": 19,
    "AirQualityIndex": 98.85
  },
  {
    "id": "SAVEDNIPRO_1316",
    "cityName": "Zaporizhzhia",
    "stationName": "prospekt Sobornyi, 228",
    "localName": "",
    "latitude": "47.8606913",
    "longitude": "35.1002317",
    "humidity": 47.36,
    "PM10": 68.44,
    "PM2n5": 9.64,
    "Pressure": 1008,
    "Temperature": 15,
    "AirQualityIndex": 109.85
  },
  {
    "id": "SAVEDNIPRO_1354",
    "cityName": "Velyka Severynka",
    "stationName": "Street Myru, 2A",
    "localName": "",
    "latitude": "48.608155",
    "longitude": "32.231918",
    "humidity": 63.72,
    "PM10": 23.32,
    "PM2n5": 15.68,
    "Pressure": 997,
    "Temperature": 12,
    "AirQualityIndex": 54.4
  },
  {
    "id": "SAVEDNIPRO_1372",
    "cityName": "Kyiv",
    "stationName": "Street Verkhovynna, 37",
    "localName": "",
    "latitude": "50.452314",
    "longitude": "30.371420",
    "humidity": 64.35,
    "PM10": 4.63,
    "PM2n5": 1.55,
    "Pressure": 1001,
    "Temperature": 16,
    "AirQualityIndex": 28.29
  },
  {
    "id": "SAVEDNIPRO_1373",
    "cityName": "Kyiv",
    "stationName": "Street Marshala Malynovskoho, 13B",
    "localName": "",
    "latitude": "50.502855",
    "longitude": "30.495153",
    "humidity": 65.15,
    "PM10": 25.22,
    "PM2n5": 7.95,
    "Pressure": 991,
    "Temperature": 15,
    "AirQualityIndex": 51.89
  },
  {
    "id": "SAVEDNIPRO_1376",
    "cityName": "Kyiv",
    "stationName": "Street Volodymyro-Lybidska 25",
    "localName": "",
    "latitude": "50.421359",
    "longitude": "30.514859",
    "humidity": 31.33,
    "PM10": 43.24,
    "PM2n5": 12.74,
    "Pressure": 1007,
    "Temperature": 13,
    "AirQualityIndex": 39.87
  },
  {
    "id": "SAVEDNIPRO_1377",
    "cityName": "Chornomorsk",
    "stationName": "Street Transportna, 14A",
    "localName": "Save Dnipro #159",
    "latitude": "46.311634",
    "longitude": "30.654892",
    "humidity": 52.33,
    "PM10": 14.93,
    "PM2n5": 4.83,
    "Pressure": 1000,
    "Temperature": 19,
    "AirQualityIndex": 132.23
  },
  {
    "id": "SAVEDNIPRO_1378",
    "cityName": "Hatne",
    "stationName": "Street Yaroslava Mudroho, 6",
    "localName": "",
    "latitude": "50.359801",
    "longitude": "30.424000",
    "humidity": 39.98,
    "PM10": 67.9,
    "PM2n5": 16.48,
    "Pressure": 982,
    "Temperature": 17,
    "AirQualityIndex": 70.08
  },
  {
    "id": "SAVEDNIPRO_1380",
    "cityName": "Odesa",
    "stationName": "Street Armiiska, 19",
    "localName": "Save Dnipro #162",
    "latitude": "46.452237",
    "longitude": "30.748921",
    "humidity": 31.15,
    "PM10": 53.94,
    "PM2n5": 9.32,
    "Pressure": 991,
    "Temperature": 16,
    "AirQualityIndex": 73.08
  },
  {
    "id": "SAVEDNIPRO_1381",
    "cityName": "Reshetylivka",
    "stationName": "Street Pokrovska, 14",
    "localName": "",
    "latitude": "49.562487",
    "longitude": "34.078514",
    "humidity": 67.75,
    "PM10": 43,
    "PM2n5": 10.15,
    "Pressure": 988,
    "Temperature": 14,
    "AirQualityIndex": 20.64
  },
  {
    "id": "SAVEDNIPRO_1382",
    "cityName": "Zaporizhzhia",
    "stationName": "Street Nezalezhnoi Ukrainy, 68A",
    "localName": "",
    "latitude": "47.827955",
    "longitude": "35.204411",
    "humidity": 43.66,
    "PM10": 77.1,
    "PM2n5": 14.24,
    "Pressure": 990,
    "Temperature": 19,
    "AirQualityIndex": 137.52
  },
  {
    "id": "SAVEDNIPRO_1384",
    "cityName": "Hnidyn",
    "stationName": "Street Nova, 1",
    "localName": "",
    "latitude": "50.33948",
    "longitude": "30.70528",
    "humidity": 41.23,
    "PM10": 78.03,
    "PM2n5": 17.12,
    "Pressure": 997,
    "Temperature": 12,
    "AirQualityIndex": 167.94
  },
  {
    "id": "SAVEDNIPRO_1385",
    "cityName": "Hnidyn",
    "stationName": "Street Kuzbasova, 22",
    "localName": "",
    "latitude": "50.327707",
    "longitude": "30.696919",
    "humidity": 64.43,
    "PM10": 31.36,
    "PM2n5": 17.06,
    "Pressure": 993,
    "Temperature": 16,
    "AirQualityIndex": 147.39
  },
  {
    "id": "SAVEDNIPRO_1386",
    "cityName": "Odesa",
    "stationName": "Street Balkivska, 40A",
    "localName": "",
    "latitude": "46.486764",
    "longitude": "30.707282",
    "humidity": 58.11,
    "PM10": 41.38,
    "PM2n5": 11.67,
    "Pressure": 1018,
    "Temperature": 12,
    "AirQualityIndex": 45.12
  },
  {
    "id": "SAVEDNIPRO_1387",
    "cityName": "Kyiv",
    "stationName": "Street Reitarska, 17",
    "localName": "",
    "latitude": "50.4515820",
    "longitude": "30.5115602",
    "humidity": 74.47,
    "PM10": 56.64,
    "PM2n5": 19.16,
    "Pressure": 1006,
    "Temperature": 13,
    "AirQualityIndex": 30.69
  },
  {
    "id": "SAVEDNIPRO_1388",
    "cityName": "Brovary",
    "stationName": "Street Symona Petliury, 36",
    "localName": "",
    "latitude": "50.5245",
    "longitude": "30.798465",
    "humidity": 60.07,
    "PM10": 30.44,
    "PM2n5": 15.71,
    "Pressure": 996,
    "Temperature": 14,
    "AirQualityIndex": 8.07
  },
  {
    "id": "SAVEDNIPRO_1392",
    "cityName": "Brovary",
    "stationName": "bulvar Nezalezhnosti, 4A",
    "localName": "",
    "latitude": "50.512282",
    "longitude": "30.796358",
    "humidity": 51.92,
    "PM10": 65.93,
    "PM2n5": 13.1,
    "Pressure": 991,
    "Temperature": 12,
    "AirQualityIndex": 92.58
  },
  {
    "id": "SAVEDNIPRO_1394",
    "cityName": "Kyiv",
    "stationName": "Street Kyrylivska 64",
    "localName": "",
    "latitude": "50.4742163",
    "longitude": "30.4942892",
    "humidity": 41.58,
    "PM10": 11.54,
    "PM2n5": 3.35,
    "Pressure": 1011,
    "Temperature": 15,
    "AirQualityIndex": 6.97
  },
  {
    "id": "SAVEDNIPRO_1395",
    "cityName": "Rivne",
    "stationName": "Street Kostromska, 73",
    "localName": "",
    "latitude": "50.6331689",
    "longitude": "26.2856835",
    "humidity": 36.9,
    "PM10": 15.36,
    "PM2n5": 1.71,
    "Pressure": 989,
    "Temperature": 17,
    "AirQualityIndex": 145.93
  },
  {
    "id": "SAVEDNIPRO_1396",
    "cityName": "Khrystanivka",
    "stationName": "Street Shevchenka, 23",
    "localName": "",
    "latitude": "50.297342",
    "longitude": "33.376383",
    "humidity": 29.53,
    "PM10": 53.07,
    "PM2n5": 15.82,
    "Pressure": 999,
    "Temperature": 20,
    "AirQualityIndex": 133.24
  },
  {
    "id": "SAVEDNIPRO_1397",
    "cityName": "Baranivka",
    "stationName": "Street Soborna, 6",
    "localName": "",
    "latitude": "50.293875",
    "longitude": "27.669171",
    "humidity": 67.7,
    "PM10": 33.25,
    "PM2n5": 13.1,
    "Pressure": 1005,
    "Temperature": 15,
    "AirQualityIndex": 63.43
  },
  {
    "id": "SAVEDNIPRO_1411",
    "cityName": "Chornomorsk",
    "stationName": "Street Parkova, 22",
    "localName": "",
    "latitude": "46.2997433",
    "longitude": "30.6593683",
    "humidity": 42.95,
    "PM10": 28.49,
    "PM2n5": 3.19,
    "Pressure": 984,
    "Temperature": 20,
    "AirQualityIndex": 46.88
  },
  {
    "id": "SAVEDNIPRO_1412",
    "cityName": "Nadvirna",
    "stationName": "maidan Shevchenka, 33",
    "localName": "",
    "latitude": "48.633951",
    "longitude": "24.567418",
    "humidity": 66.42,
    "PM10": 34.73,
    "PM2n5": 4.83,
    "Pressure": 1014,
    "Temperature": 17,
    "AirQualityIndex": 21.2
  },
  {
    "id": "SAVEDNIPRO_1424",
    "cityName": "Kyiv",
    "stationName": "Street Yuriia Popravky, 4",
    "localName": "",
    "latitude": "50.455080",
    "longitude": "30.629557",
    "humidity": 32.36,
    "PM10": 23.13,
    "PM2n5": 3.87,
    "Pressure": 989,
    "Temperature": 16,
    "AirQualityIndex": 111.13
  },
  {
    "id": "SAVEDNIPRO_1425",
    "cityName": "Kyiv",
    "stationName": "prospekt Heroiv Stalinhrada 28",
    "localName": "",
    "latitude": "50.513766",
    "longitude": "30.508991",
    "humidity": 49.12,
    "PM10": 31.02,
    "PM2n5": 3.87,
    "Pressure": 1001,
    "Temperature": 12,
    "AirQualityIndex": 199.58
  },
  {
    "id": "SAVEDNIPRO_1426",
    "cityName": "Zaporizhzhia",
    "stationName": "prospekt Yuvileinyi, 19",
    "localName": "",
    "latitude": "47.817382",
    "longitude": "35.054906",
    "humidity": 36.47,
    "PM10": 55.62,
    "PM2n5": 2.05,
    "Pressure": 984,
    "Temperature": 12,
    "AirQualityIndex": 34.08
  },
  {
    "id": "SAVEDNIPRO_1427",
    "cityName": "Chornomorsk",
    "stationName": "Street Vitaliia Shuma, 9",
    "localName": "",
    "latitude": "46.302583",
    "longitude": "30.642833",
    "humidity": 37.65,
    "PM10": 44.53,
    "PM2n5": 1.3,
    "Pressure": 988,
    "Temperature": 13,
    "AirQualityIndex": 73.8
  },
  {
    "id": "SAVEDNIPRO_1428",
    "cityName": "Dobropillia",
    "stationName": "mikroraion Molodizhnyi, 36",
    "localName": "",
    "latitude": "48.469470",
    "longitude": "37.079867",
    "humidity": 51.16,
    "PM10": 10.11,
    "PM2n5": 11.75,
    "Pressure": 983,
    "Temperature": 20,
    "AirQualityIndex": 97.02
  },
  {
    "id": "SAVEDNIPRO_1448",
    "cityName": "Rusaniv",
    "stationName": "Street Partyzanska",
    "localName": "",
    "latitude": "50.503785",
    "longitude": "31.149722",
    "humidity": 40.89,
    "PM10": 70.6,
    "PM2n5": 7.06,
    "Pressure": 995,
    "Temperature": 20,
    "AirQualityIndex": 13.43
  },
  {
    "id": "SAVEDNIPRO_1507",
    "cityName": "Irpin",
    "stationName": "Street Varshavska, 114",
    "localName": "",
    "latitude": "50.537636",
    "longitude": "30.266628",
    "humidity": 67.9,
    "PM10": 14.47,
    "PM2n5": 1.35,
    "Pressure": 990,
    "Temperature": 20,
    "AirQualityIndex": 78.68
  },
  {
    "id": "SAVEDNIPRO_1510",
    "cityName": "Kharkiv",
    "stationName": "Street Tobolska, 41A",
    "localName": "",
    "latitude": "50.027901",
    "longitude": "36.215151",
    "humidity": 46.23,
    "PM10": 54.96,
    "PM2n5": 1.29,
    "Pressure": 1009,
    "Temperature": 16,
    "AirQualityIndex": 19.32
  },
  {
    "id": "SAVEDNIPRO_1511",
    "cityName": "Voropaiv",
    "stationName": "Street Kyivska, 100",
    "localName": "",
    "latitude": "50.785232",
    "longitude": "30.683176",
    "humidity": 55.83,
    "PM10": 20.33,
    "PM2n5": 8.92,
    "Pressure": 1012,
    "Temperature": 13,
    "AirQualityIndex": 61.97
  },
  {
    "id": "SAVEDNIPRO_1513",
    "cityName": "Chaiky",
    "stationName": "Street Leontovycha, 16",
    "localName": "",
    "latitude": "50.432666",
    "longitude": "30.279492",
    "humidity": 35.75,
    "PM10": 39.91,
    "PM2n5": 4.02,
    "Pressure": 1015,
    "Temperature": 19,
    "AirQualityIndex": 43.62
  },
  {
    "id": "SAVEDNIPRO_1514",
    "cityName": "Radomyshl",
    "stationName": "Street Shevchenka, 25",
    "localName": "",
    "latitude": "50.501932",
    "longitude": "29.229013",
    "humidity": 32.06,
    "PM10": 24.8,
    "PM2n5": 15.81,
    "Pressure": 1017,
    "Temperature": 19,
    "AirQualityIndex": 117.23
  },
  {
    "id": "SAVEDNIPRO_1538",
    "cityName": "Hnidyn",
    "stationName": "Street Luhova",
    "localName": "",
    "latitude": "50.3290625",
    "longitude": "30.6978125",
    "humidity": 71.72,
    "PM10": 50.26,
    "PM2n5": 16.43,
    "Pressure": 1013,
    "Temperature": 12,
    "AirQualityIndex": 24.33
  },
  {
    "id": "SAVEDNIPRO_1540",
    "cityName": "Kyiv",
    "stationName": "Street Borshchahivska, 16",
    "localName": "",
    "latitude": "50.447179",
    "longitude": "30.468070",
    "humidity": 43.46,
    "PM10": 68.05,
    "PM2n5": 8.21,
    "Pressure": 1006,
    "Temperature": 16,
    "AirQualityIndex": 181.14
  },
  {
    "id": "SAVEDNIPRO_1542",
    "cityName": "Liubar",
    "stationName": "Street Nezalezhnosti, 39",
    "localName": "",
    "latitude": "49.924459",
    "longitude": "27.746386",
    "humidity": 57.66,
    "PM10": 73.52,
    "PM2n5": 14.67,
    "Pressure": 1017,
    "Temperature": 17,
    "AirQualityIndex": 196.3
  },
  {
    "id": "SAVEDNIPRO_1543",
    "cityName": "Kharkiv",
    "stationName": "Hryhorivske shose, 57",
    "localName": "",
    "latitude": "49.979663",
    "longitude": "36.184030",
    "humidity": 70.4,
    "PM10": 50.4,
    "PM2n5": 17.14,
    "Pressure": 1007,
    "Temperature": 13,
    "AirQualityIndex": 2.35
  },
  {
    "id": "SAVEDNIPRO_1544",
    "cityName": "Kyiv",
    "stationName": "Street Anny Akhmatovoi, 47",
    "localName": "",
    "latitude": "50.404406",
    "longitude": "30.615846",
    "humidity": 67.19,
    "PM10": 74.45,
    "PM2n5": 16,
    "Pressure": 987,
    "Temperature": 13,
    "AirQualityIndex": 13.45
  },
  {
    "id": "SAVEDNIPRO_1555",
    "cityName": "Raihorodok",
    "stationName": "Street Skhidna, 4",
    "localName": "",
    "latitude": "48.905655",
    "longitude": "37.724880",
    "humidity": 35.72,
    "PM10": 65.92,
    "PM2n5": 13.72,
    "Pressure": 1019,
    "Temperature": 15,
    "AirQualityIndex": 75.02
  },
  {
    "id": "SAVEDNIPRO_1557",
    "cityName": "Sloviansk",
    "stationName": "ploshcha Soborna, 2",
    "localName": "",
    "latitude": "48.851999",
    "longitude": "37.606324",
    "humidity": 72.83,
    "PM10": 25.25,
    "PM2n5": 18.99,
    "Pressure": 1009,
    "Temperature": 12,
    "AirQualityIndex": 91.75
  },
  {
    "id": "SAVEDNIPRO_1558",
    "cityName": "Bakhmut",
    "stationName": "Street Myru, 44",
    "localName": "",
    "latitude": "48.589113",
    "longitude": "38.000524",
    "humidity": 63.52,
    "PM10": 41.03,
    "PM2n5": 17.11,
    "Pressure": 991,
    "Temperature": 15,
    "AirQualityIndex": 14.65
  },
  {
    "id": "SAVEDNIPRO_1560",
    "cityName": "Mykolaivka",
    "stationName": "Street Mykhaila Petrenka, 7",
    "localName": "",
    "latitude": "48.855326",
    "longitude": "37.774202",
    "humidity": 31.88,
    "PM10": 36.42,
    "PM2n5": 7.15,
    "Pressure": 1000,
    "Temperature": 14,
    "AirQualityIndex": 167.68
  },
  {
    "id": "SAVEDNIPRO_1561",
    "cityName": "Izmail",
    "stationName": "Street Riepina, 12",
    "localName": "",
    "latitude": "45.360426",
    "longitude": "28.818493",
    "humidity": 48.66,
    "PM10": 53.89,
    "PM2n5": 15,
    "Pressure": 1010,
    "Temperature": 12,
    "AirQualityIndex": 2.47
  },
  {
    "id": "SAVEDNIPRO_1562",
    "cityName": "Toretsk",
    "stationName": "Street Maiakovskoho, 10",
    "localName": "",
    "latitude": "48.397121",
    "longitude": "37.843989",
    "humidity": 67.34,
    "PM10": 25.46,
    "PM2n5": 6.59,
    "Pressure": 986,
    "Temperature": 13,
    "AirQualityIndex": 14.09
  },
  {
    "id": "SAVEDNIPRO_1563",
    "cityName": "Druzhkivka",
    "stationName": "Street Minska, 12",
    "localName": "",
    "latitude": "48.613735",
    "longitude": "37.486107",
    "humidity": 65.44,
    "PM10": 53.15,
    "PM2n5": 8.8,
    "Pressure": 993,
    "Temperature": 13,
    "AirQualityIndex": 158.54
  },
  {
    "id": "SAVEDNIPRO_1564",
    "cityName": "Teplodar",
    "stationName": "Street Biliayivska, 3",
    "localName": "",
    "latitude": "46.5228989",
    "longitude": "30.3185014",
    "humidity": 64.12,
    "PM10": 78.57,
    "PM2n5": 8.48,
    "Pressure": 1000,
    "Temperature": 12,
    "AirQualityIndex": 114.08
  },
  {
    "id": "SAVEDNIPRO_1565",
    "cityName": "Serhiivka",
    "stationName": "Street Haharina, 1A",
    "localName": "",
    "latitude": "46.024188",
    "longitude": "30.362985",
    "humidity": 42.75,
    "PM10": 9.62,
    "PM2n5": 12.35,
    "Pressure": 1009,
    "Temperature": 19,
    "AirQualityIndex": 183.84
  },
  {
    "id": "SAVEDNIPRO_1566",
    "cityName": "Tsarychanka",
    "stationName": "Street 14 Hvardiiskoi Dyvizii, 10",
    "localName": "",
    "latitude": "48.941752",
    "longitude": "34.486318",
    "humidity": 54.23,
    "PM10": 63.19,
    "PM2n5": 18.87,
    "Pressure": 1013,
    "Temperature": 18,
    "AirQualityIndex": 31.99
  },
  {
    "id": "SAVEDNIPRO_1568",
    "cityName": "Perechyn",
    "stationName": "ploshcha Narodna, 16",
    "localName": "",
    "latitude": "48.735167",
    "longitude": "22.477306",
    "humidity": 55.16,
    "PM10": 67.05,
    "PM2n5": 7.27,
    "Pressure": 991,
    "Temperature": 20,
    "AirQualityIndex": 63.61
  },
  {
    "id": "SAVEDNIPRO_1569",
    "cityName": "Kozova",
    "stationName": "Street Mykhaila Hrushevskoho, 32",
    "localName": "",
    "latitude": "49.432754",
    "longitude": "25.144195",
    "humidity": 70.17,
    "PM10": 35.94,
    "PM2n5": 19.96,
    "Pressure": 1009,
    "Temperature": 18,
    "AirQualityIndex": 85.6
  },
  {
    "id": "SAVEDNIPRO_1570",
    "cityName": "Novopskov",
    "stationName": "Street Shkilna, 15B",
    "localName": "",
    "latitude": "49.537144",
    "longitude": "39.114868",
    "humidity": 25.32,
    "PM10": 56.47,
    "PM2n5": 16.29,
    "Pressure": 1009,
    "Temperature": 18,
    "AirQualityIndex": 42.9
  },
  {
    "id": "SAVEDNIPRO_1571",
    "cityName": "Bilokurakyne",
    "stationName": "ploshcha Tarasa Shevchenka, 4",
    "localName": "",
    "latitude": "49.525283",
    "longitude": "38.731923",
    "humidity": 36.23,
    "PM10": 36.29,
    "PM2n5": 10.65,
    "Pressure": 992,
    "Temperature": 18,
    "AirQualityIndex": 132.72
  },
  {
    "id": "SAVEDNIPRO_1572",
    "cityName": "Pechenizhyn",
    "stationName": "Street Nezalezhnosti, 15",
    "localName": "",
    "latitude": "48.516707",
    "longitude": "24.883313",
    "humidity": 50.74,
    "PM10": 19.21,
    "PM2n5": 4.54,
    "Pressure": 1010,
    "Temperature": 19,
    "AirQualityIndex": 93.45
  },
  {
    "id": "SAVEDNIPRO_1573",
    "cityName": "Petropil",
    "stationName": "Street Molodizhna, 1",
    "localName": "",
    "latitude": "48.014856",
    "longitude": "34.950205",
    "humidity": 58.09,
    "PM10": 20.02,
    "PM2n5": 18.89,
    "Pressure": 1008,
    "Temperature": 12,
    "AirQualityIndex": 20.62
  },
  {
    "id": "SAVEDNIPRO_1576",
    "cityName": "Vyshniv",
    "stationName": "Street Nezalezhnosti, 80A",
    "localName": "",
    "latitude": "51.197866",
    "longitude": "24.030688",
    "humidity": 27.25,
    "PM10": 44.86,
    "PM2n5": 8.24,
    "Pressure": 985,
    "Temperature": 14,
    "AirQualityIndex": 1.86
  },
  {
    "id": "SAVEDNIPRO_1577",
    "cityName": "Drohobych",
    "stationName": "Street Hrushevskoho, 170",
    "localName": "",
    "latitude": "49.354152",
    "longitude": "23.540407",
    "humidity": 69.83,
    "PM10": 22.8,
    "PM2n5": 17.88,
    "Pressure": 1014,
    "Temperature": 12,
    "AirQualityIndex": 69.52
  },
  {
    "id": "SAVEDNIPRO_1579",
    "cityName": "Koriukivka",
    "stationName": "Street Bulvarna, 6",
    "localName": "",
    "latitude": "51.772445",
    "longitude": "32.258389",
    "humidity": 54.96,
    "PM10": 55.56,
    "PM2n5": 13.29,
    "Pressure": 995,
    "Temperature": 18,
    "AirQualityIndex": 165.21
  },
  {
    "id": "SAVEDNIPRO_1580",
    "cityName": "Semenivka",
    "stationName": "3-y Tsentralnyi provulok, 2",
    "localName": "",
    "latitude": "52.173104",
    "longitude": "32.591975",
    "humidity": 38.45,
    "PM10": 24.95,
    "PM2n5": 10.04,
    "Pressure": 1007,
    "Temperature": 18,
    "AirQualityIndex": 15.54
  },
  {
    "id": "SAVEDNIPRO_1581",
    "cityName": "Khmilnyk",
    "stationName": "Street Stoliarchuka, 10",
    "localName": "",
    "latitude": "49.558073",
    "longitude": "27.956940",
    "humidity": 45.57,
    "PM10": 77.04,
    "PM2n5": 18.9,
    "Pressure": 1008,
    "Temperature": 15,
    "AirQualityIndex": 72.84
  },
  {
    "id": "SAVEDNIPRO_1582",
    "cityName": "Khorostkiv",
    "stationName": "Street Bohdana Lepkoho, 1",
    "localName": "",
    "latitude": "49.212406",
    "longitude": "25.923519",
    "humidity": 49.54,
    "PM10": 36.2,
    "PM2n5": 10.05,
    "Pressure": 993,
    "Temperature": 20,
    "AirQualityIndex": 44.04
  },
  {
    "id": "SAVEDNIPRO_1583",
    "cityName": "Sambir",
    "stationName": "ploshcha Rynok, 1",
    "localName": "",
    "latitude": "49.518117",
    "longitude": "23.196529",
    "humidity": 56.99,
    "PM10": 44.55,
    "PM2n5": 11.51,
    "Pressure": 1002,
    "Temperature": 16,
    "AirQualityIndex": 190.82
  },
  {
    "id": "SAVEDNIPRO_1585",
    "cityName": "Chernihivka",
    "stationName": "Street Ukrainska, 57",
    "localName": "",
    "latitude": "47.194468",
    "longitude": "36.216471",
    "humidity": 70.41,
    "PM10": 11.14,
    "PM2n5": 8.39,
    "Pressure": 981,
    "Temperature": 13,
    "AirQualityIndex": 113.51
  },
  {
    "id": "SAVEDNIPRO_1586",
    "cityName": "Tetiiv",
    "stationName": "Street Yanusha Ostrozkoho, 5",
    "localName": "",
    "latitude": "49.371778",
    "longitude": "29.679528",
    "humidity": 71.3,
    "PM10": 19.37,
    "PM2n5": 8.23,
    "Pressure": 980,
    "Temperature": 13,
    "AirQualityIndex": 4.79
  },
  {
    "id": "SAVEDNIPRO_1587",
    "cityName": "Snovsk",
    "stationName": "Street Nezalezhnosti, 19",
    "localName": "",
    "latitude": "51.819637",
    "longitude": "31.942129",
    "humidity": 73.65,
    "PM10": 8.43,
    "PM2n5": 15.16,
    "Pressure": 988,
    "Temperature": 13,
    "AirQualityIndex": 189.5
  },
  {
    "id": "SAVEDNIPRO_1588",
    "cityName": "Sosnytsia",
    "stationName": "Street Osvity, 21A",
    "localName": "",
    "latitude": "51.524997",
    "longitude": "32.510375",
    "humidity": 74.85,
    "PM10": 25.87,
    "PM2n5": 19.64,
    "Pressure": 989,
    "Temperature": 15,
    "AirQualityIndex": 32.78
  },
  {
    "id": "SAVEDNIPRO_1589",
    "cityName": "Kiliia",
    "stationName": "Street Dunaiska, 92",
    "localName": "",
    "latitude": "45.452392",
    "longitude": "29.261819",
    "humidity": 46.96,
    "PM10": 43.36,
    "PM2n5": 16.21,
    "Pressure": 997,
    "Temperature": 16,
    "AirQualityIndex": 69.69
  },
  {
    "id": "SAVEDNIPRO_1590",
    "cityName": "Yuzhne",
    "stationName": "prospekt Hryhorivskoho Desanta, 18",
    "localName": "",
    "latitude": "46.621765",
    "longitude": "31.101823",
    "humidity": 39.79,
    "PM10": 54.68,
    "PM2n5": 1.95,
    "Pressure": 1006,
    "Temperature": 19,
    "AirQualityIndex": 179.5
  },
  {
    "id": "SAVEDNIPRO_1592",
    "cityName": "Novoukrainka",
    "stationName": "Street Pokrovska, 70",
    "localName": "",
    "latitude": "48.316617",
    "longitude": "31.523581",
    "humidity": 61.25,
    "PM10": 66.92,
    "PM2n5": 5.52,
    "Pressure": 1008,
    "Temperature": 15,
    "AirQualityIndex": 180.06
  },
  {
    "id": "SAVEDNIPRO_1593",
    "cityName": "Vasylkivka",
    "stationName": "Vasylkivka",
    "localName": "",
    "latitude": "48.217358",
    "longitude": "36.011523",
    "humidity": 36.47,
    "PM10": 18.84,
    "PM2n5": 8.89,
    "Pressure": 1014,
    "Temperature": 14,
    "AirQualityIndex": 48.77
  },
  {
    "id": "SAVEDNIPRO_1595",
    "cityName": "Kulykivka",
    "stationName": "Street Myru, 67",
    "localName": "",
    "latitude": "51.373776",
    "longitude": "31.645106",
    "humidity": 67.46,
    "PM10": 20.09,
    "PM2n5": 3.76,
    "Pressure": 991,
    "Temperature": 15,
    "AirQualityIndex": 41.15
  },
  {
    "id": "SAVEDNIPRO_1596",
    "cityName": "Mykhailivka",
    "stationName": "Street Shevchenka, 31",
    "localName": "",
    "latitude": "46.585535",
    "longitude": "34.562095",
    "humidity": 73.72,
    "PM10": 20.54,
    "PM2n5": 19.15,
    "Pressure": 1017,
    "Temperature": 15,
    "AirQualityIndex": 127.84
  },
  {
    "id": "SAVEDNIPRO_1597",
    "cityName": "Fastiv",
    "stationName": "Street Trudova, 32",
    "localName": "",
    "latitude": "50.062178",
    "longitude": "29.918784",
    "humidity": 54.14,
    "PM10": 67.69,
    "PM2n5": 11.1,
    "Pressure": 985,
    "Temperature": 19,
    "AirQualityIndex": 122.45
  },
  {
    "id": "SAVEDNIPRO_1601",
    "cityName": "Bilhorod-Dnistrovskyi",
    "stationName": "Street Peremohy, 25",
    "localName": "",
    "latitude": "46.181611",
    "longitude": "30.362611",
    "humidity": 74.67,
    "PM10": 29.8,
    "PM2n5": 2.1,
    "Pressure": 1020,
    "Temperature": 14,
    "AirQualityIndex": 148.45
  },
  {
    "id": "SAVEDNIPRO_1602",
    "cityName": "Zatoka",
    "stationName": "Street Prymorska, 20",
    "localName": "",
    "latitude": "46.067602",
    "longitude": "30.457430",
    "humidity": 35.29,
    "PM10": 67.85,
    "PM2n5": 14.37,
    "Pressure": 988,
    "Temperature": 15,
    "AirQualityIndex": 9.58
  },
  {
    "id": "SAVEDNIPRO_1603",
    "cityName": "Verkhovyna",
    "stationName": "Street Ivana Franka, 3",
    "localName": "",
    "latitude": "48.155409",
    "longitude": "24.829758",
    "humidity": 67.17,
    "PM10": 55.67,
    "PM2n5": 19.68,
    "Pressure": 1006,
    "Temperature": 17,
    "AirQualityIndex": 17.88
  },
  {
    "id": "SAVEDNIPRO_1604",
    "cityName": "Vorokhta",
    "stationName": "Street Danyla Halytsoho, 41",
    "localName": "",
    "latitude": "48.292875",
    "longitude": "24.563048",
    "humidity": 46.51,
    "PM10": 13.62,
    "PM2n5": 11.83,
    "Pressure": 1009,
    "Temperature": 17,
    "AirQualityIndex": 113.83
  },
  {
    "id": "SAVEDNIPRO_1605",
    "cityName": "Yasinia",
    "stationName": "Street Myru, 6",
    "localName": "",
    "latitude": "48.271480",
    "longitude": "24.360622",
    "humidity": 52.26,
    "PM10": 34.92,
    "PM2n5": 14.14,
    "Pressure": 995,
    "Temperature": 17,
    "AirQualityIndex": 3.94
  },
  {
    "id": "SAVEDNIPRO_1606",
    "cityName": "Kosiv",
    "stationName": "maidan Nezalezhnosti, 11",
    "localName": "",
    "latitude": "48.320237",
    "longitude": "25.091142",
    "humidity": 67.57,
    "PM10": 14.82,
    "PM2n5": 18.48,
    "Pressure": 1001,
    "Temperature": 19,
    "AirQualityIndex": 1.07
  },
  {
    "id": "SAVEDNIPRO_1607",
    "cityName": "Yaremche",
    "stationName": "Street Svobody, 265",
    "localName": "",
    "latitude": "48.448912",
    "longitude": "24.553462",
    "humidity": 56.81,
    "PM10": 16.36,
    "PM2n5": 8.84,
    "Pressure": 1011,
    "Temperature": 15,
    "AirQualityIndex": 112.56
  },
  {
    "id": "SAVEDNIPRO_1637",
    "cityName": "Maniava",
    "stationName": "Street Nezalezhnosti, 20",
    "localName": "",
    "latitude": "48.653396",
    "longitude": "24.374891",
    "humidity": 45.77,
    "PM10": 77.47,
    "PM2n5": 8.11,
    "Pressure": 986,
    "Temperature": 12,
    "AirQualityIndex": 157.03
  },
  {
    "id": "SAVEDNIPRO_1638",
    "cityName": "Cherkasy",
    "stationName": "provulok Krainii, 24",
    "localName": "",
    "latitude": "49.4058272",
    "longitude": "32.0392034",
    "humidity": 50.97,
    "PM10": 24.88,
    "PM2n5": 11.01,
    "Pressure": 980,
    "Temperature": 15,
    "AirQualityIndex": 53.53
  },
  {
    "id": "SAVEDNIPRO_1639",
    "cityName": "Tomashpil",
    "stationName": "ploshcha Tarasa Shevchenka, 1",
    "localName": "",
    "latitude": "48.536566",
    "longitude": "28.513644",
    "humidity": 40.65,
    "PM10": 16.51,
    "PM2n5": 8.6,
    "Pressure": 989,
    "Temperature": 17,
    "AirQualityIndex": 181.06
  },
  {
    "id": "SAVEDNIPRO_1645",
    "cityName": "Bilshivtsi",
    "stationName": "Street Striletska, 5",
    "localName": "",
    "latitude": "49.182508",
    "longitude": "24.743334",
    "humidity": 48.24,
    "PM10": 24.22,
    "PM2n5": 19.34,
    "Pressure": 1014,
    "Temperature": 14,
    "AirQualityIndex": 64.33
  },
  {
    "id": "SAVEDNIPRO_1646",
    "cityName": "Zaozerne",
    "stationName": "Street Shkilna, 59",
    "localName": "",
    "latitude": "48.690250",
    "longitude": "29.155364",
    "humidity": 62,
    "PM10": 11.4,
    "PM2n5": 5.31,
    "Pressure": 1012,
    "Temperature": 13,
    "AirQualityIndex": 45.92
  },
  {
    "id": "SAVEDNIPRO_2738",
    "cityName": "Zaporizhzhia",
    "stationName": "Street Sviatoho Mykolaia 67",
    "localName": "",
    "latitude": "47.8159538",
    "longitude": "35.1734128",
    "humidity": 72.87,
    "PM10": 75.77,
    "PM2n5": 8.73,
    "Pressure": 984,
    "Temperature": 13,
    "AirQualityIndex": 88.41
  },
  {
    "id": "SAVEDNIPRO_2923",
    "cityName": "Petropavlivska Borshchahivka",
    "stationName": "Street Lvivska, 1A, k.4-2",
    "localName": "",
    "latitude": "50.433252",
    "longitude": "30.319928",
    "humidity": 39.74,
    "PM10": 79.35,
    "PM2n5": 4.2,
    "Pressure": 1001,
    "Temperature": 16,
    "AirQualityIndex": 123.67
  },
  {
    "id": "SAVEDNIPRO_2924",
    "cityName": "Kyiv",
    "stationName": "Street Heroiv Oborony, 13",
    "localName": "",
    "latitude": "50.383883",
    "longitude": "30.496689",
    "humidity": 34.86,
    "PM10": 5.7,
    "PM2n5": 7.63,
    "Pressure": 989,
    "Temperature": 19,
    "AirQualityIndex": 182.44
  },
  {
    "id": "SAVEDNIPRO_2925",
    "cityName": "Kyiv",
    "stationName": "Street Tykhoritska, 30/7",
    "localName": "",
    "latitude": "50.4003378",
    "longitude": "30.4966682",
    "humidity": 25.51,
    "PM10": 42.01,
    "PM2n5": 12.97,
    "Pressure": 1001,
    "Temperature": 12,
    "AirQualityIndex": 6.25
  },
  {
    "id": "SAVEDNIPRO_2944",
    "cityName": "Nadvirna",
    "stationName": "Street Soborna, 120",
    "localName": "",
    "latitude": "48.613466",
    "longitude": "24.575289",
    "humidity": 61.71,
    "PM10": 48.33,
    "PM2n5": 10.65,
    "Pressure": 1015,
    "Temperature": 14,
    "AirQualityIndex": 21.8
  },
  {
    "id": "SAVEDNIPRO_2946",
    "cityName": "Verkhovyna",
    "stationName": "Street Kryvets",
    "localName": "",
    "latitude": "48.147531",
    "longitude": "24.785409",
    "humidity": 36.13,
    "PM10": 77.14,
    "PM2n5": 16.97,
    "Pressure": 1000,
    "Temperature": 13,
    "AirQualityIndex": 128.77
  },
  {
    "id": "SAVEDNIPRO_2947",
    "cityName": "Kyiv",
    "stationName": "Street Desiatynna, 13",
    "localName": "",
    "latitude": "50.382794",
    "longitude": "30.457889",
    "humidity": 51.18,
    "PM10": 38.99,
    "PM2n5": 19.71,
    "Pressure": 1003,
    "Temperature": 18,
    "AirQualityIndex": 101.23
  },
  {
    "id": "SAVEDNIPRO_2948",
    "cityName": "Dachne",
    "stationName": "provulok Aptechnyi, 5",
    "localName": "",
    "latitude": "46.582371",
    "longitude": "30.550164",
    "humidity": 25.77,
    "PM10": 54.36,
    "PM2n5": 13.32,
    "Pressure": 998,
    "Temperature": 14,
    "AirQualityIndex": 79.92
  },
  {
    "id": "SAVEDNIPRO_2971",
    "cityName": "Nadvirna",
    "stationName": "Street Danyla Halytskoho",
    "localName": "",
    "latitude": "48.637791",
    "longitude": "24.589826",
    "humidity": 45.8,
    "PM10": 6.45,
    "PM2n5": 7.65,
    "Pressure": 1009,
    "Temperature": 16,
    "AirQualityIndex": 169.65
  },
  {
    "id": "SAVEDNIPRO_2972",
    "cityName": "Tatariv",
    "stationName": "urochyshche Pihy, 660",
    "localName": "",
    "latitude": "48.334527",
    "longitude": "24.581930",
    "humidity": 74.62,
    "PM10": 27.67,
    "PM2n5": 19.87,
    "Pressure": 997,
    "Temperature": 13,
    "AirQualityIndex": 57.32
  },
  {
    "id": "SAVEDNIPRO_2973",
    "cityName": "Kyiv",
    "stationName": "2-y Tupykovyi provulok, 18",
    "localName": "",
    "latitude": "50.3683248",
    "longitude": "30.6842978",
    "humidity": 34.64,
    "PM10": 72.39,
    "PM2n5": 4.67,
    "Pressure": 1016,
    "Temperature": 19,
    "AirQualityIndex": 131.57
  },
  {
    "id": "SAVEDNIPRO_2974",
    "cityName": "Dnipro",
    "stationName": "prospekt Bohdana Khmelnytskoho, 156",
    "localName": "",
    "latitude": "48.389709",
    "longitude": "34.999168",
    "humidity": 30.55,
    "PM10": 36.41,
    "PM2n5": 9.87,
    "Pressure": 981,
    "Temperature": 15,
    "AirQualityIndex": 139.06
  },
  {
    "id": "SAVEDNIPRO_3014",
    "cityName": "Brovary",
    "stationName": "Street Haidamatska, 33",
    "localName": "",
    "latitude": "50.496656",
    "longitude": "30.744022",
    "humidity": 48.74,
    "PM10": 30.18,
    "PM2n5": 4.7,
    "Pressure": 982,
    "Temperature": 16,
    "AirQualityIndex": 95.87
  },
  {
    "id": "SAVEDNIPRO_3015",
    "cityName": "Peremoha",
    "stationName": "Street Korolova, 10",
    "localName": "",
    "latitude": "50.542000",
    "longitude": "30.825502",
    "humidity": 56.08,
    "PM10": 66.88,
    "PM2n5": 3.26,
    "Pressure": 995,
    "Temperature": 12,
    "AirQualityIndex": 11.06
  },
  {
    "id": "SAVEDNIPRO_3016",
    "cityName": "Kyiv",
    "stationName": "Street Budindustrii, 4",
    "localName": "",
    "latitude": "50.402528",
    "longitude": "30.568056",
    "humidity": 74.98,
    "PM10": 45.72,
    "PM2n5": 18.57,
    "Pressure": 1009,
    "Temperature": 16,
    "AirQualityIndex": 77.04
  },
  {
    "id": "SAVEDNIPRO_3017",
    "cityName": "Illinivka",
    "stationName": "Street Krynychna, 32",
    "localName": "",
    "latitude": "48.491370",
    "longitude": "37.673650",
    "humidity": 31.97,
    "PM10": 42.55,
    "PM2n5": 10.57,
    "Pressure": 999,
    "Temperature": 14,
    "AirQualityIndex": 78.33
  },
  {
    "id": "SAVEDNIPRO_3018",
    "cityName": "Kyiv",
    "stationName": "Street Zhylianska, 30A",
    "localName": "",
    "latitude": "50.434808",
    "longitude": "30.510823",
    "humidity": 62.87,
    "PM10": 48.61,
    "PM2n5": 18.55,
    "Pressure": 984,
    "Temperature": 12,
    "AirQualityIndex": 65.85
  },
  {
    "id": "SAVEDNIPRO_3021",
    "cityName": "Mykolaiv",
    "stationName": "Street Metalurhiv 8",
    "localName": "",
    "latitude": "46.868088",
    "longitude": "32.009947",
    "humidity": 52.44,
    "PM10": 8.09,
    "PM2n5": 14.31,
    "Pressure": 1015,
    "Temperature": 15,
    "AirQualityIndex": 27.17
  },
  {
    "id": "SAVEDNIPRO_3022",
    "cityName": "Dnipro",
    "stationName": "Street Nakhimova 41",
    "localName": "",
    "latitude": "48.4464278",
    "longitude": "35.0151460",
    "humidity": 29.21,
    "PM10": 51.97,
    "PM2n5": 1.75,
    "Pressure": 1009,
    "Temperature": 15,
    "AirQualityIndex": 74.74
  },
  {
    "id": "SAVEDNIPRO_3144",
    "cityName": "Svydivok",
    "stationName": "Street Sydorchuka, 37",
    "localName": "",
    "latitude": "49.512636",
    "longitude": "31.906911",
    "humidity": 47.5,
    "PM10": 1.25,
    "PM2n5": 9.37,
    "Pressure": 980,
    "Temperature": 15,
    "AirQualityIndex": 100.83
  },
  {
    "id": "SAVEDNIPRO_3210",
    "cityName": "Vyshneve",
    "stationName": "Street Pershotravneva, 21",
    "localName": "Luftdaten #40723",
    "latitude": "50.382",
    "longitude": "30.38",
    "humidity": 53.29,
    "PM10": 59.56,
    "PM2n5": 18.91,
    "Pressure": 995,
    "Temperature": 20,
    "AirQualityIndex": 146.84
  },
  {
    "id": "SAVEDNIPRO_3260",
    "cityName": "Cherkasy",
    "stationName": "Street 30-richchia Peremohy, 38",
    "localName": "",
    "latitude": "49.4255539915765",
    "longitude": "32.01328954180976",
    "humidity": 72,
    "PM10": 34.23,
    "PM2n5": 19.33,
    "Pressure": 992,
    "Temperature": 16,
    "AirQualityIndex": 164.05
  },
  {
    "id": "SAVEDNIPRO_3262",
    "cityName": "Cherkasy",
    "stationName": "bulvar Shevchenko, 460",
    "localName": "",
    "latitude": "49.422005",
    "longitude": "32.096475",
    "humidity": 46.13,
    "PM10": 22.46,
    "PM2n5": 6.39,
    "Pressure": 985,
    "Temperature": 19,
    "AirQualityIndex": 129.57
  },
  {
    "id": "SAVEDNIPRO_3263",
    "cityName": "Cherkasy",
    "stationName": "Street Baidy Vyshnevetskoho, 49",
    "localName": "",
    "latitude": "49.442538",
    "longitude": "32.056531",
    "humidity": 62.49,
    "PM10": 57.96,
    "PM2n5": 6.17,
    "Pressure": 1008,
    "Temperature": 17,
    "AirQualityIndex": 148.92
  },
  {
    "id": "SAVEDNIPRO_3264",
    "cityName": "Cherkasy",
    "stationName": "Street Pakhariv Khutir, 29",
    "localName": "",
    "latitude": "49.456974",
    "longitude": "32.007218",
    "humidity": 25.87,
    "PM10": 21.46,
    "PM2n5": 7.76,
    "Pressure": 989,
    "Temperature": 17,
    "AirQualityIndex": 91.62
  },
  {
    "id": "SAVEDNIPRO_3306",
    "cityName": "Kyiv",
    "stationName": "Street Lavrska, 8",
    "localName": "",
    "latitude": "50.436484",
    "longitude": "30.552905",
    "humidity": 58.78,
    "PM10": 5.63,
    "PM2n5": 11.67,
    "Pressure": 992,
    "Temperature": 12,
    "AirQualityIndex": 83.21
  },
  {
    "id": "SAVEDNIPRO_3398",
    "cityName": "Kyiv",
    "stationName": "Street Vasylia Tiutiunnyka, 53",
    "localName": "",
    "latitude": "50.417128",
    "longitude": "30.528690",
    "humidity": 35.51,
    "PM10": 23.49,
    "PM2n5": 15.27,
    "Pressure": 1017,
    "Temperature": 18,
    "AirQualityIndex": 93.64
  },
  {
    "id": "SAVEDNIPRO_3401",
    "cityName": "Kyiv",
    "stationName": "Street Yelyzavety Chavdar, 6",
    "localName": "",
    "latitude": "50.3915128",
    "longitude": "30.6237862",
    "humidity": 26.9,
    "PM10": 12.33,
    "PM2n5": 1.25,
    "Pressure": 1016,
    "Temperature": 14,
    "AirQualityIndex": 107.66
  },
  {
    "id": "SAVEDNIPRO_3418",
    "cityName": "Kremenets",
    "stationName": "Street Slovatskoho",
    "localName": "",
    "latitude": "50.095595",
    "longitude": "25.722824",
    "humidity": 34.96,
    "PM10": 74.67,
    "PM2n5": 18.24,
    "Pressure": 1019,
    "Temperature": 18,
    "AirQualityIndex": 11.67
  },
  {
    "id": "SAVEDNIPRO_3419",
    "cityName": "Petropavlivska Borshchahivka",
    "stationName": "Street Dnipropetrovska",
    "localName": "",
    "latitude": "50.4218146",
    "longitude": "30.3273005",
    "humidity": 29.28,
    "PM10": 61.6,
    "PM2n5": 13.06,
    "Pressure": 993,
    "Temperature": 13,
    "AirQualityIndex": 86.52
  },
  {
    "id": "SAVEDNIPRO_3420",
    "cityName": "Lviv",
    "stationName": "Street Zelena, 27",
    "localName": "",
    "latitude": "49.833325",
    "longitude": "24.039184",
    "humidity": 32.7,
    "PM10": 61.47,
    "PM2n5": 14.1,
    "Pressure": 994,
    "Temperature": 13,
    "AirQualityIndex": 31.44
  },
  {
    "id": "SAVEDNIPRO_3422",
    "cityName": "Kyiv",
    "stationName": "bulvar Perova, 10A",
    "localName": "",
    "latitude": "50.471205",
    "longitude": "30.598600",
    "humidity": 30.12,
    "PM10": 77.66,
    "PM2n5": 18.56,
    "Pressure": 1019,
    "Temperature": 14,
    "AirQualityIndex": 40.66
  },
  {
    "id": "SAVEDNIPRO_3423",
    "cityName": "Kozyn",
    "stationName": "Street Zarichna, 4",
    "localName": "",
    "latitude": "50.234897",
    "longitude": "30.663275",
    "humidity": 38.9,
    "PM10": 57.32,
    "PM2n5": 5.19,
    "Pressure": 1011,
    "Temperature": 12,
    "AirQualityIndex": 15.43
  },
  {
    "id": "SAVEDNIPRO_3424",
    "cityName": "Vyshenky",
    "stationName": "Street Velyka Naberezhna",
    "localName": "",
    "latitude": "50.2850885",
    "longitude": "30.6995002",
    "humidity": 46.93,
    "PM10": 48.08,
    "PM2n5": 17.17,
    "Pressure": 1020,
    "Temperature": 17,
    "AirQualityIndex": 120.65
  },
  {
    "id": "SAVEDNIPRO_3535",
    "cityName": "Kyiv",
    "stationName": "Street Sovska, 23",
    "localName": "",
    "latitude": "50.397128",
    "longitude": "30.455709",
    "humidity": 32.09,
    "PM10": 6.55,
    "PM2n5": 13.12,
    "Pressure": 1019,
    "Temperature": 12,
    "AirQualityIndex": 80.86
  },
  {
    "id": "SAVEDNIPRO_3572",
    "cityName": "Kyiv",
    "stationName": "Street Mykhaila Drahomanova, 17",
    "localName": "",
    "latitude": "50.409345",
    "longitude": "30.639613",
    "humidity": 51.08,
    "PM10": 43.31,
    "PM2n5": 9.79,
    "Pressure": 1007,
    "Temperature": 15,
    "AirQualityIndex": 67.56
  },
  {
    "id": "SAVEDNIPRO_3594",
    "cityName": "Baranivka",
    "stationName": "Street Ivana Franka, 1A",
    "localName": "",
    "latitude": "50.287114",
    "longitude": "27.648709",
    "humidity": 44.01,
    "PM10": 49.07,
    "PM2n5": 8.68,
    "Pressure": 995,
    "Temperature": 13,
    "AirQualityIndex": 9.52
  },
  {
    "id": "SAVEDNIPRO_3595",
    "cityName": "Dnipro",
    "stationName": "Street Vysokovoltna, 14m",
    "localName": "",
    "latitude": "48.423869",
    "longitude": "35.031133",
    "humidity": 44.43,
    "PM10": 17.51,
    "PM2n5": 13.59,
    "Pressure": 990,
    "Temperature": 18,
    "AirQualityIndex": 153.66
  },
  {
    "id": "SAVEDNIPRO_3596",
    "cityName": "Horishni Plavni",
    "stationName": "Street Horkoho, 195",
    "localName": "",
    "latitude": "49.034799",
    "longitude": "33.564750",
    "humidity": 34.32,
    "PM10": 9.41,
    "PM2n5": 15.47,
    "Pressure": 1007,
    "Temperature": 19,
    "AirQualityIndex": 186.26
  },
  {
    "id": "SAVEDNIPRO_3597",
    "cityName": "Khotiv",
    "stationName": "Street Lisova, 34",
    "localName": "",
    "latitude": "50.3328803",
    "longitude": "30.4440768",
    "humidity": 62.2,
    "PM10": 14.32,
    "PM2n5": 15.21,
    "Pressure": 1001,
    "Temperature": 20,
    "AirQualityIndex": 177.63
  },
  {
    "id": "SAVEDNIPRO_3605",
    "cityName": "Dnipro",
    "stationName": "Street Molodohvardiiska, 18",
    "localName": "",
    "latitude": "48.476547",
    "longitude": "35.117154",
    "humidity": 42.8,
    "PM10": 67.82,
    "PM2n5": 10.41,
    "Pressure": 996,
    "Temperature": 15,
    "AirQualityIndex": 111.85
  },
  {
    "id": "SAVEDNIPRO_3608",
    "cityName": "Dnipro",
    "stationName": "Street 20-richchia Peremohy, 43",
    "localName": "",
    "latitude": "48.416020",
    "longitude": "35.132420",
    "humidity": 47.42,
    "PM10": 7.98,
    "PM2n5": 3.27,
    "Pressure": 1006,
    "Temperature": 12,
    "AirQualityIndex": 156.02
  },
  {
    "id": "SAVEDNIPRO_3616",
    "cityName": "Dnipro",
    "stationName": "Street Topolyna, 35",
    "localName": "",
    "latitude": "48.391809",
    "longitude": "35.021741",
    "humidity": 37.19,
    "PM10": 25.03,
    "PM2n5": 19.02,
    "Pressure": 1017,
    "Temperature": 16,
    "AirQualityIndex": 108.52
  },
  {
    "id": "SAVEDNIPRO_3617",
    "cityName": "Dnipro",
    "stationName": "Street Chernyshevskoho, 24A",
    "localName": "",
    "latitude": "48.453418",
    "longitude": "35.053162",
    "humidity": 58.45,
    "PM10": 20.12,
    "PM2n5": 17,
    "Pressure": 1012,
    "Temperature": 16,
    "AirQualityIndex": 25.36
  },
  {
    "id": "SAVEDNIPRO_3683",
    "cityName": "Krekhaiv",
    "stationName": "Sadove tovarystvo Khimik",
    "localName": "",
    "latitude": "50.783955",
    "longitude": "30.769977",
    "humidity": 60.72,
    "PM10": 45.26,
    "PM2n5": 5.61,
    "Pressure": 1015,
    "Temperature": 19,
    "AirQualityIndex": 89.2
  },
  {
    "id": "SAVEDNIPRO_4061",
    "cityName": "Dnipro",
    "stationName": "Donetske shose, 1",
    "localName": "",
    "latitude": "48.5104497",
    "longitude": "34.9874743",
    "humidity": 35.21,
    "PM10": 50.25,
    "PM2n5": 14.61,
    "Pressure": 1006,
    "Temperature": 13,
    "AirQualityIndex": 69.29
  },
  {
    "id": "SAVEDNIPRO_4185",
    "cityName": "Rozhivka",
    "stationName": "Street Slavy, 17",
    "localName": "",
    "latitude": "50.600621",
    "longitude": "30.761064",
    "humidity": 33.99,
    "PM10": 35.96,
    "PM2n5": 4.6,
    "Pressure": 1012,
    "Temperature": 13,
    "AirQualityIndex": 88.17
  },
  {
    "id": "SAVEDNIPRO_4186",
    "cityName": "Ukrainka",
    "stationName": "Street Sosnova",
    "localName": "",
    "latitude": "50.155032",
    "longitude": "30.746305",
    "humidity": 72.18,
    "PM10": 62.26,
    "PM2n5": 15.4,
    "Pressure": 1004,
    "Temperature": 17,
    "AirQualityIndex": 196.21
  },
  {
    "id": "SAVEDNIPRO_4187",
    "cityName": "Brovary",
    "stationName": "Street Oleksiia Bolshechenka, 7",
    "localName": "",
    "latitude": "50.519816",
    "longitude": "30.774017",
    "humidity": 60.94,
    "PM10": 9.53,
    "PM2n5": 8.47,
    "Pressure": 981,
    "Temperature": 12,
    "AirQualityIndex": 115.9
  },
  {
    "id": "SAVEDNIPRO_4189",
    "cityName": "Kharkiv",
    "stationName": "prospekt Nauky, 43",
    "localName": "",
    "latitude": "50.033602",
    "longitude": "36.220648",
    "humidity": 59.45,
    "PM10": 29.62,
    "PM2n5": 2.07,
    "Pressure": 992,
    "Temperature": 18,
    "AirQualityIndex": 65.71
  },
  {
    "id": "SAVEDNIPRO_4190",
    "cityName": "Vita-Poshtova",
    "stationName": "Street Ozerna",
    "localName": "",
    "latitude": "50.307679",
    "longitude": "30.363271",
    "humidity": 32.36,
    "PM10": 33.22,
    "PM2n5": 3.99,
    "Pressure": 980,
    "Temperature": 16,
    "AirQualityIndex": 108.91
  },
  {
    "id": "SAVEDNIPRO_4200",
    "cityName": "Dnipro",
    "stationName": "Street Hidroparkova, 9",
    "localName": "",
    "latitude": "48.478241",
    "longitude": "34.903792",
    "humidity": 52.37,
    "PM10": 14.68,
    "PM2n5": 4.11,
    "Pressure": 985,
    "Temperature": 19,
    "AirQualityIndex": 21.88
  },
  {
    "id": "SAVEDNIPRO_4201",
    "cityName": "Kyiv",
    "stationName": "Street Pavla Pototskoho",
    "localName": "",
    "latitude": "50.3963897",
    "longitude": "30.4485849",
    "humidity": 67.85,
    "PM10": 31.43,
    "PM2n5": 19.58,
    "Pressure": 1016,
    "Temperature": 17,
    "AirQualityIndex": 155.12
  },
  {
    "id": "SAVEDNIPRO_4202",
    "cityName": "Nova Kakhovka",
    "stationName": "Street Paryzkoi komuny",
    "localName": "",
    "latitude": "46.757534",
    "longitude": "33.369862",
    "humidity": 62.82,
    "PM10": 56.68,
    "PM2n5": 17.2,
    "Pressure": 994,
    "Temperature": 14,
    "AirQualityIndex": 92.02
  },
  {
    "id": "SAVEDNIPRO_4208",
    "cityName": "Dnipro",
    "stationName": "Street Berdianska, 1",
    "localName": "",
    "latitude": "48.487060",
    "longitude": "35.066893",
    "humidity": 68.69,
    "PM10": 45.01,
    "PM2n5": 13.34,
    "Pressure": 1006,
    "Temperature": 18,
    "AirQualityIndex": 101.41
  },
  {
    "id": "SAVEDNIPRO_4210",
    "cityName": "Dnipro",
    "stationName": "prospekt Bohdana Khmelnytskoho, 229",
    "localName": "",
    "latitude": "48.373500",
    "longitude": "34.995097",
    "humidity": 30.17,
    "PM10": 71.56,
    "PM2n5": 19.42,
    "Pressure": 981,
    "Temperature": 15,
    "AirQualityIndex": 103.32
  },
  {
    "id": "SAVEDNIPRO_4232",
    "cityName": "Kyiv",
    "stationName": "Street Desiatynna, 13",
    "localName": "",
    "latitude": "50.457508",
    "longitude": "30.519401",
    "humidity": 26.79,
    "PM10": 56.23,
    "PM2n5": 12.42,
    "Pressure": 1003,
    "Temperature": 13,
    "AirQualityIndex": 111.79
  },
  {
    "id": "SAVEDNIPRO_13405",
    "cityName": "Roslavychi",
    "stationName": "KH Berezovaia roshcha",
    "localName": "",
    "latitude": "50.266944",
    "longitude": "30.443000",
    "humidity": 25.12,
    "PM10": 3.13,
    "PM2n5": 3.46,
    "Pressure": 982,
    "Temperature": 15,
    "AirQualityIndex": 111.15
  },
  {
    "id": "SAVEDNIPRO_13406",
    "cityName": "Hatne",
    "stationName": "vulytsa Barvinkova, 11a",
    "localName": "",
    "latitude": "50.371506",
    "longitude": "30.422791",
    "humidity": 71.98,
    "PM10": 68.55,
    "PM2n5": 9.16,
    "Pressure": 1019,
    "Temperature": 13,
    "AirQualityIndex": 16.8
  },
  {
    "id": "SAVEDNIPRO_13407",
    "cityName": "Kyiv",
    "stationName": "bulvar Darnytskyi, 10",
    "localName": "",
    "latitude": "50.464790",
    "longitude": "30.611383",
    "humidity": 31.97,
    "PM10": 32.88,
    "PM2n5": 8.42,
    "Pressure": 1012,
    "Temperature": 13,
    "AirQualityIndex": 183.38
  },
  {
    "id": "SAVEDNIPRO_13409",
    "cityName": "Severynivka",
    "stationName": "Street Pavla Skoropadskoho",
    "localName": "",
    "latitude": "50.395791",
    "longitude": "29.978961",
    "humidity": 38.05,
    "PM10": 22.61,
    "PM2n5": 10.36,
    "Pressure": 1014,
    "Temperature": 20,
    "AirQualityIndex": 175.79
  },
  {
    "id": "SAVEDNIPRO_13411",
    "cityName": "Kozyn",
    "stationName": "Street Starokyivska",
    "localName": "",
    "latitude": "50.257856",
    "longitude": "30.653474",
    "humidity": 74.96,
    "PM10": 61.25,
    "PM2n5": 13.52,
    "Pressure": 991,
    "Temperature": 19,
    "AirQualityIndex": 181.55
  },
  {
    "id": "SAVEDNIPRO_13413",
    "cityName": "Kyiv",
    "stationName": "Street Hertsena, 35",
    "localName": "",
    "latitude": "50.472750",
    "longitude": "30.463750",
    "humidity": 62.39,
    "PM10": 63.35,
    "PM2n5": 3.95,
    "Pressure": 1006,
    "Temperature": 19,
    "AirQualityIndex": 198.1
  },
  {
    "id": "SAVEDNIPRO_13414",
    "cityName": "Bohuslav",
    "stationName": "Street Ivana Franka, 22/1",
    "localName": "",
    "latitude": "49.537806",
    "longitude": "30.864059",
    "humidity": 44.07,
    "PM10": 63.58,
    "PM2n5": 3.89,
    "Pressure": 1017,
    "Temperature": 20,
    "AirQualityIndex": 92.83
  },
  {
    "id": "SAVEDNIPRO_13419",
    "cityName": "Shevchenkove",
    "stationName": "provulok Yuvileinyi, 7",
    "localName": "",
    "latitude": "50.416389",
    "longitude": "30.241333",
    "humidity": 33.81,
    "PM10": 42.03,
    "PM2n5": 2.5,
    "Pressure": 1014,
    "Temperature": 17,
    "AirQualityIndex": 64.66
  },
  {
    "id": "SAVEDNIPRO_13533",
    "cityName": "Vyshenky",
    "stationName": "Zoloche-Provans, 2",
    "localName": "",
    "latitude": "50.298605",
    "longitude": "30.703356",
    "humidity": 26,
    "PM10": 21.76,
    "PM2n5": 10.74,
    "Pressure": 997,
    "Temperature": 20,
    "AirQualityIndex": 71.93
  },
  {
    "id": "SAVEDNIPRO_13536",
    "cityName": "Lviv",
    "stationName": "Street Sumska, 10",
    "localName": "",
    "latitude": "49.812327",
    "longitude": "24.036764",
    "humidity": 66.75,
    "PM10": 42.56,
    "PM2n5": 13.64,
    "Pressure": 1000,
    "Temperature": 15,
    "AirQualityIndex": 181.4
  },
  {
    "id": "SAVEDNIPRO_13537",
    "cityName": "Kyiv",
    "stationName": "prospekt Beresteiskyi, 67",
    "localName": "",
    "latitude": "50.458610",
    "longitude": "30.410043",
    "humidity": 34.15,
    "PM10": 28.31,
    "PM2n5": 7.32,
    "Pressure": 986,
    "Temperature": 16,
    "AirQualityIndex": 55.18
  },
  {
    "id": "SAVEDNIPRO_13538",
    "cityName": "Dnipro",
    "stationName": "Street Zooparkova",
    "localName": "",
    "latitude": "48.473475",
    "longitude": "35.195720",
    "humidity": 25.49,
    "PM10": 39.85,
    "PM2n5": 9.91,
    "Pressure": 1003,
    "Temperature": 16,
    "AirQualityIndex": 194.27
  },
  {
    "id": "SAVEDNIPRO_13539",
    "cityName": "Zhovkva",
    "stationName": "Street Kyivska",
    "localName": "",
    "latitude": "50.054100",
    "longitude": "23.956800",
    "humidity": 49.38,
    "PM10": 27.84,
    "PM2n5": 7.52,
    "Pressure": 1003,
    "Temperature": 13,
    "AirQualityIndex": 40.97
  },
  {
    "id": "SAVEDNIPRO_13540",
    "cityName": "Kyiv",
    "stationName": "Street Levitana, 3",
    "localName": "",
    "latitude": "50.375516",
    "longitude": "30.541971",
    "humidity": 34.09,
    "PM10": 30.77,
    "PM2n5": 7.28,
    "Pressure": 1011,
    "Temperature": 18,
    "AirQualityIndex": 9.53
  },
  {
    "id": "SAVEDNIPRO_13710",
    "cityName": "Vyshenky",
    "stationName": "Zoloche-Provans, 1",
    "localName": "",
    "latitude": "50.299113",
    "longitude": "30.703047",
    "humidity": 35.45,
    "PM10": 55.42,
    "PM2n5": 14.08,
    "Pressure": 993,
    "Temperature": 20,
    "AirQualityIndex": 87.15
  },
  {
    "id": "SAVEDNIPRO_13711",
    "cityName": "Petrushky",
    "stationName": "Sadivnytske Tovarystvo \"Yuryst\"",
    "localName": "",
    "latitude": "50.4073682",
    "longitude": "30.1595883",
    "humidity": 69.42,
    "PM10": 76.24,
    "PM2n5": 12.95,
    "Pressure": 1014,
    "Temperature": 18,
    "AirQualityIndex": 86.17
  },
  {
    "id": "SAVEDNIPRO_13715",
    "cityName": "Zvenyhorodka",
    "stationName": "Street Viacheslava Chornovola, 40",
    "localName": "",
    "latitude": "49.0768671",
    "longitude": "30.9639523",
    "humidity": 53.27,
    "PM10": 74.73,
    "PM2n5": 13.58,
    "Pressure": 1007,
    "Temperature": 16,
    "AirQualityIndex": 52.36
  },
  {
    "id": "SAVEDNIPRO_13965",
    "cityName": "Kyiv",
    "stationName": "prospekt Akademika Hlushkova, 1P30",
    "localName": "",
    "latitude": "50.3774076",
    "longitude": "30.4815071",
    "humidity": 59.14,
    "PM10": 64.82,
    "PM2n5": 11.38,
    "Pressure": 983,
    "Temperature": 18,
    "AirQualityIndex": 112.63
  },
  {
    "id": "SAVEDNIPRO_14712",
    "cityName": "Mykolaivka",
    "stationName": "Street Henerala Pushkina, 45",
    "localName": "",
    "latitude": "48.362656",
    "longitude": "34.703311",
    "humidity": 47.97,
    "PM10": 39.04,
    "PM2n5": 18.05,
    "Pressure": 988,
    "Temperature": 12,
    "AirQualityIndex": 194.88
  },
  {
    "id": "SAVEDNIPRO_14713",
    "cityName": "Cherkasy",
    "stationName": "provulok Sichovyi, 17",
    "localName": "",
    "latitude": "49.428755",
    "longitude": "32.066555",
    "humidity": 53.88,
    "PM10": 61.25,
    "PM2n5": 19.12,
    "Pressure": 1014,
    "Temperature": 17,
    "AirQualityIndex": 139.04
  },
  {
    "id": "SAVEDNIPRO_14714",
    "cityName": "Dnipro",
    "stationName": "Street Naberezhna Zavodska, 44",
    "localName": "",
    "latitude": "48.490444",
    "longitude": "34.985071",
    "humidity": 32.41,
    "PM10": 19.9,
    "PM2n5": 12.52,
    "Pressure": 996,
    "Temperature": 18,
    "AirQualityIndex": 51.61
  },
  {
    "id": "SAVEDNIPRO_14758",
    "cityName": "Zaporizhzhia",
    "stationName": "Street Nezalezhnoi Ukrainy, 68A",
    "localName": "",
    "latitude": "47.847054111908996",
    "longitude": "35.12933723683439",
    "humidity": 25.43,
    "PM10": 30.75,
    "PM2n5": 18.59,
    "Pressure": 1001,
    "Temperature": 12,
    "AirQualityIndex": 137.17
  },
  {
    "id": "SAVEDNIPRO_15702",
    "cityName": "Kluziv",
    "stationName": "Street Spilna",
    "localName": "",
    "latitude": "48.954444",
    "longitude": "24.715858",
    "humidity": 59.48,
    "PM10": 47.97,
    "PM2n5": 15.11,
    "Pressure": 999,
    "Temperature": 13,
    "AirQualityIndex": 118.59
  },
  {
    "id": "SAVEDNIPRO_15703",
    "cityName": "Kruhlyk",
    "stationName": "Street Teremkivska, 10",
    "localName": "",
    "latitude": "50.306289",
    "longitude": "30.420185",
    "humidity": 39.2,
    "PM10": 60.95,
    "PM2n5": 19.22,
    "Pressure": 1004,
    "Temperature": 12,
    "AirQualityIndex": 71.64
  },
  {
    "id": "SAVEDNIPRO_15705",
    "cityName": "Kharkiv",
    "stationName": "Street Valentynivska, 24A",
    "localName": "",
    "latitude": "50.012753",
    "longitude": "36.334998",
    "humidity": 44.16,
    "PM10": 68.4,
    "PM2n5": 6.71,
    "Pressure": 986,
    "Temperature": 20,
    "AirQualityIndex": 83.44
  },
  {
    "id": "SAVEDNIPRO_15712",
    "cityName": "Stari Petrivtsi",
    "stationName": "vul. Dachna",
    "localName": "",
    "latitude": "50.642541",
    "longitude": "30.432218",
    "humidity": 70.43,
    "PM10": 53.23,
    "PM2n5": 16.94,
    "Pressure": 1004,
    "Temperature": 20,
    "AirQualityIndex": 159.69
  },
  {
    "id": "SAVEDNIPRO_16860",
    "cityName": "Sievierodonetsk",
    "stationName": "75-y mykroraion",
    "localName": "",
    "latitude": "48.946746",
    "longitude": "38.524948",
    "humidity": 33.48,
    "PM10": 48.73,
    "PM2n5": 10.17,
    "Pressure": 993,
    "Temperature": 20,
    "AirQualityIndex": 136.25
  },
  {
    "id": "SAVEDNIPRO_16862",
    "cityName": "Khotiv",
    "stationName": "vul. Partyzanska, 1A",
    "localName": "",
    "latitude": "50.326409",
    "longitude": "30.470360",
    "humidity": 72.49,
    "PM10": 58.72,
    "PM2n5": 5.64,
    "Pressure": 983,
    "Temperature": 19,
    "AirQualityIndex": 9.97
  },
  {
    "id": "SAVEDNIPRO_17448",
    "cityName": "Dnipro",
    "stationName": "Street Vykonkomivska, 24B",
    "localName": "",
    "latitude": "48.456973",
    "longitude": "35.047031",
    "humidity": 63.35,
    "PM10": 71.77,
    "PM2n5": 10.03,
    "Pressure": 1016,
    "Temperature": 16,
    "AirQualityIndex": 70.35
  },
  {
    "id": "SAVEDNIPRO_17802",
    "cityName": "Nikopol",
    "stationName": "Street Dovhalivska",
    "localName": "",
    "latitude": "47.576907",
    "longitude": "34.459222",
    "humidity": 57.75,
    "PM10": 58.68,
    "PM2n5": 18.21,
    "Pressure": 1017,
    "Temperature": 14,
    "AirQualityIndex": 83.29
  },
  {
    "id": "SAVEDNIPRO_17817",
    "cityName": "Nizhyn",
    "stationName": "Street Syniakivska, 96",
    "localName": "",
    "latitude": "51.037223",
    "longitude": "31.876354",
    "humidity": 55.44,
    "PM10": 20.14,
    "PM2n5": 12.92,
    "Pressure": 987,
    "Temperature": 18,
    "AirQualityIndex": 24.13
  },
  {
    "id": "SAVEDNIPRO_17865",
    "cityName": "Kolomyia",
    "stationName": "Street Hnata Kovtsuniaka, 2",
    "localName": "",
    "latitude": "48.535159",
    "longitude": "25.034321",
    "humidity": 61.24,
    "PM10": 22.8,
    "PM2n5": 7.75,
    "Pressure": 1003,
    "Temperature": 17,
    "AirQualityIndex": 16.7
  },
  {
    "id": "SAVEDNIPRO_17895",
    "cityName": "Odesa",
    "stationName": "Street Akademika Korolova, 81",
    "localName": "",
    "latitude": "46.387139",
    "longitude": "30.723278",
    "humidity": 53.58,
    "PM10": 31.54,
    "PM2n5": 13.77,
    "Pressure": 996,
    "Temperature": 12,
    "AirQualityIndex": 99.04
  },
  {
    "id": "SAVEDNIPRO_17896",
    "cityName": "Vyshhorod",
    "stationName": "Street Sholudenka, 24",
    "localName": "",
    "latitude": "50.597002",
    "longitude": "30.465978",
    "humidity": 41.42,
    "PM10": 38.98,
    "PM2n5": 18.66,
    "Pressure": 1020,
    "Temperature": 13,
    "AirQualityIndex": 76.75
  },
  {
    "id": "SAVEDNIPRO_18420",
    "cityName": "Berezhany",
    "stationName": "ploshcha Rynok",
    "localName": "",
    "latitude": "49.445221",
    "longitude": "24.938534",
    "humidity": 74.87,
    "PM10": 66.12,
    "PM2n5": 6.33,
    "Pressure": 1013,
    "Temperature": 16,
    "AirQualityIndex": 163.12
  },
  {
    "id": "SAVEDNIPRO_18511",
    "cityName": "Kherson",
    "stationName": "Beryslavske shose, 12A",
    "localName": "",
    "latitude": "46.665987",
    "longitude": "32.635329",
    "humidity": 66.16,
    "PM10": 57.7,
    "PM2n5": 17.64,
    "Pressure": 985,
    "Temperature": 14,
    "AirQualityIndex": 154.45
  },
  {
    "id": "SAVEDNIPRO_18729",
    "cityName": "Mala Oleksandrivka",
    "stationName": "Street Molodizhna, 12",
    "localName": "",
    "latitude": "47.2973894",
    "longitude": "33.2816014",
    "humidity": 47.57,
    "PM10": 70.8,
    "PM2n5": 14.99,
    "Pressure": 997,
    "Temperature": 17,
    "AirQualityIndex": 135.87
  },
  {
    "id": "SAVEDNIPRO_18736",
    "cityName": "Mykolaivka",
    "stationName": "Sadivnytske Tovarystvo \"Mekhanik\"",
    "localName": "",
    "latitude": "50.449945",
    "longitude": "30.016305",
    "humidity": 53.86,
    "PM10": 38.1,
    "PM2n5": 6.49,
    "Pressure": 1010,
    "Temperature": 18,
    "AirQualityIndex": 134.11
  },
  {
    "id": "SAVEDNIPRO_18802",
    "cityName": "Kyiv",
    "stationName": "prospekt Beresteiskyi, 30",
    "localName": "",
    "latitude": "50.452248",
    "longitude": "30.464829",
    "humidity": 61.52,
    "PM10": 37.63,
    "PM2n5": 3.03,
    "Pressure": 1004,
    "Temperature": 20,
    "AirQualityIndex": 94.7
  },
  {
    "id": "SAVEDNIPRO_18986",
    "cityName": "Dolishnii Luzhok",
    "stationName": "Dolishnoluzhetska SZSh Drohobytskoi miskoi rady",
    "localName": "",
    "latitude": "49.455202",
    "longitude": "23.377091",
    "humidity": 47.22,
    "PM10": 10.41,
    "PM2n5": 13.5,
    "Pressure": 1008,
    "Temperature": 12,
    "AirQualityIndex": 124.62
  },
  {
    "id": "SAVEDNIPRO_19014",
    "cityName": "Dniprorudne",
    "stationName": "Street Heroiv pratsi, 7",
    "localName": "",
    "latitude": "47.385610",
    "longitude": "35.000290",
    "humidity": 39.88,
    "PM10": 63.91,
    "PM2n5": 14.89,
    "Pressure": 981,
    "Temperature": 18,
    "AirQualityIndex": 173.17
  },
  {
    "id": "SAVEDNIPRO_19101",
    "cityName": "Novyi Buh",
    "stationName": "Street Shepelia",
    "localName": "",
    "latitude": "47.6801522",
    "longitude": "32.5082539",
    "humidity": 49.13,
    "PM10": 40.3,
    "PM2n5": 5.55,
    "Pressure": 999,
    "Temperature": 14,
    "AirQualityIndex": 189.66
  },
  {
    "id": "SAVEDNIPRO_19104",
    "cityName": "Kyiv",
    "stationName": "prospekt Peremohy, 30",
    "localName": "",
    "latitude": "50.452174",
    "longitude": "30.464789",
    "humidity": 57.41,
    "PM10": 7.28,
    "PM2n5": 13.22,
    "Pressure": 981,
    "Temperature": 12,
    "AirQualityIndex": 185.94
  },
  {
    "id": "SAVEDNIPRO_19108",
    "cityName": "Vita-Poshtova",
    "stationName": "Britannica School",
    "localName": "",
    "latitude": "50.333593",
    "longitude": "30.351063",
    "humidity": 62.15,
    "PM10": 6.65,
    "PM2n5": 5.13,
    "Pressure": 1008,
    "Temperature": 17,
    "AirQualityIndex": 150.15
  },
  {
    "id": "SAVEDNIPRO_19116",
    "cityName": "Kyiv",
    "stationName": "Street Lysychanska, 35",
    "localName": "",
    "latitude": "50.411976",
    "longitude": "30.496778",
    "humidity": 68.11,
    "PM10": 11.52,
    "PM2n5": 9.93,
    "Pressure": 1020,
    "Temperature": 16,
    "AirQualityIndex": 173.38
  },
  {
    "id": "SAVEDNIPRO_19117",
    "cityName": "Zaporizhzhia",
    "stationName": "Street Patorzhynskoho",
    "localName": "",
    "latitude": "47.8689649",
    "longitude": "35.2297073",
    "humidity": 35.44,
    "PM10": 29.45,
    "PM2n5": 14.13,
    "Pressure": 982,
    "Temperature": 17,
    "AirQualityIndex": 107.87
  },
  {
    "id": "SAVEDNIPRO_19179",
    "cityName": "Mariupol",
    "stationName": "Street Novorosiisiiska, 12",
    "localName": "",
    "latitude": "47.067450",
    "longitude": "37.485584",
    "humidity": 33.71,
    "PM10": 54.18,
    "PM2n5": 4.33,
    "Pressure": 997,
    "Temperature": 12,
    "AirQualityIndex": 32.76
  },
  {
    "id": "SAVEDNIPRO_19246",
    "cityName": "Hrushkivtsi",
    "stationName": "Street Peremohy, 32",
    "localName": "",
    "latitude": "49.51477",
    "longitude": "28.44255",
    "humidity": 34.51,
    "PM10": 42.95,
    "PM2n5": 4.83,
    "Pressure": 992,
    "Temperature": 17,
    "AirQualityIndex": 32.7
  },
  {
    "id": "SAVEDNIPRO_19298",
    "cityName": "Chornobai",
    "stationName": "provulok Slynka, 4",
    "localName": "",
    "latitude": "49.666631",
    "longitude": "32.325405",
    "humidity": 56.39,
    "PM10": 19.03,
    "PM2n5": 12.48,
    "Pressure": 1019,
    "Temperature": 13,
    "AirQualityIndex": 197.04
  },
  {
    "id": "SAVEDNIPRO_19301",
    "cityName": "Klavdiievo-Tarasove",
    "stationName": "Street Shevchenko, 99",
    "localName": "",
    "latitude": "50.583284162702796",
    "longitude": "29.991048352270333",
    "humidity": 53.21,
    "PM10": 47.88,
    "PM2n5": 7.77,
    "Pressure": 1004,
    "Temperature": 18,
    "AirQualityIndex": 28.35
  },
  {
    "id": "SAVEDNIPRO_19306",
    "cityName": "Katerynivka",
    "stationName": "Street Tsentralna, 32A",
    "localName": "",
    "latitude": "47.876249",
    "longitude": "37.344970",
    "humidity": 43.52,
    "PM10": 7.12,
    "PM2n5": 10.26,
    "Pressure": 985,
    "Temperature": 20,
    "AirQualityIndex": 142.92
  },
  {
    "id": "SAVEDNIPRO_19320",
    "cityName": "Novohrodivka",
    "stationName": "Street Parkova, 30",
    "localName": "",
    "latitude": "48.202876",
    "longitude": "37.341606",
    "humidity": 50.19,
    "PM10": 51.68,
    "PM2n5": 11.36,
    "Pressure": 993,
    "Temperature": 18,
    "AirQualityIndex": 168.8
  },
  {
    "id": "SAVEDNIPRO_19387",
    "cityName": "Bereznehuvatske",
    "stationName": "Street Shkolna, 34",
    "localName": "",
    "latitude": "47.747778",
    "longitude": "32.279167",
    "humidity": 38.87,
    "PM10": 64.38,
    "PM2n5": 18.55,
    "Pressure": 1008,
    "Temperature": 12,
    "AirQualityIndex": 188.48
  },
  {
    "id": "SAVEDNIPRO_19454",
    "cityName": "Pavlohrad",
    "stationName": "Street Ozerna, 87",
    "localName": "",
    "latitude": "48.536410",
    "longitude": "35.866605",
    "humidity": 49.08,
    "PM10": 51.21,
    "PM2n5": 9.08,
    "Pressure": 1003,
    "Temperature": 13,
    "AirQualityIndex": 177.21
  },
  {
    "id": "SAVEDNIPRO_19476",
    "cityName": "Zymne",
    "stationName": "Street Myru",
    "localName": "",
    "latitude": "50.799637",
    "longitude": "24.327239",
    "humidity": 41.21,
    "PM10": 26.98,
    "PM2n5": 10.03,
    "Pressure": 1019,
    "Temperature": 12,
    "AirQualityIndex": 95.62
  },
  {
    "id": "SAVEDNIPRO_19477",
    "cityName": "Novopokrovka",
    "stationName": "Street Molodizhna, 1",
    "localName": "",
    "latitude": "48.057804",
    "longitude": "34.606344",
    "humidity": 42.71,
    "PM10": 66.92,
    "PM2n5": 16.04,
    "Pressure": 1019,
    "Temperature": 12,
    "AirQualityIndex": 108.36
  },
  {
    "id": "SAVEDNIPRO_19684",
    "cityName": "Rakiv Lis",
    "stationName": "Street Shkilna, 4",
    "localName": "",
    "latitude": "51.621694",
    "longitude": "24.921318",
    "humidity": 60.99,
    "PM10": 35.29,
    "PM2n5": 19.76,
    "Pressure": 1019,
    "Temperature": 12,
    "AirQualityIndex": 143.37
  },
  {
    "id": "SAVEDNIPRO_19708",
    "cityName": "Sumy",
    "stationName": "Street Berezova, 28",
    "localName": "",
    "latitude": "50.940911",
    "longitude": "34.746837",
    "humidity": 47.12,
    "PM10": 8.39,
    "PM2n5": 15.92,
    "Pressure": 1010,
    "Temperature": 14,
    "AirQualityIndex": 46.01
  },
  {
    "id": "SAVEDNIPRO_19810",
    "cityName": "Sumy",
    "stationName": "Street Zasumska, 3",
    "localName": "",
    "latitude": "50.9119348",
    "longitude": "34.7949552",
    "humidity": 50.39,
    "PM10": 19.03,
    "PM2n5": 15.23,
    "Pressure": 983,
    "Temperature": 14,
    "AirQualityIndex": 192.4
  },
  {
    "id": "SAVEDNIPRO_19997",
    "cityName": "Velyki Viknyny",
    "stationName": "Velykoviknynska zahalnoosvitnia shkola I-IIIstupeniv",
    "localName": "",
    "latitude": "49.929920",
    "longitude": "25.868925",
    "humidity": 39.33,
    "PM10": 30.13,
    "PM2n5": 15.69,
    "Pressure": 995,
    "Temperature": 19,
    "AirQualityIndex": 63.83
  },
  {
    "id": "SAVEDNIPRO_20013",
    "cityName": "Pustomyty",
    "stationName": "Street Darii Diachenko, 17",
    "localName": "",
    "latitude": "49.718539",
    "longitude": "23.912361",
    "humidity": 41.55,
    "PM10": 55.47,
    "PM2n5": 13.89,
    "Pressure": 1007,
    "Temperature": 12,
    "AirQualityIndex": 25.66
  },
  {
    "id": "SAVEDNIPRO_20060",
    "cityName": "Korosten",
    "stationName": "Street Mykhaila Hrushevskoho, 22/1",
    "localName": "",
    "latitude": "50.949312",
    "longitude": "28.642018",
    "humidity": 49.3,
    "PM10": 42.37,
    "PM2n5": 12.48,
    "Pressure": 984,
    "Temperature": 18,
    "AirQualityIndex": 1.78
  },
  {
    "id": "SAVEDNIPRO_20061",
    "cityName": "Kazanka",
    "stationName": "Street Myru, 208",
    "localName": "",
    "latitude": "47.831669",
    "longitude": "32.830301",
    "humidity": 44.16,
    "PM10": 37.04,
    "PM2n5": 19.09,
    "Pressure": 982,
    "Temperature": 15,
    "AirQualityIndex": 193.22
  },
  {
    "id": "SAVEDNIPRO_20081",
    "cityName": "Yuzhnoukrainsk",
    "stationName": "Street Parkova, 5",
    "localName": "",
    "latitude": "47.815861",
    "longitude": "31.189776",
    "humidity": 39.11,
    "PM10": 65.98,
    "PM2n5": 4.52,
    "Pressure": 1003,
    "Temperature": 19,
    "AirQualityIndex": 183.85
  },
  {
    "id": "SAVEDNIPRO_20084",
    "cityName": "Kyiv",
    "stationName": "Street Heroiv Dnipra, 1",
    "localName": "",
    "latitude": "50.518246",
    "longitude": "30.486426",
    "humidity": 45.77,
    "PM10": 69.01,
    "PM2n5": 14.62,
    "Pressure": 999,
    "Temperature": 20,
    "AirQualityIndex": 76.39
  },
  {
    "id": "SAVEDNIPRO_20086",
    "cityName": "Khmilnyk",
    "stationName": "prospekt Svobody, 12",
    "localName": "",
    "latitude": "49.555501",
    "longitude": "27.952070",
    "humidity": 29.19,
    "PM10": 59.68,
    "PM2n5": 3.42,
    "Pressure": 1012,
    "Temperature": 16,
    "AirQualityIndex": 169.7
  },
  {
    "id": "SAVEDNIPRO_20088",
    "cityName": "Volodymyr",
    "stationName": "Street Danyla Halytskoho, 5",
    "localName": "",
    "latitude": "50.845376",
    "longitude": "24.319157",
    "humidity": 62.37,
    "PM10": 12.81,
    "PM2n5": 11.68,
    "Pressure": 998,
    "Temperature": 15,
    "AirQualityIndex": 73.48
  },
  {
    "id": "SAVEDNIPRO_20091",
    "cityName": "Kiliia",
    "stationName": "Street Myru",
    "localName": "",
    "latitude": "45.444840",
    "longitude": "29.264418",
    "humidity": 64.91,
    "PM10": 10.85,
    "PM2n5": 8.01,
    "Pressure": 1005,
    "Temperature": 12,
    "AirQualityIndex": 47.74
  },
  {
    "id": "SAVEDNIPRO_20095",
    "cityName": "Verkhivtseve",
    "stationName": "2-y provulok Pylypa Orlyka, 23",
    "localName": "",
    "latitude": "48.478732",
    "longitude": "34.225964",
    "humidity": 25.12,
    "PM10": 7.19,
    "PM2n5": 16.86,
    "Pressure": 982,
    "Temperature": 12,
    "AirQualityIndex": 161.2
  },
  {
    "id": "SAVEDNIPRO_20103",
    "cityName": "Zinkiv",
    "stationName": "Street Vozdvyzhenska, 40",
    "localName": "",
    "latitude": "50.209194",
    "longitude": "34.358694",
    "humidity": 43.84,
    "PM10": 76.27,
    "PM2n5": 5.17,
    "Pressure": 1012,
    "Temperature": 17,
    "AirQualityIndex": 2.19
  },
  {
    "id": "SAVEDNIPRO_20104",
    "cityName": "Lyshnia",
    "stationName": "Street Soniachna, 169",
    "localName": "",
    "latitude": "50.315879",
    "longitude": "29.962585",
    "humidity": 69.23,
    "PM10": 49.57,
    "PM2n5": 17.74,
    "Pressure": 1018,
    "Temperature": 20,
    "AirQualityIndex": 15.65
  },
  {
    "id": "SAVEDNIPRO_20106",
    "cityName": "Stebnyk",
    "stationName": "Street Mazepy",
    "localName": "",
    "latitude": "49.296660",
    "longitude": "23.551930",
    "humidity": 54.21,
    "PM10": 59.46,
    "PM2n5": 7.07,
    "Pressure": 991,
    "Temperature": 14,
    "AirQualityIndex": 9.85
  },
  {
    "id": "SAVEDNIPRO_20107",
    "cityName": "Tairove",
    "stationName": "Street 40-richchia Peremohy, 55",
    "localName": "",
    "latitude": "46.362202",
    "longitude": "30.650345",
    "humidity": 50.41,
    "PM10": 11.08,
    "PM2n5": 16.19,
    "Pressure": 991,
    "Temperature": 15,
    "AirQualityIndex": 151.03
  },
  {
    "id": "SAVEDNIPRO_20121",
    "cityName": "Sumy",
    "stationName": "Street Kharkivska, 35",
    "localName": "",
    "latitude": "50.903766",
    "longitude": "34.817852",
    "humidity": 60.74,
    "PM10": 46.74,
    "PM2n5": 7.35,
    "Pressure": 994,
    "Temperature": 18,
    "AirQualityIndex": 73.78
  },
  {
    "id": "SAVEDNIPRO_20128",
    "cityName": "Kolomyia",
    "stationName": "prospekt Viacheslava Chornovola, 45",
    "localName": "",
    "latitude": "48.529049",
    "longitude": "25.039789",
    "humidity": 67.98,
    "PM10": 75.3,
    "PM2n5": 4.71,
    "Pressure": 999,
    "Temperature": 14,
    "AirQualityIndex": 34.69
  },
  {
    "id": "SAVEDNIPRO_20131",
    "cityName": "Bobrovytsia",
    "stationName": "Street Nezalezhnosti, 46",
    "localName": "",
    "latitude": "50.741897",
    "longitude": "31.384233",
    "humidity": 36.54,
    "PM10": 70.17,
    "PM2n5": 3.83,
    "Pressure": 981,
    "Temperature": 15,
    "AirQualityIndex": 198.5
  },
  {
    "id": "SAVEDNIPRO_20296",
    "cityName": "Varash",
    "stationName": "mikroraion Peremohy, 8",
    "localName": "",
    "latitude": "51.351281",
    "longitude": "25.850776",
    "humidity": 55.6,
    "PM10": 43.92,
    "PM2n5": 16.93,
    "Pressure": 990,
    "Temperature": 20,
    "AirQualityIndex": 88.63
  },
  {
    "id": "SAVEDNIPRO_21957",
    "cityName": "Stryzhavka",
    "stationName": "Street 40-richchia Peremohy, 7",
    "localName": "",
    "latitude": "49.309646",
    "longitude": "28.472136",
    "humidity": 69.15,
    "PM10": 64.44,
    "PM2n5": 13.02,
    "Pressure": 1010,
    "Temperature": 15,
    "AirQualityIndex": 133.84
  },
  {
    "id": "SAVEDNIPRO_21958",
    "cityName": "Nebelytsia",
    "stationName": "Street Myru, 11",
    "localName": "",
    "latitude": "50.412212",
    "longitude": "29.605634",
    "humidity": 42.48,
    "PM10": 75.04,
    "PM2n5": 3.79,
    "Pressure": 999,
    "Temperature": 12,
    "AirQualityIndex": 11.75
  },