[
  {
    "id": "SAVEDNIPRO_001",
    "cityName": "Dnipro",
    "stationName": "Geroev Avenue, 40",
    "localName": "Save Dnipro #1",
    "latitude": "48.408944",
    "longitude": "35.072505",
    "humidity": 47.03,
    "PM10": 26.99,
    "PM2n5": 10.8,
    "Pressure": 1003,
    "Temperature": 8,
    "AirQualityIndex": 130.08,
    "localId": 0
  },
  {
    "id": "SAVEDNIPRO_002",
    "cityName": "Dnipro",
    "stationName": "Pershogo Travnya Street, 7",
    "localName": "Save Dnipro #5",
    "latitude": "48.418962",
    "longitude": "35.009254",
    "humidity": 46.27,
    "PM10": 43.87,
    "PM2n5": 8.48,
    "Pressure": 1003,
    "Temperature": 9,
    "AirQualityIndex": 110.35,
    "localId": 1
  },
  {
    "id": "SAVEDNIPRO_003",
    "cityName": "Dnipro",
    "stationName": "Ulyanova Street, 26",
    "localName": "Save Dnipro #3",
    "latitude": "48.46179",
    "longitude": "35.022893",
    "humidity": 58.36,
    "PM10": 51.59,
    "PM2n5": 7.88,
    "Pressure": 1020,
    "Temperature": 11,
    "AirQualityIndex": 6.18,
    "localId": 2
  },
  {
    "id": "SAVEDNIPRO_004",
    "cityName": "Dnipro",
    "stationName": "Novokrymskaya Street, 1",
    "localName": "Save Dnipro #2",
    "latitude": "48.428476",
    "longitude": "35.010238",
    "humidity": 70.23,
    "PM10": 40.46,
    "PM2n5": 6.27,
    "Pressure": 1000,
    "Temperature": 6,
    "AirQualityIndex": 4.33,
    "localId": 3
  },
  {
    "id": "SAVEDNIPRO_006",
    "cityName": "Dnipro",
    "stationName": "Pryberezhna Street, 49",
    "localName": "Save Dnipro #4",
    "latitude": "48.405856",
    "longitude": "35.145451",
    "humidity": 63.5,
    "PM10": 49.18,
    "PM2n5": 4.16,
    "Pressure": 1018,
    "Temperature": 8,
    "AirQualityIndex": 60.09,
    "localId": 4
  },
  {
    "id": "SAVEDNIPRO_007",
    "cityName": "Dnipro",
    "stationName": "Dmytra Yavornytskoho Avenue, 60",
    "localName": "Save Dnipro #9",
    "latitude": "48.467467",
    "longitude": "35.041472",
    "humidity": 28.27,
    "PM10": 48.38,
    "PM2n5": 18.6,
    "Pressure": 996,
    "Temperature": 11,
    "AirQualityIndex": 78.73,
    "localId": 5
  },
  {
    "id": "SAVEDNIPRO_008",
    "cityName": "Dnipro",
    "stationName": "Haharina Avenue, 43",
    "localName": "Save Dnipro #10",
    "latitude": "48.448030",
    "longitude": "35.058606",
    "humidity": 40.68,
    "PM10": 10.48,
    "PM2n5": 5.22,
    "Pressure": 1006,
    "Temperature": 6,
    "AirQualityIndex": 114.47,
    "localId": 6
  },
  {
    "id": "SAVEDNIPRO_009",
    "cityName": "Dnipro",
    "stationName": "Kalynova Street, 49",
    "localName": "Save Dnipro #11",
    "latitude": "48.513536",
    "longitude": "35.062787",
    "humidity": 71.52,
    "PM10": 40.79,
    "PM2n5": 18.27,
    "Pressure": 1020,
    "Temperature": 7,
    "AirQualityIndex": 37.18,
    "localId": 7
  },
  {
    "id": "SAVEDNIPRO_014",
    "cityName": "Dnipro",
    "stationName": "Vokzalna Square, 2",
    "localName": "Save Dnipro #19",
    "latitude": "48.475959",
    "longitude": "35.016979",
    "humidity": 55.67,
    "PM10": 4.18,
    "PM2n5": 2.28,
    "Pressure": 990,
    "Temperature": 11,
    "AirQualityIndex": 182.08,
    "localId": 8
  },
  {
    "id": "SAVEDNIPRO_015",
    "cityName": "Dnipro",
    "stationName": "Pavla Nirinberha Street, 4-6",
    "localName": "Save Dnipro #30",
    "latitude": "48.467926",
    "longitude": "35.055617",
    "humidity": 52.71,
    "PM10": 78.31,
    "PM2n5": 6.18,
    "Pressure": 984,
    "Temperature": 10,
    "AirQualityIndex": 158.89,
    "localId": 9
  },
  {
    "id": "SAVEDNIPRO_016",
    "cityName": "Dnipro",
    "stationName": "Street Shoduarivska, 5",
    "localName": "Save Dnipro #25",
    "latitude": "48.484034",
    "longitude": "34.936086",
    "humidity": 71.41,
    "PM10": 22.71,
    "PM2n5": 2.21,
    "Pressure": 1008,
    "Temperature": 6,
    "AirQualityIndex": 37.39,
    "localId": 10
  },
  {
    "id": "SAVEDNIPRO_018",
    "cityName": "Dnipro",
    "stationName": "Beregova Street, 29",
    "localName": "Save Dnipro #26",
    "latitude": "48.501095",
    "longitude": "34.990169",
    "humidity": 43.15,
    "PM10": 21.51,
    "PM2n5": 5.42,
    "Pressure": 1009,
    "Temperature": 8,
    "AirQualityIndex": 56.98,
    "localId": 11
  },
  {
    "id": "SAVEDNIPRO_023",
    "cityName": "Dnipro",
    "stationName": "Shyroka Street, 173",
    "localName": "Save Dnipro #32",
    "latitude": "48.518050",
    "longitude": "34.964451",
    "humidity": 31.85,
    "PM10": 47.16,
    "PM2n5": 1.45,
    "Pressure": 1010,
    "Temperature": 11,
    "AirQualityIndex": 13.61,
    "localId": 12
  },
  {
    "id": "SAVEDNIPRO_024",
    "cityName": "Sursko-Lytovske",
    "stationName": "50 Rokiv Peremogy Street",
    "localName": "Save Dnipro #28",
    "latitude": "48.350994",
    "longitude": "34.946876",
    "humidity": 43.38,
    "PM10": 9.94,
    "PM2n5": 1.72,
    "Pressure": 1009,
    "Temperature": 7,
    "AirQualityIndex": 123,
    "localId": 13
  },
  {
    "id": "SAVEDNIPRO_025",
    "cityName": "Dnipro",
    "stationName": "Street Barykadna, 21",
    "localName": "",
    "latitude": "48.463293",
    "longitude": "35.056401",
    "humidity": 38.98,
    "PM10": 45.02,
    "PM2n5": 4.46,
    "Pressure": 996,
    "Temperature": 6,
    "AirQualityIndex": 1.72,
    "localId": 14
  },
  {
    "id": "SAVEDNIPRO_032",
    "cityName": "Dnipro",
    "stationName": "Slavy Boulevard, 11",
    "localName": "Save Dnipro #22",
    "latitude": "48.4119490",
    "longitude": "35.0697377",
    "humidity": 46.32,
    "PM10": 46.7,
    "PM2n5": 14.27,
    "Pressure": 1002,
    "Temperature": 9,
    "AirQualityIndex": 143.62,
    "localId": 15
  },
  {
    "id": "SAVEDNIPRO_035",
    "cityName": "Novooleksandrivka",
    "stationName": "Televiziyna \r\n Street / Arendnyy Lane",
    "localName": "Save Dnipro #17",
    "latitude": "48.343889",
    "longitude": "35.015000",
    "humidity": 47.74,
    "PM10": 5.82,
    "PM2n5": 6.82,
    "Pressure": 1004,
    "Temperature": 10,
    "AirQualityIndex": 34.08,
    "localId": 16
  },
  {
    "id": "SAVEDNIPRO_075",
    "cityName": "Dnipro",
    "stationName": "Pavla Nirinberha Street, 10",
    "localName": "Save Dnipro #14",
    "latitude": "48.466150",
    "longitude": "35.055459",
    "humidity": 59.58,
    "PM10": 47.55,
    "PM2n5": 19.56,
    "Pressure": 1013,
    "Temperature": 5,
    "AirQualityIndex": 166.58,
    "localId": 17
  },
  {
    "id": "SAVEDNIPRO_090",
    "cityName": "Obukhivka",
    "stationName": "Dniprovs'ko-Oril's'kyy pryrodnyy zapovidnyk",
    "localName": "Save Dnipro #34",
    "latitude": "48.5339822",
    "longitude": "34.7914877",
    "humidity": 42.33,
    "PM10": 9.43,
    "PM2n5": 4.05,
    "Pressure": 988,
    "Temperature": 9,
    "AirQualityIndex": 195.71,
    "localId": 18
  },
  {
    "id": "SAVEDNIPRO_094",
    "cityName": "Kam'ianske",
    "stationName": "Heroiv Boulevard, 38",
    "localName": "Save Dnipro #34",
    "latitude": "48.607373",
    "longitude": "34.570512",
    "humidity": 67.16,
    "PM10": 74.71,
    "PM2n5": 2.01,
    "Pressure": 1019,
    "Temperature": 5,
    "AirQualityIndex": 104.32,
    "localId": 19
  },
  {
    "id": "SAVEDNIPRO_095",
    "cityName": "Dnipro",
    "stationName": "Velyka Diivska Street, 4",
    "localName": "Save Dnipro #53",
    "latitude": "48.480519",
    "longitude": "34.934133",
    "humidity": 29.02,
    "PM10": 24.48,
    "PM2n5": 17.79,
    "Pressure": 1013,
    "Temperature": 9,
    "AirQualityIndex": 117.9,
    "localId": 20
  },
  {
    "id": "SAVEDNIPRO_096",
    "cityName": "Dnipro",
    "stationName": "Hoholya Street, 10",
    "localName": "Save Dnipro #36",
    "latitude": "48.458139",
    "longitude": "35.052214",
    "humidity": 38.04,
    "PM10": 21.87,
    "PM2n5": 14.28,
    "Pressure": 984,
    "Temperature": 6,
    "AirQualityIndex": 190.12,
    "localId": 21
  },
  {
    "id": "SAVEDNIPRO_097",
    "cityName": "Halych",
    "stationName": "Karaimska Street, 3",
    "localName": "Save Dnipro #39",
    "latitude": "49.125336",
    "longitude": "24.730753",
    "humidity": 39.65,
    "PM10": 53.19,
    "PM2n5": 7.46,
    "Pressure": 992,
    "Temperature": 8,
    "AirQualityIndex": 195.89,
    "localId": 22
  },
  {
    "id": "SAVEDNIPRO_101",
    "cityName": "Dnipro",
    "stationName": "Samarkandskyi provulok, 1",
    "localName": "Save Dnipro #40",
    "latitude": "48.4538103",
    "longitude": "35.0185786",
    "humidity": 32.23,
    "PM10": 73.89,
    "PM2n5": 1.06,
    "Pressure": 992,
    "Temperature": 7,
    "AirQualityIndex": 124.91,
    "localId": 23
  },
  {
    "id": "SAVEDNIPRO_102",
    "cityName": "Vilnohirsk",
    "stationName": "Molodizhna Street, 28",
    "localName": "Save Dnipro #49",
    "latitude": "48.480857",
    "longitude": "34.018492",
    "humidity": 45.63,
    "PM10": 59.07,
    "PM2n5": 7.96,
    "Pressure": 1020,
    "Temperature": 9,
    "AirQualityIndex": 34.92,
    "localId": 24
  },
  {
    "id": "SAVEDNIPRO_103",
    "cityName": "Dnipro",
    "stationName": "Topolia-2, 23",
    "localName": "Save Dnipro #38",
    "latitude": "48.391810",
    "longitude": "35.028813",
    "humidity": 54.07,
    "PM10": 32.79,
    "PM2n5": 7.93,
    "Pressure": 1008,
    "Temperature": 6,
    "AirQualityIndex": 102.1,
    "localId": 25
  },
  {
    "id": "SAVEDNIPRO_132",
    "cityName": "Dnipro",
    "stationName": "prospekt Serhiia Nihoiana, 57",
    "localName": "",
    "latitude": "48.476276",
    "longitude": "34.984768",
    "humidity": 53.54,
    "PM10": 29.2,
    "PM2n5": 2.45,
    "Pressure": 990,
    "Temperature": 11,
    "AirQualityIndex": 117.77,
    "localId": 26
  },
  {
    "id": "SAVEDNIPRO_136",
    "cityName": "Dnipro",
    "stationName": "Forest Park of Friendship of Peoples",
    "localName": "Save Dnipro #42",
    "latitude": "48.540300",
    "longitude": "35.092615",
    "humidity": 37.23,
    "PM10": 67,
    "PM2n5": 5.72,
    "Pressure": 982,
    "Temperature": 9,
    "AirQualityIndex": 68.14,
    "localId": 27
  },
  {
    "id": "SAVEDNIPRO_897",
    "cityName": "Novooleksandrivka",
    "stationName": "Surska Street, 74",
    "localName": "Save Dnipro #51",
    "latitude": "48.341841",
    "longitude": "35.005390",
    "humidity": 34.75,
    "PM10": 14.75,
    "PM2n5": 3.69,
    "Pressure": 980,
    "Temperature": 8,
    "AirQualityIndex": 175.82,
    "localId": 28
  },
  {
    "id": "SAVEDNIPRO_949",
    "cityName": "Zaporizhzhia",
    "stationName": "Street Haharina, 3",
    "localName": "Save Dnipro #48",
    "latitude": "47.8352753",
    "longitude": "35.1446249",
    "humidity": 54.5,
    "PM10": 77.73,
    "PM2n5": 4.83,
    "Pressure": 996,
    "Temperature": 6,
    "AirQualityIndex": 163.91,
    "localId": 29
  },
  {
    "id": "SAVEDNIPRO_997",
    "cityName": "Dnipro",
    "stationName": "Street Darnytska, 9",
    "localName": "",
    "latitude": "48.5052009",
    "longitude": "35.0718389",
    "humidity": 31.17,
    "PM10": 23.23,
    "PM2n5": 5.42,
    "Pressure": 991,
    "Temperature": 9,
    "AirQualityIndex": 52.4,
    "localId": 30
  },
  {
    "id": "SAVEDNIPRO_1000",
    "cityName": "Dnipro",
    "stationName": "Street Ivana Akinfiieva, 10",
    "localName": "Save Dnipro #55",
    "latitude": "48.460155",
    "longitude": "35.066821",
    "humidity": 39.99,
    "PM10": 19.73,
    "PM2n5": 11.27,
    "Pressure": 1014,
    "Temperature": 10,
    "AirQualityIndex": 190.91,
    "localId": 31
  },
  {
    "id": "SAVEDNIPRO_1001",
    "cityName": "Dnipro",
    "stationName": "Street Hladkova, 6",
    "localName": "",
    "latitude": "48.400802",
    "longitude": "35.001839",
    "humidity": 61.79,
    "PM10": 34.31,
    "PM2n5": 13.16,
    "Pressure": 986,
    "Temperature": 8,
    "AirQualityIndex": 36.36,
    "localId": 32
  },
  {
    "id": "SAVEDNIPRO_1002",
    "cityName": "Sursko-Klevtseve",
    "stationName": "",
    "localName": "Save Dnipro #56",
    "latitude": "48.312916",
    "longitude": "34.880235",
    "humidity": 48.22,
    "PM10": 23.12,
    "PM2n5": 12.87,
    "Pressure": 1008,
    "Temperature": 7,
    "AirQualityIndex": 167.62,
    "localId": 33
  },
  {
    "id": "SAVEDNIPRO_1004",
    "cityName": "Kyiv",
    "stationName": "Street Henerala Zhmachenka, 4",
    "localName": "Save Dnipro #58",
    "latitude": "50.458479",
    "longitude": "30.6079481",
    "humidity": 53.13,
    "PM10": 66.16,
    "PM2n5": 8.74,
    "Pressure": 1002,
    "Temperature": 11,
    "AirQualityIndex": 113.15,
    "localId": 34
  },
  {
    "id": "SAVEDNIPRO_1005",
    "cityName": "Dnipro",
    "stationName": "Street Serhiia Yefremova, 3A",
    "localName": "Save Dnipro #59",
    "latitude": "48.459042",
    "longitude": "35.058479",
    "humidity": 64.93,
    "PM10": 51.44,
    "PM2n5": 11.94,
    "Pressure": 1007,
    "Temperature": 6,
    "AirQualityIndex": 149.96,
    "localId": 35
  },
  {
    "id": "SAVEDNIPRO_1006",
    "cityName": "Kam'ianske",
    "stationName": "Street Yuriia Volkova, 10A",
    "localName": "Save Dnipro #60",
    "latitude": "48.509524",
    "longitude": "34.61578",
    "humidity": 34.34,
    "PM10": 68.11,
    "PM2n5": 14.38,
    "Pressure": 1014,
    "Temperature": 8,
    "AirQualityIndex": 47.47,
    "localId": 36
  },
  {
    "id": "SAVEDNIPRO_1007",
    "cityName": "Dnipro",
    "stationName": "prospekt Slobozhanskyi, 127A",
    "localName": "Save Dnipro #64",
    "latitude": "48.523936",
    "longitude": "35.0811455",
    "humidity": 41.53,
    "PM10": 7.7,
    "PM2n5": 1.59,
    "Pressure": 1016,
    "Temperature": 7,
    "AirQualityIndex": 82.65,
    "localId": 37
  },
  {
    "id": "SAVEDNIPRO_1008",
    "cityName": "Vinnytsia",
    "stationName": "Street Stetsenka, 75",
    "localName": "Save Dnipro #63",
    "latitude": "49.239341",
    "longitude": "28.479885",
    "humidity": 58.83,
    "PM10": 75.27,
    "PM2n5": 6.83,
    "Pressure": 985,
    "Temperature": 6,
    "AirQualityIndex": 5.25,
    "localId": 38
  },
  {
    "id": "SAVEDNIPRO_1009",
    "cityName": "Dnipro",
    "stationName": "Donetske shose, 121",
    "localName": "Save Dnipro #62",
    "latitude": "48.523444",
    "longitude": "35.023331",
    "humidity": 25.62,
    "PM10": 37.49,
    "PM2n5": 16.09,
    "Pressure": 1004,
    "Temperature": 9,
    "AirQualityIndex": 158.44,
    "localId": 39
  },
  {
    "id": "SAVEDNIPRO_1021",
    "cityName": "Dnipro",
    "stationName": "Street Semaforna, 30A",
    "localName": "Save Dnipro #61",
    "latitude": "48.489936",
    "longitude": "35.1337483",
    "humidity": 49.8,
    "PM10": 30.84,
    "PM2n5": 19.7,
    "Pressure": 1008,
    "Temperature": 11,
    "AirQualityIndex": 4.15,
    "localId": 40
  },
  {
    "id": "SAVEDNIPRO_1053",
    "cityName": "Dnipro",
    "stationName": "Yaroslavska Street, 12",
    "localName": "Save Dnipro #24",
    "latitude": "48.433796",
    "longitude": "35.030484",
    "humidity": 54.56,
    "PM10": 32.32,
    "PM2n5": 9.72,
    "Pressure": 1020,
    "Temperature": 8,
    "AirQualityIndex": 125,
    "localId": 41
  },
  {
    "id": "SAVEDNIPRO_1102",
    "cityName": "Sumy",
    "stationName": "",
    "localName": "Save Dnipro #73",
    "latitude": "50.896400",
    "longitude": "34.830288",
    "humidity": 67.87,
    "PM10": 14.1,
    "PM2n5": 5.57,
    "Pressure": 988,
    "Temperature": 11,
    "AirQualityIndex": 184.47,
    "localId": 42
  },
  {
    "id": "SAVEDNIPRO_1131",
    "cityName": "Zaporizhzhia",
    "stationName": "Tbiliska Street, 27A",
    "localName": "",
    "latitude": "47.83602089075",
    "longitude": "35.10648322033",
    "humidity": 67.86,
    "PM10": 25.17,
    "PM2n5": 4.69,
    "Pressure": 1005,
    "Temperature": 11,
    "AirQualityIndex": 36.03,
    "localId": 43
  },
  {
    "id": "SAVEDNIPRO_1143",
    "cityName": "Dobropillia",
    "stationName": "Street Zapovitna",
    "localName": "Save Dnipro #75",
    "latitude": "48.477333",
    "longitude": "37.092000",
    "humidity": 51.85,
    "PM10": 37.61,
    "PM2n5": 17.04,
    "Pressure": 1017,
    "Temperature": 9,
    "AirQualityIndex": 75.64,
    "localId": 44
  },
  {
    "id": "SAVEDNIPRO_1168",
    "cityName": "Mariupol",
    "stationName": "Street Lomizova, 11",
    "localName": "",
    "latitude": "47.101121",
    "longitude": "37.627157",
    "humidity": 31.97,
    "PM10": 24.73,
    "PM2n5": 1.51,
    "Pressure": 993,
    "Temperature": 6,
    "AirQualityIndex": 26.35,
    "localId": 45
  },
  {
    "id": "SAVEDNIPRO_1169",
    "cityName": "Mariupol",
    "stationName": "prospekt Metalurhiv, 206-A",
    "localName": "",
    "latitude": "47.137890",
    "longitude": "37.565452",
    "humidity": 57.81,
    "PM10": 7.99,
    "PM2n5": 9.25,
    "Pressure": 1005,
    "Temperature": 8,
    "AirQualityIndex": 185.14,
    "localId": 46
  },
  {
    "id": "SAVEDNIPRO_1174",
    "cityName": "Kam'ianske",
    "stationName": "prospekt Svobody, 49",
    "localName": "",
    "latitude": "48.516430",
    "longitude": "34.614322",
    "humidity": 38.4,
    "PM10": 69.46,
    "PM2n5": 19.94,
    "Pressure": 1012,
    "Temperature": 11,
    "AirQualityIndex": 61.75,
    "localId": 47
  },
  {
    "id": "SAVEDNIPRO_1175",
    "cityName": "Kam'ianske",
    "stationName": "Street Voiniv-afhantsiv, 5D",
    "localName": "",
    "latitude": "48.608365",
    "longitude": "34.558746",
    "humidity": 52.19,
    "PM10": 15.72,
    "PM2n5": 18.93,
    "Pressure": 1018,
    "Temperature": 10,
    "AirQualityIndex": 181.67,
    "localId": 48
  },
  {
    "id": "SAVEDNIPRO_1176",
    "cityName": "Kam'ianske",
    "stationName": "prospekt Svobody, 56",
    "localName": "",
    "latitude": "48.507758",
    "longitude": "34.609865",
    "humidity": 63.69,
    "PM10": 57.42,
    "PM2n5": 15.47,
    "Pressure": 980,
    "Temperature": 6,
    "AirQualityIndex": 113.84,
    "localId": 49
  },
  {
    "id": "SAVEDNIPRO_1178",
    "cityName": "Pisochyn",
    "stationName": "Street Zelena, 19",
    "localName": "",
    "latitude": "49.964888",
    "longitude": "36.122653",
    "humidity": 74.9,
    "PM10": 37.27,
    "PM2n5": 12.62,
    "Pressure": 988,
    "Temperature": 8,
    "AirQualityIndex": 98.97,
    "localId": 50
  },
  {
    "id": "SAVEDNIPRO_1179",
    "cityName": "Kam'ianske",
    "stationName": "Street Vorobiova, 15",
    "localName": "",
    "latitude": "48.503785",
    "longitude": "34.614396",
    "humidity": 35.83,
    "PM10": 37.33,
    "PM2n5": 19.31,
    "Pressure": 994,
    "Temperature": 8,
    "AirQualityIndex": 119.11,
    "localId": 51
  },
  {
    "id": "SAVEDNIPRO_1180",
    "cityName": "Kam'ianske",
    "stationName": "prospekt Anoshkina, 58A",
    "localName": "",
    "latitude": "48.509854",
    "longitude": "34.595553",
    "humidity": 26.35,
    "PM10": 40.22,
    "PM2n5": 19.47,
    "Pressure": 1013,
    "Temperature": 11,
    "AirQualityIndex": 129.8,
    "localId": 52
  },
  {
    "id": "SAVEDNIPRO_1182",
    "cityName": "Kam'ianske",
    "stationName": "Street Sportyvna, 19",
    "localName": "",
    "latitude": "48.517399",
    "longitude": "34.599969",
    "humidity": 28.6,
    "PM10": 67.38,
    "PM2n5": 1.69,
    "Pressure": 996,
    "Temperature": 5,
    "AirQualityIndex": 44.34,
    "localId": 53
  },
  {
    "id": "SAVEDNIPRO_1183",
    "cityName": "Kam'ianske",
    "stationName": "Yuvileinyi prospekt, 57",
    "localName": "",
    "latitude": "48.489721",
    "longitude": "34.621939",
    "humidity": 29.64,
    "PM10": 47.49,
    "PM2n5": 12.89,
    "Pressure": 982,
    "Temperature": 9,
    "AirQualityIndex": 162.81,
    "localId": 54
  },
  {
    "id": "SAVEDNIPRO_1212",
    "cityName": "Zaporizhzhia",
    "stationName": "Street Shkilna, 50",
    "localName": "",
    "latitude": "47.816804",
    "longitude": "35.169158",
    "humidity": 71.67,
    "PM10": 56.92,
    "PM2n5": 7.4,
    "Pressure": 1010,
    "Temperature": 9,
    "AirQualityIndex": 1.09,
    "localId": 55
  },
  {
    "id": "SAVEDNIPRO_1260",
    "cityName": "Zaporizhzhia",
    "stationName": "Street Mykoly Koryshchenka, 26",
    "localName": "",
    "latitude": "47.82919027096",
    "longitude": "35.23301213980",
    "humidity": 61.3,
    "PM10": 51.96,
    "PM2n5": 7.49,
    "Pressure": 993,
    "Temperature": 8,
    "AirQualityIndex": 154.89,
    "localId": 56
  },
  {
    "id": "SAVEDNIPRO_1266",
    "cityName": "Kyiv",
    "stationName": "Street Kostiantynivska, 73",
    "localName": "",
    "latitude": "50.473860",
    "longitude": "30.497474",
    "humidity": 26.54,
    "PM10": 53.2,
    "PM2n5": 2.27,
    "Pressure": 984,
    "Temperature": 9,
    "AirQualityIndex": 64.84,
    "localId": 57
  },
  {
    "id": "SAVEDNIPRO_1268",
    "cityName": "Bobrovytsia",
    "stationName": "Street Nezalezhnosti, 46",
    "localName": "",
    "latitude": "50.741761",
    "longitude": "31.384359",
    "humidity": 69.19,
    "PM10": 34.94,
    "PM2n5": 3.75,
    "Pressure": 1009,
    "Temperature": 8,
    "AirQualityIndex": 37.96,
    "localId": 58
  },
  {
    "id": "SAVEDNIPRO_1269",
    "cityName": "Poltava",
    "stationName": "Street Pidmonastyrska, 41",
    "localName": "",
    "latitude": "49.592648",
    "longitude": "34.570985",
    "humidity": 59.12,
    "PM10": 44.93,
    "PM2n5": 3.34,
    "Pressure": 988,
    "Temperature": 10,
    "AirQualityIndex": 163.9,
    "localId": 59
  },
  {
    "id": "SAVEDNIPRO_1270",
    "cityName": "Dnipro",
    "stationName": "Street Mykhaila Hrushevskoho, 34",
    "localName": "Save Dnipro #104",
    "latitude": "48.454988",
    "longitude": "35.036721",
    "humidity": 49.68,
    "PM10": 68.77,
    "PM2n5": 4.62,
    "Pressure": 983,
    "Temperature": 5,
    "AirQualityIndex": 54.42,
    "localId": 60
  },
  {
    "id": "SAVEDNIPRO_1271",
    "cityName": "Dnipro",
    "stationName": "prospekt Myru, 5",
    "localName": "",
    "latitude": "48.525274",
    "longitude": "35.019689",
    "humidity": 32.1,
    "PM10": 3.96,
    "PM2n5": 14.15,
    "Pressure": 980,
    "Temperature": 7,
    "AirQualityIndex": 10.24,
    "localId": 61
  },
  {
    "id": "SAVEDNIPRO_1272",
    "cityName": "Kam'ianske",
    "stationName": "Street Kazanska, 35",
    "localName": "",
    "latitude": "48.494670",
    "longitude": "34.602290",
    "humidity": 31.54,
    "PM10": 45.81,
    "PM2n5": 5.77,
    "Pressure": 985,
    "Temperature": 9,
    "AirQualityIndex": 38.68,
    "localId": 62
  },
  {
    "id": "SAVEDNIPRO_1274",
    "cityName": "Kyiv",
    "stationName": "prospekt Heroiv Stalinhrada, 6K8",
    "localName": "",
    "latitude": "50.494958",
    "longitude": "30.522702",
    "humidity": 51.31,
    "PM10": 2.35,
    "PM2n5": 12.07,
    "Pressure": 988,
    "Temperature": 7,
    "AirQualityIndex": 133.71,
    "localId": 63
  },
  {
    "id": "SAVEDNIPRO_1275",
    "cityName": "Kam'ianske",
    "stationName": "prospekt Konstytutsii 19",
    "localName": "",
    "latitude": "48.475955",
    "longitude": "34.667161",
    "humidity": 54.47,
    "PM10": 50.01,
    "PM2n5": 3.95,
    "Pressure": 992,
    "Temperature": 6,
    "AirQualityIndex": 5.53,
    "localId": 64
  },
  {
    "id": "SAVEDNIPRO_1276",
    "cityName": "Poltava",
    "stationName": "Street Radyshcheva, 46",
    "localName": "",
    "latitude": "49.577176",
    "longitude": "34.607160",
    "humidity": 67.26,
    "PM10": 77.85,
    "PM2n5": 11.62,
    "Pressure": 1014,
    "Temperature": 5,
    "AirQualityIndex": 121.07,
    "localId": 65
  },
  {
    "id": "SAVEDNIPRO_1278",
    "cityName": "Kyiv",
    "stationName": "Street Saperno-Slobidska, 25/4",
    "localName": "",
    "latitude": "50.404417",
    "longitude": "30.534111",
    "humidity": 35.26,
    "PM10": 79.56,
    "PM2n5": 17.13,
    "Pressure": 1012,
    "Temperature": 9,
    "AirQualityIndex": 5.22,
    "localId": 66
  },
  {
    "id": "SAVEDNIPRO_1279",
    "cityName": "Dnipro",
    "stationName": "Street Maiachka, 14",
    "localName": "",
    "latitude": "48.4934802",
    "longitude": "35.1992773",
    "humidity": 69.32,
    "PM10": 23.12,
    "PM2n5": 14.91,
    "Pressure": 1015,
    "Temperature": 5,
    "AirQualityIndex": 178.72,
    "localId": 67
  },
  {
    "id": "SAVEDNIPRO_1293",
    "cityName": "Kushuhum",
    "stationName": "Street Partyzanska",
    "localName": "",
    "latitude": "47.723589",
    "longitude": "35.206665",
    "humidity": 34.6,
    "PM10": 60.64,
    "PM2n5": 18.01,
    "Pressure": 1002,
    "Temperature": 10,
    "AirQualityIndex": 46.97,
    "localId": 68
  },
  {
    "id": "SAVEDNIPRO_1294",
    "cityName": "Kyiv",
    "stationName": "Street 8-a Sadova",
    "localName": "",
    "latitude": "50.4682878",
    "longitude": "30.5729412",
    "humidity": 53.94,
    "PM10": 50.78,
    "PM2n5": 13.21,
    "Pressure": 1008,
    "Temperature": 9,
    "AirQualityIndex": 22.22,
    "localId": 69
  },
  {
    "id": "SAVEDNIPRO_1295",
    "cityName": "Brovary",
    "stationName": "Sadove tovarystvo Khimik",
    "localName": "",
    "latitude": "50.514441",
    "longitude": "30.797268",
    "humidity": 56.87,
    "PM10": 79.91,
    "PM2n5": 11.94,
    "Pressure": 982,
    "Temperature": 6,
    "AirQualityIndex": 17.15,
    "localId": 70
  },
  {
    "id": "SAVEDNIPRO_1297",
    "cityName": "Zaporizhzhia",
    "stationName": "Street Charivna, 157",
    "localName": "",
    "latitude": "47.844147",
    "longitude": "35.230268",
    "humidity": 64.13,
    "PM10": 47.09,
    "PM2n5": 7.41,
    "Pressure": 1004,
    "Temperature": 9,
    "AirQualityIndex": 105.44,
    "localId": 71
  },
  {
    "id": "SAVEDNIPRO_1298",
    "cityName": "Zaporizhzhia",
    "stationName": "Street Leonida Zhabotynskoho, 63",
    "localName": "",
    "latitude": "47.8382123",
    "longitude": "35.1351085",
    "humidity": 41.92,
    "PM10": 77.33,
    "PM2n5": 4.14,
    "Pressure": 1005,
    "Temperature": 10,
    "AirQualityIndex": 109.5,
    "localId": 72
  },
  {
    "id": "SAVEDNIPRO_1300",
    "cityName": "Cherkaske",
    "stationName": "Street Yasna, 3",
    "localName": "",
    "latitude": "48.835490",
    "longitude": "37.392544",
    "humidity": 54.17,
    "PM10": 66.73,
    "PM2n5": 4.53,
    "Pressure": 1017,
    "Temperature": 8,
    "AirQualityIndex": 75.41,
    "localId": 73
  },
  {
    "id": "SAVEDNIPRO_1301",
    "cityName": "Zaporizhzhia",
    "stationName": "Street Vesnina, 1A",
    "localName": "",
    "latitude": "47.865793",
    "longitude": "35.058838",
    "humidity": 65.67,
    "PM10": 41.7,
    "PM2n5": 7.58,
    "Pressure": 990,
    "Temperature": 8,
    "AirQualityIndex": 167.73,
    "localId": 74
  },
  {
    "id": "SAVEDNIPRO_1302",
    "cityName": "Yurivka",
    "stationName": "Street Naberezhna, 3",
    "localName": "",
    "latitude": "50.317396",
    "longitude": "30.390961",
    "humidity": 39.32,
    "PM10": 74.57,
    "PM2n5": 19.71,
    "Pressure": 1013,
    "Temperature": 7,
    "AirQualityIndex": 147.72,
    "localId": 75
  },
  {
    "id": "SAVEDNIPRO_1303",
    "cityName": "Chornomorsk",
    "stationName": "Street Vitaliia Shuma, 2H",
    "localName": "",
    "latitude": "46.297067",
    "longitude": "30.639265",
    "humidity": 31.5,
    "PM10": 3.97,
    "PM2n5": 10.42,
    "Pressure": 1008,
    "Temperature": 8,
    "AirQualityIndex": 49.79,
    "localId": 76
  },
  {
    "id": "SAVEDNIPRO_1306",
    "cityName": "Kyiv",
    "stationName": "Street Marshala Malynovskoho, 4V",
    "localName": "",
    "latitude": "50.505132",
    "longitude": "30.489238",
    "humidity": 46.13,
    "PM10": 22.93,
    "PM2n5": 17.67,
    "Pressure": 985,
    "Temperature": 11,
    "AirQualityIndex": 78.64,
    "localId": 77
  },
  {
    "id": "SAVEDNIPRO_1308",
    "cityName": "Zaporizhzhia",
    "stationName": "Avtobusna Street, 13",
    "localName": "",
    "latitude": "47.8630359",
    "longitude": "35.1845460",
    "humidity": 64.85,
    "PM10": 25.87,
    "PM2n5": 15.93,
    "Pressure": 1007,
    "Temperature": 5,
    "AirQualityIndex": 180.97,
    "localId": 78
  },
  {
    "id": "SAVEDNIPRO_1309",
    "cityName": "Zaporizhzhia",
    "stationName": "Tsentralnyi bulvar, 22A",
    "localName": "",
    "latitude": "47.835703",
    "longitude": "35.134718",
    "humidity": 69.67,
    "PM10": 64.12,
    "PM2n5": 4.32,
    "Pressure": 1011,
    "Temperature": 5,
    "AirQualityIndex": 68.69,
    "localId": 79
  },
  {
    "id": "SAVEDNIPRO_1311",
    "cityName": "Vita-Poshtova",
    "stationName": "Street Zvenyhorodska",
    "localName": "",
    "latitude": "50.312514",
    "longitude": "30.375136",
    "humidity": 52.37,
    "PM10": 5.97,
    "PM2n5": 13.7,
    "Pressure": 1006,
    "Temperature": 9,
    "AirQualityIndex": 172.28,
    "localId": 80
  },
  {
    "id": "SAVEDNIPRO_1313",
    "cityName": "Yurivka",
    "stationName": "Street Naberezhna, 12",
    "localName": "",
    "latitude": "50.326257",
    "longitude": "30.375458",
    "humidity": 30.77,
    "PM10": 51.29,
    "PM2n5": 6.44,
    "Pressure": 1004,
    "Temperature": 8,
    "AirQualityIndex": 105.21,
    "localId": 81
  },
  {
    "id": "SAVEDNIPRO_1315",
    "cityName": "Zaporizhzhia",
    "stationName": "Street Svitla, 16",
    "localName": "",
    "latitude": "47.815380",
    "longitude": "35.053843",
    "humidity": 55.21,
    "PM10": 9.39,
    "PM2n5": 3.82,
    "Pressure": 1011,
    "Temperature": 10,
    "AirQualityIndex": 167.08,
    "localId": 82
  },
  {
    "id": "SAVEDNIPRO_1316",
    "cityName": "Zaporizhzhia",
    "stationName": "prospekt Sobornyi, 228",
    "localName": "",
    "latitude": "47.8606913",
    "longitude": "35.1002317",
    "humidity": 60.47,
    "PM10": 66.29,
    "PM2n5": 14.54,
    "Pressure": 1008,
    "Temperature": 6,
    "AirQualityIndex": 75.73,
    "localId": 83
  },
  {
    "id": "SAVEDNIPRO_1354",
    "cityName": "Velyka Severynka",
    "stationName": "Street Myru, 2A",
    "localName": "",
    "latitude": "48.608155",
    "longitude": "32.231918",
    "humidity": 28.96,
    "PM10": 56.56,
    "PM2n5": 6.43,
    "Pressure": 1001,
    "Temperature": 5,
    "AirQualityIndex": 85.12,
    "localId": 84
  },
  {
    "id": "SAVEDNIPRO_1372",
    "cityName": "Kyiv",
    "stationName": "Street Verkhovynna, 37",
    "localName": "",
    "latitude": "50.452314",
    "longitude": "30.371420",
    "humidity": 55.47,
    "PM10": 27.26,
    "PM2n5": 9.61,
    "Pressure": 1009,
    "Temperature": 11,
    "AirQualityIndex": 198.9,
    "localId": 85
  },
  {
    "id": "SAVEDNIPRO_1373",
    "cityName": "Kyiv",
    "stationName": "Street Marshala Malynovskoho, 13B",
    "localName": "",
    "latitude": "50.502855",
    "longitude": "30.495153",
    "humidity": 45.73,
    "PM10": 65.97,
    "PM2n5": 9.31,
    "Pressure": 1003,
    "Temperature": 7,
    "AirQualityIndex": 88.63,
    "localId": 86
  },
  {
    "id": "SAVEDNIPRO_1376",
    "cityName": "Kyiv",
    "stationName": "Street Volodymyro-Lybidska 25",
    "localName": "",
    "latitude": "50.421359",
    "longitude": "30.514859",
    "humidity": 47.27,
    "PM10": 8.79,
    "PM2n5": 11.95,
    "Pressure": 1014,
    "Temperature": 9,
    "AirQualityIndex": 185.77,
    "localId": 87
  },
  {
    "id": "SAVEDNIPRO_1377",
    "cityName": "Chornomorsk",
    "stationName": "Street Transportna, 14A",
    "localName": "Save Dnipro #159",
    "latitude": "46.311634",
    "longitude": "30.654892",
    "humidity": 28.1,
    "PM10": 5.6,
    "PM2n5": 7.45,
    "Pressure": 1001,
    "Temperature": 9,
    "AirQualityIndex": 125.54,
    "localId": 88
  },
  {
    "id": "SAVEDNIPRO_1378",
    "cityName": "Hatne",
    "stationName": "Street Yaroslava Mudroho, 6",
    "localName": "",
    "latitude": "50.359801",
    "longitude": "30.424000",
    "humidity": 45.79,
    "PM10": 51.22,
    "PM2n5": 9.34,
    "Pressure": 987,
    "Temperature": 10,
    "AirQualityIndex": 99.35,
    "localId": 89
  },
  {
    "id": "SAVEDNIPRO_1380",
    "cityName": "Odesa",
    "stationName": "Street Armiiska, 19",
    "localName": "Save Dnipro #162",
    "latitude": "46.452237",
    "longitude": "30.748921",
    "humidity": 48.22,
    "PM10": 6.5,
    "PM2n5": 7.18,
    "Pressure": 987,
    "Temperature": 8,
    "AirQualityIndex": 155.23,
    "localId": 90
  },
  {
    "id": "SAVEDNIPRO_1381",
    "cityName": "Reshetylivka",
    "stationName": "Street Pokrovska, 14",
    "localName": "",
    "latitude": "49.562487",
    "longitude": "34.078514",
    "humidity": 31.17,
    "PM10": 38.83,
    "PM2n5": 4.36,
    "Pressure": 993,
    "Temperature": 7,
    "AirQualityIndex": 28.47,
    "localId": 91
  },
  {
    "id": "SAVEDNIPRO_1382",
    "cityName": "Zaporizhzhia",
    "stationName": "Street Nezalezhnoi Ukrainy, 68A",
    "localName": "",
    "latitude": "47.827955",
    "longitude": "35.204411",
    "humidity": 49.5,
    "PM10": 53.04,
    "PM2n5": 16.6,
    "Pressure": 996,
    "Temperature": 9,
    "AirQualityIndex": 88.57,
    "localId": 92
  },
  {
    "id": "SAVEDNIPRO_1384",
    "cityName": "Hnidyn",
    "stationName": "Street Nova, 1",
    "localName": "",
    "latitude": "50.33948",
    "longitude": "30.70528",
    "humidity": 72.1,
    "PM10": 24.27,
    "PM2n5": 1.65,
    "Pressure": 1006,
    "Temperature": 8,
    "AirQualityIndex": 62.18,
    "localId": 93
  },
  {
    "id": "SAVEDNIPRO_1385",
    "cityName": "Hnidyn",
    "stationName": "Street Kuzbasova, 22",
    "localName": "",
    "latitude": "50.327707",
    "longitude": "30.696919",
    "humidity": 48.38,
    "PM10": 16.82,
    "PM2n5": 12.06,
    "Pressure": 988,
    "Temperature": 5,
    "AirQualityIndex": 167.56,
    "localId": 94
  },
  {
    "id": "SAVEDNIPRO_1386",
    "cityName": "Odesa",
    "stationName": "Street Balkivska, 40A",
    "localName": "",
    "latitude": "46.486764",
    "longitude": "30.707282",
    "humidity": 31.13,
    "PM10": 63.24,
    "PM2n5": 2.15,
    "Pressure": 1007,
    "Temperature": 6,
    "AirQualityIndex": 117.18,
    "localId": 95
  },
  {
    "id": "SAVEDNIPRO_1387",
    "cityName": "Kyiv",
    "stationName": "Street Reitarska, 17",
    "localName": "",
    "latitude": "50.4515820",
    "longitude": "30.5115602",
    "humidity": 67.88,
    "PM10": 26.21,
    "PM2n5": 4.9,
    "Pressure": 984,
    "Temperature": 9,
    "AirQualityIndex": 166.91,
    "localId": 96
  },
  {
    "id": "SAVEDNIPRO_1388",
    "cityName": "Brovary",
    "stationName": "Street Symona Petliury, 36",
    "localName": "",
    "latitude": "50.5245",
    "longitude": "30.798465",
    "humidity": 52.59,
    "PM10": 52.44,
    "PM2n5": 10.76,
    "Pressure": 988,
    "Temperature": 9,
    "AirQualityIndex": 175.35,
    "localId": 97
  },
  {
    "id": "SAVEDNIPRO_1392",
    "cityName": "Brovary",
    "stationName": "bulvar Nezalezhnosti, 4A",
    "localName": "",
    "latitude": "50.512282",
    "longitude": "30.796358",
    "humidity": 57.33,
    "PM10": 63.96,
    "PM2n5": 11.8,
    "Pressure": 982,
    "Temperature": 5,
    "AirQualityIndex": 142.1,
    "localId": 98
  },
  {
    "id": "SAVEDNIPRO_1394",
    "cityName": "Kyiv",
    "stationName": "Street Kyrylivska 64",
    "localName": "",
    "latitude": "50.4742163",
    "longitude": "30.4942892",
    "humidity": 25.3,
    "PM10": 54.24,
    "PM2n5": 6.47,
    "Pressure": 990,
    "Temperature": 10,
    "AirQualityIndex": 80.31,
    "localId": 99
  },
  {
    "id": "SAVEDNIPRO_1395",
    "cityName": "Rivne",
    "stationName": "Street Kostromska, 73",
    "localName": "",
    "latitude": "50.6331689",
    "longitude": "26.2856835",
    "humidity": 30.94,
    "PM10": 74.49,
    "PM2n5": 17.58,
    "Pressure": 989,
    "Temperature": 6,
    "AirQualityIndex": 185.34,
    "localId": 100
  },
  {
    "id": "SAVEDNIPRO_1396",
    "cityName": "Khrystanivka",
    "stationName": "Street Shevchenka, 23",
    "localName": "",
    "latitude": "50.297342",
    "longitude": "33.376383",
    "humidity": 33.39,
    "PM10": 61.54,
    "PM2n5": 5.67,
    "Pressure": 1014,
    "Temperature": 5,
    "AirQualityIndex": 159.78,
    "localId": 101
  },
  {
    "id": "SAVEDNIPRO_1397",
    "cityName": "Baranivka",
    "stationName": "Street Soborna, 6",
    "localName": "",
    "latitude": "50.293875",
    "longitude": "27.669171",
    "humidity": 49.1,
    "PM10": 71.92,
    "PM2n5": 8.19,
    "Pressure": 980,
    "Temperature": 10,
    "AirQualityIndex": 112.32,
    "localId": 102
  },
  {
    "id": "SAVEDNIPRO_1411",
    "cityName": "Chornomorsk",
    "stationName": "Street Parkova, 22",
    "localName": "",
    "latitude": "46.2997433",
    "longitude": "30.6593683",
    "humidity": 72.88,
    "PM10": 31.36,
    "PM2n5": 11.07,
    "Pressure": 981,
    "Temperature": 7,
    "AirQualityIndex": 198.77,
    "localId": 103
  },
  {
    "id": "SAVEDNIPRO_1412",
    "cityName": "Nadvirna",
    "stationName": "maidan Shevchenka, 33",
    "localName": "",
    "latitude": "48.633951",
    "longitude": "24.567418",
    "humidity": 64.93,
    "PM10": 15.51,
    "PM2n5": 5.51,
    "Pressure": 1016,
    "Temperature": 10,
    "AirQualityIndex": 55.95,
    "localId": 104
  },
  {
    "id": "SAVEDNIPRO_1424",
    "cityName": "Kyiv",
    "stationName": "Street Yuriia Popravky, 4",
    "localName": "",
    "latitude": "50.455080",
    "longitude": "30.629557",
    "humidity": 57.84,
    "PM10": 6.63,
    "PM2n5": 12.71,
    "Pressure": 993,
    "Temperature": 9,
    "AirQualityIndex": 27.53,
    "localId": 105
  },
  {
    "id": "SAVEDNIPRO_1425",
    "cityName": "Kyiv",
    "stationName": "prospekt Heroiv Stalinhrada 28",
    "localName": "",
    "latitude": "50.513766",
    "longitude": "30.508991",
    "humidity": 50.56,
    "PM10": 41.89,
    "PM2n5": 7.64,
    "Pressure": 990,
    "Temperature": 8,
    "AirQualityIndex": 117.94,
    "localId": 106
  },
  {
    "id": "SAVEDNIPRO_1426",
    "cityName": "Zaporizhzhia",
    "stationName": "prospekt Yuvileinyi, 19",
    "localName": "",
    "latitude": "47.817382",
    "longitude": "35.054906",
    "humidity": 49.35,
    "PM10": 18.61,
    "PM2n5": 18.56,
    "Pressure": 1003,
    "Temperature": 5,
    "AirQualityIndex": 89.52,
    "localId": 107
  },
  {
    "id": "SAVEDNIPRO_1427",
    "cityName": "Chornomorsk",
    "stationName": "Street Vitaliia Shuma, 9",
    "localName": "",
    "latitude": "46.302583",
    "longitude": "30.642833",
    "humidity": 62.63,
    "PM10": 34.64,
    "PM2n5": 1.37,
    "Pressure": 984,
    "Temperature": 10,
    "AirQualityIndex": 92.3,
    "localId": 108
  },
  {
    "id": "SAVEDNIPRO_1428",
    "cityName": "Dobropillia",
    "stationName": "mikroraion Molodizhnyi, 36",
    "localName": "",
    "latitude": "48.469470",
    "longitude": "37.079867",
    "humidity": 43.16,
    "PM10": 76.25,
    "PM2n5": 9.19,
    "Pressure": 992,
    "Temperature": 6,
    "AirQualityIndex": 8.89,
    "localId": 109
  },
  {
    "id": "SAVEDNIPRO_1448",
    "cityName": "Rusaniv",
    "stationName": "Street Partyzanska",
    "localName": "",
    "latitude": "50.503785",
    "longitude": "31.149722",
    "humidity": 49.23,
    "PM10": 6.07,
    "PM2n5": 12.45,
    "Pressure": 982,
    "Temperature": 8,
    "AirQualityIndex": 35.83,
    "localId": 110
  },
  {
    "id": "SAVEDNIPRO_1507",
    "cityName": "Irpin",
    "stationName": "Street Varshavska, 114",
    "localName": "",
    "latitude": "50.537636",
    "longitude": "30.266628",
    "humidity": 74.58,
    "PM10": 70.99,
    "PM2n5": 9.35,
    "Pressure": 997,
    "Temperature": 6,
    "AirQualityIndex": 173.27,
    "localId": 111
  },
  {
    "id": "SAVEDNIPRO_1510",
    "cityName": "Kharkiv",
    "stationName": "Street Tobolska, 41A",
    "localName": "",
    "latitude": "50.027901",
    "longitude": "36.215151",
    "humidity": 62.8,
    "PM10": 30.5,
    "PM2n5": 1.33,
    "Pressure": 1011,
    "Temperature": 9,
    "AirQualityIndex": 89.05,
    "localId": 112
  },
  {
    "id": "SAVEDNIPRO_1511",
    "cityName": "Voropaiv",
    "stationName": "Street Kyivska, 100",
    "localName": "",
    "latitude": "50.785232",
    "longitude": "30.683176",
    "humidity": 48.49,
    "PM10": 39.69,
    "PM2n5": 6.24,
    "Pressure": 995,
    "Temperature": 6,
    "AirQualityIndex": 75.28,
    "localId": 113
  },
  {
    "id": "SAVEDNIPRO_1513",
    "cityName": "Chaiky",
    "stationName": "Street Leontovycha, 16",
    "localName": "",
    "latitude": "50.432666",
    "longitude": "30.279492",
    "humidity": 48.23,
    "PM10": 35.49,
    "PM2n5": 1.47,
    "Pressure": 981,
    "Temperature": 10,
    "AirQualityIndex": 142.51,
    "localId": 114
  },
  {
    "id": "SAVEDNIPRO_1514",
    "cityName": "Radomyshl",
    "stationName": "Street Shevchenka, 25",
    "localName": "",
    "latitude": "50.501932",
    "longitude": "29.229013",
    "humidity": 55.42,
    "PM10": 23.14,
    "PM2n5": 19.15,
    "Pressure": 1015,
    "Temperature": 8,
    "AirQualityIndex": 32.79,
    "localId": 115
  },
  {
    "id": "SAVEDNIPRO_1538",
    "cityName": "Hnidyn",
    "stationName": "Street Luhova",
    "localName": "",
    "latitude": "50.3290625",
    "longitude": "30.6978125",
    "humidity": 29.23,
    "PM10": 43.27,
    "PM2n5": 15.22,
    "Pressure": 984,
    "Temperature": 6,
    "AirQualityIndex": 25.88,
    "localId": 116
  },
  {
    "id": "SAVEDNIPRO_1540",
    "cityName": "Kyiv",
    "stationName": "Street Borshchahivska, 16",
    "localName": "",
    "latitude": "50.447179",
    "longitude": "30.468070",
    "humidity": 31.02,
    "PM10": 61.95,
    "PM2n5": 18.19,
    "Pressure": 1011,
    "Temperature": 8,
    "AirQualityIndex": 89.32,
    "localId": 117
  },
  {
    "id": "SAVEDNIPRO_1542",
    "cityName": "Liubar",
    "stationName": "Street Nezalezhnosti, 39",
    "localName": "",
    "latitude": "49.924459",
    "longitude": "27.746386",
    "humidity": 36.96,
    "PM10": 79.81,
    "PM2n5": 5.96,
    "Pressure": 984,
    "Temperature": 11,
    "AirQualityIndex": 129.85,
    "localId": 118
  },
  {
    "id": "SAVEDNIPRO_1543",
    "cityName": "Kharkiv",
    "stationName": "Hryhorivske shose, 57",
    "localName": "",
    "latitude": "49.979663",
    "longitude": "36.184030",
    "humidity": 40.2,
    "PM10": 40.16,
    "PM2n5": 8.79,
    "Pressure": 985,
    "Temperature": 11,
    "AirQualityIndex": 18.9,
    "localId": 119
  },
  {
    "id": "SAVEDNIPRO_1544",
    "cityName": "Kyiv",
    "stationName": "Street Anny Akhmatovoi, 47",
    "localName": "",
    "latitude": "50.404406",
    "longitude": "30.615846",
    "humidity": 56.9,
    "PM10": 46.69,
    "PM2n5": 3.48,
    "Pressure": 995,
    "Temperature": 10,
    "AirQualityIndex": 34.68,
    "localId": 120
  },
  {
    "id": "SAVEDNIPRO_1555",
    "cityName": "Raihorodok",
    "stationName": "Street Skhidna, 4",
    "localName": "",
    "latitude": "48.905655",
    "longitude": "37.724880",
    "humidity": 53.85,
    "PM10": 19.55,
    "PM2n5": 15.65,
    "Pressure": 986,
    "Temperature": 7,
    "AirQualityIndex": 172.33,
    "localId": 121
  },
  {
    "id": "SAVEDNIPRO_1557",
    "cityName": "Sloviansk",
    "stationName": "ploshcha Soborna, 2",
    "localName": "",
    "latitude": "48.851999",
    "longitude": "37.606324",
    "humidity": 46.11,
    "PM10": 28.19,
    "PM2n5": 8.62,
    "Pressure": 986,
    "Temperature": 7,
    "AirQualityIndex": 9.04,
    "localId": 122
  },
  {
    "id": "SAVEDNIPRO_1558",
    "cityName": "Bakhmut",
    "stationName": "Street Myru, 44",
    "localName": "",
    "latitude": "48.589113",
    "longitude": "38.000524",
    "humidity": 50.12,
    "PM10": 66.5,
    "PM2n5": 14.87,
    "Pressure": 1000,
    "Temperature": 8,
    "AirQualityIndex": 149.38,
    "localId": 123
  },
  {
    "id": "SAVEDNIPRO_1560",
    "cityName": "Mykolaivka",
    "stationName": "Street Mykhaila Petrenka, 7",
    "localName": "",
    "latitude": "48.855326",
    "longitude": "37.774202",
    "humidity": 57.34,
    "PM10": 11.78,
    "PM2n5": 9.45,
    "Pressure": 1000,
    "Temperature": 10,
    "AirQualityIndex": 116.43,
    "localId": 124
  },
  {
    "id": "SAVEDNIPRO_1561",
    "cityName": "Izmail",
    "stationName": "Street Riepina, 12",
    "localName": "",
    "latitude": "45.360426",
    "longitude": "28.818493",
    "humidity": 25.97,
    "PM10": 71.02,
    "PM2n5": 4.31,
    "Pressure": 980,
    "Temperature": 5,
    "AirQualityIndex": 97.64,
    "localId": 125
  },
  {
    "id": "SAVEDNIPRO_1562",
    "cityName": "Toretsk",
    "stationName": "Street Maiakovskoho, 10",
    "localName": "",
    "latitude": "48.397121",
    "longitude": "37.843989",
    "humidity": 68.05,
    "PM10": 62.49,
    "PM2n5": 4.91,
    "Pressure": 999,
    "Temperature": 11,
    "AirQualityIndex": 62.55,
    "localId": 126
  },
  {
    "id": "SAVEDNIPRO_1563",
    "cityName": "Druzhkivka",
    "stationName": "Street Minska, 12",
    "localName": "",
    "latitude": "48.613735",
    "longitude": "37.486107",
    "humidity": 38.52,
    "PM10": 20.36,
    "PM2n5": 18.09,
    "Pressure": 981,
    "Temperature": 10,
    "AirQualityIndex": 19.79,
    "localId": 127
  },
  {
    "id": "SAVEDNIPRO_1564",
    "cityName": "Teplodar",
    "stationName": "Street Biliayivska, 3",
    "localName": "",
    "latitude": "46.5228989",
    "longitude": "30.3185014",
    "humidity": 26.02,
    "PM10": 8.32,
    "PM2n5": 13.49,
    "Pressure": 1017,
    "Temperature": 7,
    "AirQualityIndex": 48.23,
    "localId": 128
  },
  {
    "id": "SAVEDNIPRO_1565",
    "cityName": "Serhiivka",
    "stationName": "Street Haharina, 1A",
    "localName": "",
    "latitude": "46.024188",
    "longitude": "30.362985",
    "humidity": 27.09,
    "PM10": 66.14,
    "PM2n5": 11.55,
    "Pressure": 981,
    "Temperature": 11,
    "AirQualityIndex": 122,
    "localId": 129
  },
  {
    "id": "SAVEDNIPRO_1566",
    "cityName": "Tsarychanka",
    "stationName": "Street 14 Hvardiiskoi Dyvizii, 10",
    "localName": "",
    "latitude": "48.941752",
    "longitude": "34.486318",
    "humidity": 61.7,
    "PM10": 4.35,
    "PM2n5": 14.08,
    "Pressure": 1011,
    "Temperature": 5,
    "AirQualityIndex": 36.69,
    "localId": 130
  },
  {
    "id": "SAVEDNIPRO_1568",
    "cityName": "Perechyn",
    "stationName": "ploshcha Narodna, 16",
    "localName": "",
    "latitude": "48.735167",
    "longitude": "22.477306",
    "humidity": 53.42,
    "PM10": 20.71,
    "PM2n5": 4.47,
    "Pressure": 993,
    "Temperature": 6,
    "AirQualityIndex": 30.91,
    "localId": 131
  },
  {
    "id": "SAVEDNIPRO_1569",
    "cityName": "Kozova",
    "stationName": "Street Mykhaila Hrushevskoho, 32",
    "localName": "",
    "latitude": "49.432754",
    "longitude": "25.144195",
    "humidity": 48.15,
    "PM10": 26.31,
    "PM2n5": 5.12,
    "Pressure": 981,
    "Temperature": 10,
    "AirQualityIndex": 173.48,
    "localId": 132
  },
  {
    "id": "SAVEDNIPRO_1570",
    "cityName": "Novopskov",
    "stationName": "Street Shkilna, 15B",
    "localName": "",
    "latitude": "49.537144",
    "longitude": "39.114868",
    "humidity": 35.55,
    "PM10": 72.5,
    "PM2n5": 19.79,
    "Pressure": 981,
    "Temperature": 6,
    "AirQualityIndex": 126.7,
    "localId": 133
  },
  {
    "id": "SAVEDNIPRO_1571",
    "cityName": "Bilokurakyne",
    "stationName": "ploshcha Tarasa Shevchenka, 4",
    "localName": "",
    "latitude": "49.525283",
    "longitude": "38.731923",
    "humidity": 50.42,
    "PM10": 66.91,
    "PM2n5": 18.1,
    "Pressure": 993,
    "Temperature": 7,
    "AirQualityIndex": 150.21,
    "localId": 134
  },
  {
    "id": "SAVEDNIPRO_1572",
    "cityName": "Pechenizhyn",
    "stationName": "Street Nezalezhnosti, 15",
    "localName": "",
    "latitude": "48.516707",
    "longitude": "24.883313",
    "humidity": 65.62,
    "PM10": 18.79,
    "PM2n5": 10.76,
    "Pressure": 1019,
    "Temperature": 7,
    "AirQualityIndex": 56.41,
    "localId": 135
  },
  {
    "id": "SAVEDNIPRO_1573",
    "cityName": "Petropil",
    "stationName": "Street Molodizhna, 1",
    "localName": "",
    "latitude": "48.014856",
    "longitude": "34.950205",
    "humidity": 64.75,
    "PM10": 51.45,
    "PM2n5": 4.25,
    "Pressure": 981,
    "Temperature": 5,
    "AirQualityIndex": 48.52,
    "localId": 136
  },
  {
    "id": "SAVEDNIPRO_1576",
    "cityName": "Vyshniv",
    "stationName": "Street Nezalezhnosti, 80A",
    "localName": "",
    "latitude": "51.197866",
    "longitude": "24.030688",
    "humidity": 63.15,
    "PM10": 77.42,
    "PM2n5": 1.22,
    "Pressure": 1003,
    "Temperature": 9,
    "AirQualityIndex": 62.18,
    "localId": 137
  },
  {
    "id": "SAVEDNIPRO_1577",
    "cityName": "Drohobych",
    "stationName": "Street Hrushevskoho, 170",
    "localName": "",
    "latitude": "49.354152",
    "longitude": "23.540407",
    "humidity": 44.72,
    "PM10": 57.34,
    "PM2n5": 15.83,
    "Pressure": 1008,
    "Temperature": 6,
    "AirQualityIndex": 29.59,
    "localId": 138
  },
  {
    "id": "SAVEDNIPRO_1579",
    "cityName": "Koriukivka",
    "stationName": "Street Bulvarna, 6",
    "localName": "",
    "latitude": "51.772445",
    "longitude": "32.258389",
    "humidity": 38.42,
    "PM10": 12.64,
    "PM2n5": 8.08,
    "Pressure": 991,
    "Temperature": 9,
    "AirQualityIndex": 59.35,
    "localId": 139
  },
  {
    "id": "SAVEDNIPRO_1580",
    "cityName": "Semenivka",
    "stationName": "3-y Tsentralnyi provulok, 2",
    "localName": "",
    "latitude": "52.173104",
    "longitude": "32.591975",
    "humidity": 47.7,
    "PM10": 73.57,
    "PM2n5": 8.54,
    "Pressure": 1010,
    "Temperature": 6,
    "AirQualityIndex": 17.4,
    "localId": 140
  },
  {
    "id": "SAVEDNIPRO_1581",
    "cityName": "Khmilnyk",
    "stationName": "Street Stoliarchuka, 10",
    "localName": "",
    "latitude": "49.558073",
    "longitude": "27.956940",
    "humidity": 53.77,
    "PM10": 57.83,
    "PM2n5": 15.15,
    "Pressure": 1000,
    "Temperature": 10,
    "AirQualityIndex": 53.83,
    "localId": 141
  },
  {
    "id": "SAVEDNIPRO_1582",
    "cityName": "Khorostkiv",
    "stationName": "Street Bohdana Lepkoho, 1",
    "localName": "",
    "latitude": "49.212406",
    "longitude": "25.923519",
    "humidity": 49.07,
    "PM10": 41.27,
    "PM2n5": 8.98,
    "Pressure": 985,
    "Temperature": 10,
    "AirQualityIndex": 126.63,
    "localId": 142
  },
  {
    "id": "SAVEDNIPRO_1583",
    "cityName": "Sambir",
    "stationName": "ploshcha Rynok, 1",
    "localName": "",
    "latitude": "49.518117",
    "longitude": "23.196529",
    "humidity": 39.52,
    "PM10": 3.51,
    "PM2n5": 7.44,
    "Pressure": 991,
    "Temperature": 7,
    "AirQualityIndex": 14.61,
    "localId": 143
  },
  {
    "id": "SAVEDNIPRO_1585",
    "cityName": "Chernihivka",
    "stationName": "Street Ukrainska, 57",
    "localName": "",
    "latitude": "47.194468",
    "longitude": "36.216471",
    "humidity": 48.97,
    "PM10": 75.13,
    "PM2n5": 8.25,
    "Pressure": 1002,
    "Temperature": 9,
    "AirQualityIndex": 157.01,
    "localId": 144
  },
  {
    "id": "SAVEDNIPRO_1586",
    "cityName": "Tetiiv",
    "stationName": "Street Yanusha Ostrozkoho, 5",
    "localName": "",
    "latitude": "49.371778",
    "longitude": "29.679528",
    "humidity": 66.19,
    "PM10": 61.98,
    "PM2n5": 10.66,
    "Pressure": 1020,
    "Temperature": 7,
    "AirQualityIndex": 189.82,
    "localId": 145
  },
  {
    "id": "SAVEDNIPRO_1587",
    "cityName": "Snovsk",
    "stationName": "Street Nezalezhnosti, 19",
    "localName": "",
    "latitude": "51.819637",
    "longitude": "31.942129",
    "humidity": 35.36,
    "PM10": 60.23,
    "PM2n5": 18.74,
    "Pressure": 1016,
    "Temperature": 10,
    "AirQualityIndex": 179.19,
    "localId": 146
  },
  {
    "id": "SAVEDNIPRO_1588",
    "cityName": "Sosnytsia",
    "stationName": "Street Osvity, 21A",
    "localName": "",
    "latitude": "51.524997",
    "longitude": "32.510375",
    "humidity": 55.06,
    "PM10": 64.34,
    "PM2n5": 16.38,
    "Pressure": 987,
    "Temperature": 8,
    "AirQualityIndex": 46.94,
    "localId": 147
  },
  {
    "id": "SAVEDNIPRO_1589",
    "cityName": "Kiliia",
    "stationName": "Street Dunaiska, 92",
    "localName": "",
    "latitude": "45.452392",
    "longitude": "29.261819",
    "humidity": 28.05,
    "PM10": 40.96,
    "PM2n5": 5.41,
    "Pressure": 1003,
    "Temperature": 9,
    "AirQualityIndex": 38.84,
    "localId": 148
  },
  {
    "id": "SAVEDNIPRO_1590",
    "cityName": "Yuzhne",
    "stationName": "prospekt Hryhorivskoho Desanta, 18",
    "localName": "",
    "latitude": "46.621765",
    "longitude": "31.101823",
    "humidity": 58.1,
    "PM10": 44.63,
    "PM2n5": 7.34,
    "Pressure": 997,
    "Temperature": 10,
    "AirQualityIndex": 80.44,
    "localId": 149
  },
  {
    "id": "SAVEDNIPRO_1592",
    "cityName": "Novoukrainka",
    "stationName": "Street Pokrovska, 70",
    "localName": "",
    "latitude": "48.316617",
    "longitude": "31.523581",
    "humidity": 66.34,
    "PM10": 28.38,
    "PM2n5": 12.02,
    "Pressure": 998,
    "Temperature": 10,
    "AirQualityIndex": 52.3,
    "localId": 150
  },
  {
    "id": "SAVEDNIPRO_1593",
    "cityName": "Vasylkivka",
    "stationName": "Vasylkivka",
    "localName": "",
    "latitude": "48.217358",
    "longitude": "36.011523",
    "humidity": 62.73,
    "PM10": 56.55,
    "PM2n5": 16.35,
    "Pressure": 1006,
    "Temperature": 5,
    "AirQualityIndex": 189.67,
    "localId": 151
  },
  {
    "id": "SAVEDNIPRO_1595",
    "cityName": "Kulykivka",
    "stationName": "Street Myru, 67",
    "localName": "",
    "latitude": "51.373776",
    "longitude": "31.645106",
    "humidity": 60.31,
    "PM10": 45.69,
    "PM2n5": 11.45,
    "Pressure": 981,
    "Temperature": 9,
    "AirQualityIndex": 35.37,
    "localId": 152
  },
  {
    "id": "SAVEDNIPRO_1596",
    "cityName": "Mykhailivka",
    "stationName": "Street Shevchenka, 31",
    "localName": "",
    "latitude": "46.585535",
    "longitude": "34.562095",
    "humidity": 52.38,
    "PM10": 2.59,
    "PM2n5": 1.56,
    "Pressure": 1010,
    "Temperature": 10,
    "AirQualityIndex": 51.57,
    "localId": 153
  },
  {
    "id": "SAVEDNIPRO_1597",
    "cityName": "Fastiv",
    "stationName": "Street Trudova, 32",
    "localName": "",
    "latitude": "50.062178",
    "longitude": "29.918784",
    "humidity": 44.91,
    "PM10": 75.01,
    "PM2n5": 4.19,
    "Pressure": 1007,
    "Temperature": 8,
    "AirQualityIndex": 74.07,
    "localId": 154
  },
  {
    "id": "SAVEDNIPRO_1601",
    "cityName": "Bilhorod-Dnistrovskyi",
    "stationName": "Street Peremohy, 25",
    "localName": "",
    "latitude": "46.181611",
    "longitude": "30.362611",
    "humidity": 72.63,
    "PM10": 32.19,
    "PM2n5": 2.58,
    "Pressure": 996,
    "Temperature": 10,
    "AirQualityIndex": 185.52,
    "localId": 155
  },
  {
    "id": "SAVEDNIPRO_1602",
    "cityName": "Zatoka",
    "stationName": "Street Prymorska, 20",
    "localName": "",
    "latitude": "46.067602",
    "longitude": "30.457430",
    "humidity": 28.4,
    "PM10": 56.21,
    "PM2n5": 2.25,
    "Pressure": 1003,
    "Temperature": 11,
    "AirQualityIndex": 120.69,
    "localId": 156
  },
  {
    "id": "SAVEDNIPRO_1603",
    "cityName": "Verkhovyna",
    "stationName": "Street Ivana Franka, 3",
    "localName": "",
    "latitude": "48.155409",
    "longitude": "24.829758",
    "humidity": 59.28,
    "PM10": 46.77,
    "PM2n5": 11.85,
    "Pressure": 1012,
    "Temperature": 6,
    "AirQualityIndex": 99.98,
    "localId": 157
  },
  {
    "id": "SAVEDNIPRO_1604",
    "cityName": "Vorokhta",
    "stationName": "Street Danyla Halytsoho, 41",
    "localName": "",
    "latitude": "48.292875",
    "longitude": "24.563048",
    "humidity": 54.94,
    "PM10": 11.62,
    "PM2n5": 2.33,
    "Pressure": 1008,
    "Temperature": 7,
    "AirQualityIndex": 188.02,
    "localId": 158
  },
  {
    "id": "SAVEDNIPRO_1605",
    "cityName": "Yasinia",
    "stationName": "Street Myru, 6",
    "localName": "",
    "latitude": "48.271480",
    "longitude": "24.360622",
    "humidity": 41.34,
    "PM10": 43.5,
    "PM2n5": 15.51,
    "Pressure": 1002,
    "Temperature": 5,
    "AirQualityIndex": 159.43,
    "localId": 159
  },
  {
    "id": "SAVEDNIPRO_1606",
    "cityName": "Kosiv",
    "stationName": "maidan Nezalezhnosti, 11",
    "localName": "",
    "latitude": "48.320237",
    "longitude": "25.091142",
    "humidity": 58.42,
    "PM10": 57.31,
    "PM2n5": 7.48,
    "Pressure": 1004,
    "Temperature": 6,
    "AirQualityIndex": 166.25,
    "localId": 160
  },
  {
    "id": "SAVEDNIPRO_1607",
    "cityName": "Yaremche",
    "stationName": "Street Svobody, 265",
    "localName": "",
    "latitude": "48.448912",
    "longitude": "24.553462",
    "humidity": 44.97,
    "PM10": 79.54,
    "PM2n5": 15.96,
    "Pressure": 994,
    "Temperature": 5,
    "AirQualityIndex": 166.85,
    "localId": 161
  },
  {
    "id": "SAVEDNIPRO_1637",
    "cityName": "Maniava",
    "stationName": "Street Nezalezhnosti, 20",
    "localName": "",
    "latitude": "48.653396",
    "longitude": "24.374891",
    "humidity": 37.83,
    "PM10": 19.2,
    "PM2n5": 19.07,
    "Pressure": 1000,
    "Temperature": 7,
    "AirQualityIndex": 189.71,
    "localId": 162
  },
  {
    "id": "SAVEDNIPRO_1638",
    "cityName": "Cherkasy",
    "stationName": "provulok Krainii, 24",
    "localName": "",
    "latitude": "49.4058272",
    "longitude": "32.0392034",
    "humidity": 29.7,
    "PM10": 61.41,
    "PM2n5": 12.48,
    "Pressure": 1002,
    "Temperature": 11,
    "AirQualityIndex": 113.2,
    "localId": 163
  },
  {
    "id": "SAVEDNIPRO_1639",
    "cityName": "Tomashpil",
    "stationName": "ploshcha Tarasa Shevchenka, 1",
    "localName": "",
    "latitude": "48.536566",
    "longitude": "28.513644",
    "humidity": 46.1,
    "PM10": 35.11,
    "PM2n5": 17.28,
    "Pressure": 1013,
    "Temperature": 9,
    "AirQualityIndex": 67.73,
    "localId": 164
  },
  {
    "id": "SAVEDNIPRO_1645",
    "cityName": "Bilshivtsi",
    "stationName": "Street Striletska, 5",
    "localName": "",
    "latitude": "49.182508",
    "longitude": "24.743334",
    "humidity": 39.52,
    "PM10": 30.11,
    "PM2n5": 18.45,
    "Pressure": 1014,
    "Temperature": 9,
    "AirQualityIndex": 74.61,
    "localId": 165
  },
  {
    "id": "SAVEDNIPRO_1646",
    "cityName": "Zaozerne",
    "stationName": "Street Shkilna, 59",
    "localName": "",
    "latitude": "48.690250",
    "longitude": "29.155364",
    "humidity": 65.12,
    "PM10": 19.32,
    "PM2n5": 2.6,
    "Pressure": 1008,
    "Temperature": 6,
    "AirQualityIndex": 174.57,
    "localId": 166
  },
  {
    "id": "SAVEDNIPRO_2738",
    "cityName": "Zaporizhzhia",
    "stationName": "Street Sviatoho Mykolaia 67",
    "localName": "",
    "latitude": "47.8159538",
    "longitude": "35.1734128",
    "humidity": 55.03,
    "PM10": 33.82,
    "PM2n5": 2.45,
    "Pressure": 1015,
    "Temperature": 6,
    "AirQualityIndex": 49.01,
    "localId": 167
  },
  {
    "id": "SAVEDNIPRO_2923",
    "cityName": "Petropavlivska Borshchahivka",
    "stationName": "Street Lvivska, 1A, k.4-2",
    "localName": "",
    "latitude": "50.433252",
    "longitude": "30.319928",
    "humidity": 44.7,
    "PM10": 28.74,
    "PM2n5": 13.45,
    "Pressure": 999,
    "Temperature": 9,
    "AirQualityIndex": 144.17,
    "localId": 168
  },
  {
    "id": "SAVEDNIPRO_2924",
    "cityName": "Kyiv",
    "stationName": "Street Heroiv Oborony, 13",
    "localName": "",
    "latitude": "50.383883",
    "longitude": "30.496689",
    "humidity": 40.53,
    "PM10": 7.69,
    "PM2n5": 12.48,
    "Pressure": 1004,
    "Temperature": 9,
    "AirQualityIndex": 188.88,
    "localId": 169
  },
  {
    "id": "SAVEDNIPRO_2925",
    "cityName": "Kyiv",
    "stationName": "Street Tykhoritska, 30/7",
    "localName": "",
    "latitude": "50.4003378",
    "longitude": "30.4966682",
    "humidity": 62.31,
    "PM10": 13.22,
    "PM2n5": 14.74,
    "Pressure": 1018,
    "Temperature": 8,
    "AirQualityIndex": 123.59,
    "localId": 170
  },
  {
    "id": "SAVEDNIPRO_2944",
    "cityName": "Nadvirna",
    "stationName": "Street Soborna, 120",
    "localName": "",
    "latitude": "48.613466",
    "longitude": "24.575289",
    "humidity": 32.17,
    "PM10": 2.5,
    "PM2n5": 1.89,
    "Pressure": 1004,
    "Temperature": 10,
    "AirQualityIndex": 22.26,
    "localId": 171
  },
  {
    "id": "SAVEDNIPRO_2946",
    "cityName": "Verkhovyna",
    "stationName": "Street Kryvets",
    "localName": "",
    "latitude": "48.147531",
    "longitude": "24.785409",
    "humidity": 47.09,
    "PM10": 38.04,
    "PM2n5": 6.2,
    "Pressure": 1001,
    "Temperature": 7,
    "AirQualityIndex": 101.11,
    "localId": 172
  },
  {
    "id": "SAVEDNIPRO_2947",
    "cityName": "Kyiv",
    "stationName": "Street Desiatynna, 13",
    "localName": "",
    "latitude": "50.382794",
    "longitude": "30.457889",
    "humidity": 73.49,
    "PM10": 20.12,
    "PM2n5": 12.79,
    "Pressure": 1017,
    "Temperature": 11,
    "AirQualityIndex": 39.41,
    "localId": 173
  },
  {
    "id": "SAVEDNIPRO_2948",
    "cityName": "Dachne",
    "stationName": "provulok Aptechnyi, 5",
    "localName": "",
    "latitude": "46.582371",
    "longitude": "30.550164",
    "humidity": 44.11,
    "PM10": 70.52,
    "PM2n5": 10.39,
    "Pressure": 993,
    "Temperature": 6,
    "AirQualityIndex": 113.8,
    "localId": 174
  },
  {
    "id": "SAVEDNIPRO_2971",
    "cityName": "Nadvirna",
    "stationName": "Street Danyla Halytskoho",
    "localName": "",
    "latitude": "48.637791",
    "longitude": "24.589826",
    "humidity": 38.53,
    "PM10": 13.79,
    "PM2n5": 17.44,
    "Pressure": 991,
    "Temperature": 8,
    "AirQualityIndex": 145.82,
    "localId": 175
  },
  {
    "id": "SAVEDNIPRO_2972",
    "cityName": "Tatariv",
    "stationName": "urochyshche Pihy, 660",
    "localName": "",
    "latitude": "48.334527",
    "longitude": "24.581930",
    "humidity": 49.08,
    "PM10": 75.81,
    "PM2n5": 14.05,
    "Pressure": 988,
    "Temperature": 7,
    "AirQualityIndex": 155.49,
    "localId": 176
  },
  {
    "id": "SAVEDNIPRO_2973",
    "cityName": "Kyiv",
    "stationName": "2-y Tupykovyi provulok, 18",
    "localName": "",
    "latitude": "50.3683248",
    "longitude": "30.6842978",
    "humidity": 36.04,
    "PM10": 71.55,
    "PM2n5": 13.41,
    "Pressure": 985,
    "Temperature": 7,
    "AirQualityIndex": 128.42,
    "localId": 177
  },
  {
    "id": "SAVEDNIPRO_2974",
    "cityName": "Dnipro",
    "stationName": "prospekt Bohdana Khmelnytskoho, 156",
    "localName": "",
    "latitude": "48.389709",
    "longitude": "34.999168",
    "humidity": 38.67,
    "PM10": 11.57,
    "PM2n5": 17.15,
    "Pressure": 986,
    "Temperature": 8,
    "AirQualityIndex": 75.14,
    "localId": 178
  },
  {
    "id": "SAVEDNIPRO_3014",
    "cityName": "Brovary",
    "stationName": "Street Haidamatska, 33",
    "localName": "",
    "latitude": "50.496656",
    "longitude": "30.744022",
    "humidity": 26.4,
    "PM10": 64.26,
    "PM2n5": 2.93,
    "Pressure": 994,
    "Temperature": 9,
    "AirQualityIndex": 142.17,
    "localId": 179
  },
  {
    "id": "SAVEDNIPRO_3015",
    "cityName": "Peremoha",
    "stationName": "Street Korolova, 10",
    "localName": "",
    "latitude": "50.542000",
    "longitude": "30.825502",
    "humidity": 58.48,
    "PM10": 4.91,
    "PM2n5": 13.59,
    "Pressure": 1005,
    "Temperature": 11,
    "AirQualityIndex": 96.45,
    "localId": 180
  },
  {
    "id": "SAVEDNIPRO_3016",
    "cityName": "Kyiv",
    "stationName": "Street Budindustrii, 4",
    "localName": "",
    "latitude": "50.402528",
    "longitude": "30.568056",
    "humidity": 37.59,
    "PM10": 56.22,
    "PM2n5": 17.43,
    "Pressure": 1012,
    "Temperature": 10,
    "AirQualityIndex": 118.17,
    "localId": 181
  },
  {
    "id": "SAVEDNIPRO_3017",
    "cityName": "Illinivka",
    "stationName": "Street Krynychna, 32",
    "localName": "",
    "latitude": "48.491370",
    "longitude": "37.673650",
    "humidity": 25.28,
    "PM10": 69.41,
    "PM2n5": 14.68,
    "Pressure": 1012,
    "Temperature": 7,
    "AirQualityIndex": 99.32,
    "localId": 182
  },
  {
    "id": "SAVEDNIPRO_3018",
    "cityName": "Kyiv",
    "stationName": "Street Zhylianska, 30A",
    "localName": "",
    "latitude": "50.434808",
    "longitude": "30.510823",
    "humidity": 39.74,
    "PM10": 3.02,
    "PM2n5": 17.97,
    "Pressure": 990,
    "Temperature": 5,
    "AirQualityIndex": 46.22,
    "localId": 183
  },
  {
    "id": "SAVEDNIPRO_3021",
    "cityName": "Mykolaiv",
    "stationName": "Street Metalurhiv 8",
    "localName": "",
    "latitude": "46.868088",
    "longitude": "32.009947",
    "humidity": 54.02,
    "PM10": 17.08,
    "PM2n5": 11.44,
    "Pressure": 1001,
    "Temperature": 6,
    "AirQualityIndex": 61.99,
    "localId": 184
  },
  {
    "id": "SAVEDNIPRO_3022",
    "cityName": "Dnipro",
    "stationName": "Street Nakhimova 41",
    "localName": "",
    "latitude": "48.4464278",
    "longitude": "35.0151460",
    "humidity": 37.25,
    "PM10": 71.06,
    "PM2n5": 15.1,
    "Pressure": 988,
    "Temperature": 9,
    "AirQualityIndex": 63.54,
    "localId": 185
  },
  {
    "id": "SAVEDNIPRO_3144",
    "cityName": "Svydivok",
    "stationName": "Street Sydorchuka, 37",
    "localName": "",
    "latitude": "49.512636",
    "longitude": "31.906911",
    "humidity": 36.59,
    "PM10": 58.01,
    "PM2n5": 3.32,
    "Pressure": 1006,
    "Temperature": 6,
    "AirQualityIndex": 119,
    "localId": 186
  },
  {
    "id": "SAVEDNIPRO_3210",
    "cityName": "Vyshneve",
    "stationName": "Street Pershotravneva, 21",
    "localName": "Luftdaten #40723",
    "latitude": "50.382",
    "longitude": "30.38",
    "humidity": 56.51,
    "PM10": 14.63,
    "PM2n5": 11.45,
    "Pressure": 987,
    "Temperature": 9,
    "AirQualityIndex": 41.41,
    "localId": 187
  },
  {
    "id": "SAVEDNIPRO_3260",
    "cityName": "Cherkasy",
    "stationName": "Street 30-richchia Peremohy, 38",
    "localName": "",
    "latitude": "49.4255539915765",
    "longitude": "32.01328954180976",
    "humidity": 33.65,
    "PM10": 26.33,
    "PM2n5": 16.33,
    "Pressure": 998,
    "Temperature": 9,
    "AirQualityIndex": 29.19,
    "localId": 188
  },
  {
    "id": "SAVEDNIPRO_3262",
    "cityName": "Cherkasy",
    "stationName": "bulvar Shevchenko, 460",
    "localName": "",
    "latitude": "49.422005",
    "longitude": "32.096475",
    "humidity": 41.43,
    "PM10": 9.5,
    "PM2n5": 2.04,
    "Pressure": 1002,
    "Temperature": 11,
    "AirQualityIndex": 126.93,
    "localId": 189
  },
  {
    "id": "SAVEDNIPRO_3263",
    "cityName": "Cherkasy",
    "stationName": "Street Baidy Vyshnevetskoho, 49",
    "localName": "",
    "latitude": "49.442538",
    "longitude": "32.056531",
    "humidity": 56.44,
    "PM10": 6.41,
    "PM2n5": 17.12,
    "Pressure": 987,
    "Temperature": 5,
    "AirQualityIndex": 69.31,
    "localId": 190
  },
  {
    "id": "SAVEDNIPRO_3264",
    "cityName": "Cherkasy",
    "stationName": "Street Pakhariv Khutir, 29",
    "localName": "",
    "latitude": "49.456974",
    "longitude": "32.007218",
    "humidity": 60.56,
    "PM10": 17.73,
    "PM2n5": 8.03,
    "Pressure": 1007,
    "Temperature": 7,
    "AirQualityIndex": 20.49,
    "localId": 191
  },
  {
    "id": "SAVEDNIPRO_3306",
    "cityName": "Kyiv",
    "stationName": "Street Lavrska, 8",
    "localName": "",
    "latitude": "50.436484",
    "longitude": "30.552905",
    "humidity": 69.88,
    "PM10": 18.39,
    "PM2n5": 2.88,
    "Pressure": 989,
    "Temperature": 7,
    "AirQualityIndex": 118.61,
    "localId": 192
  },
  {
    "id": "SAVEDNIPRO_3398",
    "cityName": "Kyiv",
    "stationName": "Street Vasylia Tiutiunnyka, 53",
    "localName": "",
    "latitude": "50.417128",
    "longitude": "30.528690",
    "humidity": 26.29,
    "PM10": 65.26,
    "PM2n5": 7.62,
    "Pressure": 1005,
    "Temperature": 6,
    "AirQualityIndex": 160.21,
    "localId": 193
  },
  {
    "id": "SAVEDNIPRO_3401",
    "cityName": "Kyiv",
    "stationName": "Street Yelyzavety Chavdar, 6",
    "localName": "",
    "latitude": "50.3915128",
    "longitude": "30.6237862",
    "humidity": 73.23,
    "PM10": 28.99,
    "PM2n5": 8.26,
    "Pressure": 993,
    "Temperature": 9,
    "AirQualityIndex": 48.67,
    "localId": 194
  },
  {
    "id": "SAVEDNIPRO_3418",
    "cityName": "Kremenets",
    "stationName": "Street Slovatskoho",
    "localName": "",
    "latitude": "50.095595",
    "longitude": "25.722824",
    "humidity": 31.88,
    "PM10": 7.77,
    "PM2n5": 3.18,
    "Pressure": 987,
    "Temperature": 9,
    "AirQualityIndex": 195.73,
    "localId": 195
  },
  {
    "id": "SAVEDNIPRO_3419",
    "cityName": "Petropavlivska Borshchahivka",
    "stationName": "Street Dnipropetrovska",
    "localName": "",
    "latitude": "50.4218146",
    "longitude": "30.3273005",
    "humidity": 30.85,
    "PM10": 22.51,
    "PM2n5": 9.22,
    "Pressure": 993,
    "Temperature": 9,
    "AirQualityIndex": 192.12,
    "localId": 196
  },
  {
    "id": "SAVEDNIPRO_3420",
    "cityName": "Lviv",
    "stationName": "Street Zelena, 27",
    "localName": "",
    "latitude": "49.833325",
    "longitude": "24.039184",
    "humidity": 74.48,
    "PM10": 69.89,
    "PM2n5": 7.34,
    "Pressure": 1013,
    "Temperature": 7,
    "AirQualityIndex": 140.14,
    "localId": 197
  },
  {
    "id": "SAVEDNIPRO_3422",
    "cityName": "Kyiv",
    "stationName": "bulvar Perova, 10A",
    "localName": "",
    "latitude": "50.471205",
    "longitude": "30.598600",
    "humidity": 74.11,
    "PM10": 16.1,
    "PM2n5": 11.08,
    "Pressure": 1004,
    "Temperature": 11,
    "AirQualityIndex": 56.59,
    "localId": 198
  },
  {
    "id": "SAVEDNIPRO_3423",
    "cityName": "Kozyn",
    "stationName": "Street Zarichna, 4",
    "localName": "",
    "latitude": "50.234897",
    "longitude": "30.663275",
    "humidity": 67.3,
    "PM10": 67.55,
    "PM2n5": 10.84,
    "Pressure": 998,
    "Temperature": 7,
    "AirQualityIndex": 145.42,
    "localId": 199
  },
  {
    "id": "SAVEDNIPRO_3424",
    "cityName": "Vyshenky",
    "stationName": "Street Velyka Naberezhna",
    "localName": "",
    "latitude": "50.2850885",
    "longitude": "30.6995002",
    "humidity": 51.39,
    "PM10": 61.08,
    "PM2n5": 5.43,
    "Pressure": 1003,
    "Temperature": 8,
    "AirQualityIndex": 120.86,
    "localId": 200
  },
  {
    "id": "SAVEDNIPRO_3535",
    "cityName": "Kyiv",
    "stationName": "Street Sovska, 23",
    "localName": "",
    "latitude": "50.397128",
    "longitude": "30.455709",
    "humidity": 31.61,
    "PM10": 33.06,
    "PM2n5": 14.34,
    "Pressure": 995,
    "Temperature": 10,
    "AirQualityIndex": 73.55,
    "localId": 201
  },
  {
    "id": "SAVEDNIPRO_3572",
    "cityName": "Kyiv",
    "stationName": "Street Mykhaila Drahomanova, 17",
    "localName": "",
    "latitude": "50.409345",
    "longitude": "30.639613",
    "humidity": 70.41,
    "PM10": 11.44,
    "PM2n5": 15.84,
    "Pressure": 997,
    "Temperature": 9,
    "AirQualityIndex": 3.38,
    "localId": 202
  },
  {
    "id": "SAVEDNIPRO_3594",
    "cityName": "Baranivka",
    "stationName": "Street Ivana Franka, 1A",
    "localName": "",
    "latitude": "50.287114",
    "longitude": "27.648709",
    "humidity": 60.34,
    "PM10": 73.08,
    "PM2n5": 14.21,
    "Pressure": 1002,
    "Temperature": 6,
    "AirQualityIndex": 64.69,
    "localId": 203
  },
  {
    "id": "SAVEDNIPRO_3595",
    "cityName": "Dnipro",
    "stationName": "Street Vysokovoltna, 14m",
    "localName": "",
    "latitude": "48.423869",
    "longitude": "35.031133",
    "humidity": 51.28,
    "PM10": 1.08,
    "PM2n5": 15.94,
    "Pressure": 1017,
    "Temperature": 8,
    "AirQualityIndex": 126.06,
    "localId": 204
  },
  {
    "id": "SAVEDNIPRO_3596",
    "cityName": "Horishni Plavni",
    "stationName": "Street Horkoho, 195",
    "localName": "",
    "latitude": "49.034799",
    "longitude": "33.564750",
    "humidity": 65.68,
    "PM10": 31.23,
    "PM2n5": 5.98,
    "Pressure": 988,
    "Temperature": 6,
    "AirQualityIndex": 165.3,
    "localId": 205
  },
  {
    "id": "SAVEDNIPRO_3597",
    "cityName": "Khotiv",
    "stationName": "Street Lisova, 34",
    "localName": "",
    "latitude": "50.3328803",
    "longitude": "30.4440768",
    "humidity": 34.17,
    "PM10": 72.64,
    "PM2n5": 5.86,
    "Pressure": 998,
    "Temperature": 11,
    "AirQualityIndex": 145.32,
    "localId": 206
  },
  {
    "id": "SAVEDNIPRO_3605",
    "cityName": "Dnipro",
    "stationName": "Street Molodohvardiiska, 18",
    "localName": "",
    "latitude": "48.476547",
    "longitude": "35.117154",
    "humidity": 26.1,
    "PM10": 5.75,
    "PM2n5": 17.73,
    "Pressure": 989,
    "Temperature": 6,
    "AirQualityIndex": 195.4,
    "localId": 207
  },
  {
    "id": "SAVEDNIPRO_3608",
    "cityName": "Dnipro",
    "stationName": "Street 20-richchia Peremohy, 43",
    "localName": "",
    "latitude": "48.416020",
    "longitude": "35.132420",
    "humidity": 60.01,
    "PM10": 75.4,
    "PM2n5": 7.73,
    "Pressure": 995,
    "Temperature": 8,
    "AirQualityIndex": 103.44,
    "localId": 208
  },
  {
    "id": "SAVEDNIPRO_3616",
    "cityName": "Dnipro",
    "stationName": "Street Topolyna, 35",
    "localName": "",
    "latitude": "48.391809",
    "longitude": "35.021741",
    "humidity": 73.76,
    "PM10": 17.82,
    "PM2n5": 14.87,
    "Pressure": 998,
    "Temperature": 11,
    "AirQualityIndex": 152.46,
    "localId": 209
  },
  {
    "id": "SAVEDNIPRO_3617",
    "cityName": "Dnipro",
    "stationName": "Street Chernyshevskoho, 24A",
    "localName": "",
    "latitude": "48.453418",
    "longitude": "35.053162",
    "humidity": 57.77,
    "PM10": 5.38,
    "PM2n5": 15.28,
    "Pressure": 1016,
    "Temperature": 8,
    "AirQualityIndex": 7.09,
    "localId": 210
  },
  {
    "id": "SAVEDNIPRO_3683",
    "cityName": "Krekhaiv",
    "stationName": "Sadove tovarystvo Khimik",
    "localName": "",
    "latitude": "50.783955",
    "longitude": "30.769977",
    "humidity": 68.29,
    "PM10": 53.86,
    "PM2n5": 5.89,
    "Pressure": 984,
    "Temperature": 5,
    "AirQualityIndex": 23.6,
    "localId": 211
  },
  {
    "id": "SAVEDNIPRO_4061",
    "cityName": "Dnipro",
    "stationName": "Donetske shose, 1",
    "localName": "",
    "latitude": "48.5104497",
    "longitude": "34.9874743",
    "humidity": 73.09,
    "PM10": 32.04,
    "PM2n5": 8.09,
    "Pressure": 1005,
    "Temperature": 7,
    "AirQualityIndex": 189.86,
    "localId": 212
  },
  {
    "id": "SAVEDNIPRO_4185",
    "cityName": "Rozhivka",
    "stationName": "Street Slavy, 17",
    "localName": "",
    "latitude": "50.600621",
    "longitude": "30.761064",
    "humidity": 34.24,
    "PM10": 54.33,
    "PM2n5": 9.44,
    "Pressure": 995,
    "Temperature": 6,
    "AirQualityIndex": 69.51,
    "localId": 213
  },
  {
    "id": "SAVEDNIPRO_4186",
    "cityName": "Ukrainka",
    "stationName": "Street Sosnova",
    "localName": "",
    "latitude": "50.155032",
    "longitude": "30.746305",
    "humidity": 63.9,
    "PM10": 64.47,
    "PM2n5": 17.98,
    "Pressure": 1003,
    "Temperature": 11,
    "AirQualityIndex": 12.34,
    "localId": 214
  },
  {
    "id": "SAVEDNIPRO_4187",
    "cityName": "Brovary",
    "stationName": "Street Oleksiia Bolshechenka, 7",
    "localName": "",
    "latitude": "50.519816",
    "longitude": "30.774017",
    "humidity": 26.86,
    "PM10": 56.78,
    "PM2n5": 7.59,
    "Pressure": 982,
    "Temperature": 7,
    "AirQualityIndex": 79.6,
    "localId": 215
  },
  {
    "id": "SAVEDNIPRO_4189",
    "cityName": "Kharkiv",
    "stationName": "prospekt Nauky, 43",
    "localName": "",
    "latitude": "50.033602",
    "longitude": "36.220648",
    "humidity": 62.43,
    "PM10": 3.39,
    "PM2n5": 5.47,
    "Pressure": 996,
    "Temperature": 11,
    "AirQualityIndex": 89.88,
    "localId": 216
  },
  {
    "id": "SAVEDNIPRO_4190",
    "cityName": "Vita-Poshtova",
    "stationName": "Street Ozerna",
    "localName": "",
    "latitude": "50.307679",
    "longitude": "30.363271",
    "humidity": 65.56,
    "PM10": 69.97,
    "PM2n5": 4.41,
    "Pressure": 987,
    "Temperature": 6,
    "AirQualityIndex": 65.13,
    "localId": 217
  },
  {
    "id": "SAVEDNIPRO_4200",
    "cityName": "Dnipro",
    "stationName": "Street Hidroparkova, 9",
    "localName": "",
    "latitude": "48.478241",
    "longitude": "34.903792",
    "humidity": 51.17,
    "PM10": 63.57,
    "PM2n5": 15.63,
    "Pressure": 1008,
    "Temperature": 10,
    "AirQualityIndex": 75.78,
    "localId": 218
  },
  {
    "id": "SAVEDNIPRO_4201",
    "cityName": "Kyiv",
    "stationName": "Street Pavla Pototskoho",
    "localName": "",
    "latitude": "50.3963897",
    "longitude": "30.4485849",
    "humidity": 26.7,
    "PM10": 15.86,
    "PM2n5": 7.91,
    "Pressure": 999,
    "Temperature": 9,
    "AirQualityIndex": 155.51,
    "localId": 219
  },
  {
    "id": "SAVEDNIPRO_4202",
    "cityName": "Nova Kakhovka",
    "stationName": "Street Paryzkoi komuny",
    "localName": "",
    "latitude": "46.757534",
    "longitude": "33.369862",
    "humidity": 71.18,
    "PM10": 2.85,
    "PM2n5": 19.96,
    "Pressure": 991,
    "Temperature": 10,
    "AirQualityIndex": 70.41,
    "localId": 220
  },
  {
    "id": "SAVEDNIPRO_4208",
    "cityName": "Dnipro",
    "stationName": "Street Berdianska, 1",
    "localName": "",
    "latitude": "48.487060",
    "longitude": "35.066893",
    "humidity": 73.26,
    "PM10": 17.79,
    "PM2n5": 5.02,
    "Pressure": 986,
    "Temperature": 9,
    "AirQualityIndex": 164.02,
    "localId": 221
  },
  {
    "id": "SAVEDNIPRO_4210",
    "cityName": "Dnipro",
    "stationName": "prospekt Bohdana Khmelnytskoho, 229",
    "localName": "",
    "latitude": "48.373500",
    "longitude": "34.995097",
    "humidity": 58.32,
    "PM10": 12.24,
    "PM2n5": 11.28,
    "Pressure": 1018,
    "Temperature": 8,
    "AirQualityIndex": 109.58,
    "localId": 222
  },
  {
    "id": "SAVEDNIPRO_4232",
    "cityName": "Kyiv",
    "stationName": "Street Desiatynna, 13",
    "localName": "",
    "latitude": "50.457508",
    "longitude": "30.519401",
    "humidity": 62.25,
    "PM10": 22.5,
    "PM2n5": 6.96,
    "Pressure": 1020,
    "Temperature": 11,
    "AirQualityIndex": 143.71,
    "localId": 223
  },
  {
    "id": "SAVEDNIPRO_13405",
    "cityName": "Roslavychi",
    "stationName": "KH Berezovaia roshcha",
    "localName": "",
    "latitude": "50.266944",
    "longitude": "30.443000",
    "humidity": 42.56,
    "PM10": 48.36,
    "PM2n5": 2.39,
    "Pressure": 1017,
    "Temperature": 6,
    "AirQualityIndex": 168.22,
    "localId": 224
  },
  {
    "id": "SAVEDNIPRO_13406",
    "cityName": "Hatne",
    "stationName": "vulytsa Barvinkova, 11a",
    "localName": "",
    "latitude": "50.371506",
    "longitude": "30.422791",
    "humidity": 48.59,
    "PM10": 22.92,
    "PM2n5": 19.7,
    "Pressure": 989,
    "Temperature": 7,
    "AirQualityIndex": 167.16,
    "localId": 225
  },
  {
    "id": "SAVEDNIPRO_13407",
    "cityName": "Kyiv",
    "stationName": "bulvar Darnytskyi, 10",
    "localName": "",
    "latitude": "50.464790",
    "longitude": "30.611383",
    "humidity": 30.66,
    "PM10": 55.73,
    "PM2n5": 13.1,
    "Pressure": 1005,
    "Temperature": 10,
    "AirQualityIndex": 44.76,
    "localId": 226
  },
  {
    "id": "SAVEDNIPRO_13409",
    "cityName": "Severynivka",
    "stationName": "Street Pavla Skoropadskoho",
    "localName": "",
    "latitude": "50.395791",
    "longitude": "29.978961",
    "humidity": 49.53,
    "PM10": 27.08,
    "PM2n5": 10.39,
    "Pressure": 982,
    "Temperature": 10,
    "AirQualityIndex": 54.67,
    "localId": 227
  },
  {
    "id": "SAVEDNIPRO_13411",
    "cityName": "Kozyn",
    "stationName": "Street Starokyivska",
    "localName": "",
    "latitude": "50.257856",
    "longitude": "30.653474",
    "humidity": 62.57,
    "PM10": 70.71,
    "PM2n5": 1.77,
    "Pressure": 1005,
    "Temperature": 11,
    "AirQualityIndex": 126.02,
    "localId": 228
  },
  {
    "id": "SAVEDNIPRO_13413",
    "cityName": "Kyiv",
    "stationName": "Street Hertsena, 35",
    "localName": "",
    "latitude": "50.472750",
    "longitude": "30.463750",
    "humidity": 73.83,
    "PM10": 37.2,
    "PM2n5": 7.85,
    "Pressure": 1016,
    "Temperature": 8,
    "AirQualityIndex": 51.1,
    "localId": 229
  },
  {
    "id": "SAVEDNIPRO_13414",
    "cityName": "Bohuslav",
    "stationName": "Street Ivana Franka, 22/1",
    "localName": "",
    "latitude": "49.537806",
    "longitude": "30.864059",
    "humidity": 27.88,
    "PM10": 73.75,
    "PM2n5": 11.06,
    "Pressure": 1008,
    "Temperature": 9,
    "AirQualityIndex": 181.48,
    "localId": 230
  },
  {
    "id": "SAVEDNIPRO_13419",
    "cityName": "Shevchenkove",
    "stationName": "provulok Yuvileinyi, 7",
    "localName": "",
    "latitude": "50.416389",
    "longitude": "30.241333",
    "humidity": 64.22,
    "PM10": 67.62,
    "PM2n5": 18.58,
    "Pressure": 989,
    "Temperature": 6,
    "AirQualityIndex": 34.69,
    "localId": 231
  },
  {
    "id": "SAVEDNIPRO_13533",
    "cityName": "Vyshenky",
    "stationName": "Zoloche-Provans, 2",
    "localName": "",
    "latitude": "50.298605",
    "longitude": "30.703356",
    "humidity": 60.22,
    "PM10": 76.05,
    "PM2n5": 1.35,
    "Pressure": 989,
    "Temperature": 9,
    "AirQualityIndex": 172.64,
    "localId": 232
  },
  {
    "id": "SAVEDNIPRO_13536",
    "cityName": "Lviv",
    "stationName": "Street Sumska, 10",
    "localName": "",
    "latitude": "49.812327",
    "longitude": "24.036764",
    "humidity": 37.11,
    "PM10": 51.51,
    "PM2n5": 4.57,
    "Pressure": 992,
    "Temperature": 6,
    "AirQualityIndex": 52.63,
    "localId": 233
  },
  {
    "id": "SAVEDNIPRO_13537",
    "cityName": "Kyiv",
    "stationName": "prospekt Beresteiskyi, 67",
    "localName": "",
    "latitude": "50.458610",
    "longitude": "30.410043",
    "humidity": 40.94,
    "PM10": 13.02,
    "PM2n5": 18.31,
    "Pressure": 1009,
    "Temperature": 5,
    "AirQualityIndex": 149.75,
    "localId": 234
  },
  {
    "id": "SAVEDNIPRO_13538",
    "cityName": "Dnipro",
    "stationName": "Street Zooparkova",
    "localName": "",
    "latitude": "48.473475",
    "longitude": "35.195720",
    "humidity": 63.87,
    "PM10": 71.68,
    "PM2n5": 18.59,
    "Pressure": 1013,
    "Temperature": 9,
    "AirQualityIndex": 72.63,
    "localId": 235
  },
  {
    "id": "SAVEDNIPRO_13539",
    "cityName": "Zhovkva",
    "stationName": "Street Kyivska",
    "localName": "",
    "latitude": "50.054100",
    "longitude": "23.956800",
    "humidity": 55.07,
    "PM10": 11.22,
    "PM2n5": 10.2,
    "Pressure": 1017,
    "Temperature": 6,
    "AirQualityIndex": 141.57,
    "localId": 236
  },
  {
    "id": "SAVEDNIPRO_13540",
    "cityName": "Kyiv",
    "stationName": "Street Levitana, 3",
    "localName": "",
    "latitude": "50.375516",
    "longitude": "30.541971",
    "humidity": 32.47,
    "PM10": 75.35,
    "PM2n5": 1.86,
    "Pressure": 1011,
    "Temperature": 7,
    "AirQualityIndex": 61.87,
    "localId": 237
  },
  {
    "id": "SAVEDNIPRO_13710",
    "cityName": "Vyshenky",
    "stationName": "Zoloche-Provans, 1",
    "localName": "",
    "latitude": "50.299113",
    "longitude": "30.703047",
    "humidity": 38.7,
    "PM10": 22.12,
    "PM2n5": 5.24,
    "Pressure": 1010,
    "Temperature": 6,
    "AirQualityIndex": 8.99,
    "localId": 238
  },
  {
    "id": "SAVEDNIPRO_13711",
    "cityName": "Petrushky",
    "stationName": "Sadivnytske Tovarystvo \"Yuryst\"",
    "localName": "",
    "latitude": "50.4073682",
    "longitude": "30.1595883",
    "humidity": 71.76,
    "PM10": 74.94,
    "PM2n5": 18.6,
    "Pressure": 1020,
    "Temperature": 11,
    "AirQualityIndex": 163.74,
    "localId": 239
  },
  {
    "id": "SAVEDNIPRO_13715",
    "cityName": "Zvenyhorodka",
    "stationName": "Street Viacheslava Chornovola, 40",
    "localName": "",
    "latitude": "49.0768671",
    "longitude": "30.9639523",
    "humidity": 63.08,
    "PM10": 76.01,
    "PM2n5": 6.39,
    "Pressure": 981,
    "Temperature": 8,
    "AirQualityIndex": 8.24,
    "localId": 240
  },
  {
    "id": "SAVEDNIPRO_13965",
    "cityName": "Kyiv",
    "stationName": "prospekt Akademika Hlushkova, 1P30",
    "localName": "",
    "latitude": "50.3774076",
    "longitude": "30.4815071",
    "humidity": 27.38,
    "PM10": 67.86,
    "PM2n5": 15.53,
    "Pressure": 1014,
    "Temperature": 9,
    "AirQualityIndex": 117.81,
    "localId": 241
  },
  {
    "id": "SAVEDNIPRO_14712",
    "cityName": "Mykolaivka",
    "stationName": "Street Henerala Pushkina, 45",
    "localName": "",
    "latitude": "48.362656",
    "longitude": "34.703311",
    "humidity": 69.64,
    "PM10": 70.8,
    "PM2n5": 1.86,
    "Pressure": 1014,
    "Temperature": 8,
    "AirQualityIndex": 76.53,
    "localId": 242
  },
  {
    "id": "SAVEDNIPRO_14713",
    "cityName": "Cherkasy",
    "stationName": "provulok Sichovyi, 17",
    "localName": "",
    "latitude": "49.428755",
    "longitude": "32.066555",
    "humidity": 72.7,
    "PM10": 65.84,
    "PM2n5": 5.15,
    "Pressure": 1001,
    "Temperature": 5,
    "AirQualityIndex": 116.94,
    "localId": 243
  },
  {
    "id": "SAVEDNIPRO_14714",
    "cityName": "Dnipro",
    "stationName": "Street Naberezhna Zavodska, 44",
    "localName": "",
    "latitude": "48.490444",
    "longitude": "34.985071",
    "humidity": 47.83,
    "PM10": 32.39,
    "PM2n5": 19.63,
    "Pressure": 1016,
    "Temperature": 8,
    "AirQualityIndex": 152.76,
    "localId": 244
  },
  {
    "id": "SAVEDNIPRO_14758",
    "cityName": "Zaporizhzhia",
    "stationName": "Street Nezalezhnoi Ukrainy, 68A",
    "localName": "",
    "latitude": "47.847054111908996",
    "longitude": "35.12933723683439",
    "humidity": 67.69,
    "PM10": 54.21,
    "PM2n5": 7.72,
    "Pressure": 988,
    "Temperature": 8,
    "AirQualityIndex": 29.49,
    "localId": 245
  },
  {
    "id": "SAVEDNIPRO_15702",
    "cityName": "Kluziv",
    "stationName": "Street Spilna",
    "localName": "",
    "latitude": "48.954444",
    "longitude": "24.715858",
    "humidity": 55.28,
    "PM10": 27.28,
    "PM2n5": 3.98,
    "Pressure": 998,
    "Temperature": 11,
    "AirQualityIndex": 16.92,
    "localId": 246
  },
  {
    "id": "SAVEDNIPRO_15703",
    "cityName": "Kruhlyk",
    "stationName": "Street Teremkivska, 10",
    "localName": "",
    "latitude": "50.306289",
    "longitude": "30.420185",
    "humidity": 30.05,
    "PM10": 19.94,
    "PM2n5": 7.94,
    "Pressure": 981,
    "Temperature": 5,
    "AirQualityIndex": 71.23,
    "localId": 247
  },
  {
    "id": "SAVEDNIPRO_15705",
    "cityName": "Kharkiv",
    "stationName": "Street Valentynivska, 24A",
    "localName": "",
    "latitude": "50.012753",
    "longitude": "36.334998",
    "humidity": 29.31,
    "PM10": 35.04,
    "PM2n5": 4.89,
    "Pressure": 984,
    "Temperature": 11,
    "AirQualityIndex": 62.7,
    "localId": 248
  },
  {
    "id": "SAVEDNIPRO_15712",
    "cityName": "Stari Petrivtsi",
    "stationName": "vul. Dachna",
    "localName": "",
    "latitude": "50.642541",
    "longitude": "30.432218",
    "humidity": 42.07,
    "PM10": 73.78,
    "PM2n5": 16.55,
    "Pressure": 998,
    "Temperature": 11,
    "AirQualityIndex": 125.69,
    "localId": 249
  },
  {
    "id": "SAVEDNIPRO_16860",
    "cityName": "Sievierodonetsk",
    "stationName": "75-y mykroraion",
    "localName": "",
    "latitude": "48.946746",
    "longitude": "38.524948",
    "humidity": 65.21,
    "PM10": 65.77,
    "PM2n5": 5.44,
    "Pressure": 1002,
    "Temperature": 5,
    "AirQualityIndex": 168.13,
    "localId": 250
  },
  {
    "id": "SAVEDNIPRO_16862",
    "cityName": "Khotiv",
    "stationName": "vul. Partyzanska, 1A",
    "localName": "",
    "latitude": "50.326409",
    "longitude": "30.470360",
    "humidity": 61.2,
    "PM10": 79.66,
    "PM2n5": 2.74,
    "Pressure": 1010,
    "Temperature": 10,
    "AirQualityIndex": 56.92,
    "localId": 251
  },
  {
    "id": "SAVEDNIPRO_17448",
    "cityName": "Dnipro",
    "stationName": "Street Vykonkomivska, 24B",
    "localName": "",
    "latitude": "48.456973",
    "longitude": "35.047031",
    "humidity": 43.28,
    "PM10": 66.12,
    "PM2n5": 6.68,
    "Pressure": 1015,
    "Temperature": 11,
    "AirQualityIndex": 166.84,
    "localId": 252
  },
  {
    "id": "SAVEDNIPRO_17802",
    "cityName": "Nikopol",
    "stationName": "Street Dovhalivska",
    "localName": "",
    "latitude": "47.576907",
    "longitude": "34.459222",
    "humidity": 63.34,
    "PM10": 26.92,
    "PM2n5": 13.1,
    "Pressure": 1007,
    "Temperature": 11,
    "AirQualityIndex": 188.18,
    "localId": 253
  },
  {
    "id": "SAVEDNIPRO_17817",
    "cityName": "Nizhyn",
    "stationName": "Street Syniakivska, 96",
    "localName": "",
    "latitude": "51.037223",
    "longitude": "31.876354",
    "humidity": 59.08,
    "PM10": 64.39,
    "PM2n5": 6.15,
    "Pressure": 991,
    "Temperature": 10,
    "AirQualityIndex": 39.97,
    "localId": 254
  },
  {
    "id": "SAVEDNIPRO_17865",
    "cityName": "Kolomyia",
    "stationName": "Street Hnata Kovtsuniaka, 2",
    "localName": "",
    "latitude": "48.535159",
    "longitude": "25.034321",
    "humidity": 61.49,
    "PM10": 21.42,
    "PM2n5": 15.13,
    "Pressure": 985,
    "Temperature": 7,
    "AirQualityIndex": 137.93,
    "localId": 255
  },
  {
    "id": "SAVEDNIPRO_17895",
    "cityName": "Odesa",
    "stationName": "Street Akademika Korolova, 81",
    "localName": "",
    "latitude": "46.387139",
    "longitude": "30.723278",
    "humidity": 69.94,
    "PM10": 19.81,
    "PM2n5": 1.52,
    "Pressure": 1007,
    "Temperature": 7,
    "AirQualityIndex": 151.93,
    "localId": 256
  },
  {
    "id": "SAVEDNIPRO_17896",
    "cityName": "Vyshhorod",
    "stationName": "Street Sholudenka, 24",
    "localName": "",
    "latitude": "50.597002",
    "longitude": "30.465978",
    "humidity": 31.41,
    "PM10": 37.84,
    "PM2n5": 18.91,
    "Pressure": 994,
    "Temperature": 7,
    "AirQualityIndex": 19.27,
    "localId": 257
  },
  {
    "id": "SAVEDNIPRO_18420",
    "cityName": "Berezhany",
    "stationName": "ploshcha Rynok",
    "localName": "",
    "latitude": "49.445221",
    "longitude": "24.938534",
    "humidity": 55.15,
    "PM10": 79.73,
    "PM2n5": 9.73,
    "Pressure": 1017,
    "Temperature": 8,
    "AirQualityIndex": 41.3,
    "localId": 258
  },
  {
    "id": "SAVEDNIPRO_18511",
    "cityName": "Kherson",
    "stationName": "Beryslavske shose, 12A",
    "localName": "",
    "latitude": "46.665987",
    "longitude": "32.635329",
    "humidity": 41.06,
    "PM10": 50.41,
    "PM2n5": 14.35,
    "Pressure": 1000,
    "Temperature": 5,
    "AirQualityIndex": 83.75,
    "localId": 259
  },
  {
    "id": "SAVEDNIPRO_18729",
    "cityName": "Mala Oleksandrivka",
    "stationName": "Street Molodizhna, 12",
    "localName": "",
    "latitude": "47.2973894",
    "longitude": "33.2816014",
    "humidity": 35,
    "PM10": 66.11,
    "PM2n5": 17.18,
    "Pressure": 1010,
    "Temperature": 9,
    "AirQualityIndex": 171.4,
    "localId": 260
  },
  {
    "id": "SAVEDNIPRO_18736",
    "cityName": "Mykolaivka",
    "stationName": "Sadivnytske Tovarystvo \"Mekhanik\"",
    "localName": "",
    "latitude": "50.449945",
    "longitude": "30.016305",
    "humidity": 64.25,
    "PM10": 59.57,
    "PM2n5": 13.37,
    "Pressure": 1005,
    "Temperature": 6,
    "AirQualityIndex": 76.19,
    "localId": 261
  },
  {
    "id": "SAVEDNIPRO_18802",
    "cityName": "Kyiv",
    "stationName": "prospekt Beresteiskyi, 30",
    "localName": "",
    "latitude": "50.452248",
    "longitude": "30.464829",
    "humidity": 38.99,
    "PM10": 34.01,
    "PM2n5": 12.63,
    "Pressure": 1003,
    "Temperature": 5,
    "AirQualityIndex": 92.08,
    "localId": 262
  },
  {
    "id": "SAVEDNIPRO_18986",
    "cityName": "Dolishnii Luzhok",
    "stationName": "Dolishnoluzhetska SZSh Drohobytskoi miskoi rady",
    "localName": "",
    "latitude": "49.455202",
    "longitude": "23.377091",
    "humidity": 59.48,
    "PM10": 29.65,
    "PM2n5": 17.87,
    "Pressure": 992,
    "Temperature": 6,
    "AirQualityIndex": 46.84,
    "localId": 263
  },
  {
    "id": "SAVEDNIPRO_19014",
    "cityName": "Dniprorudne",
    "stationName": "Street Heroiv pratsi, 7",
    "localName": "",
    "latitude": "47.385610",
    "longitude": "35.000290",
    "humidity": 54.17,
    "PM10": 25.98,
    "PM2n5": 1.58,
    "Pressure": 990,
    "Temperature": 8,
    "AirQualityIndex": 7.04,
    "localId": 264
  },
  {
    "id": "SAVEDNIPRO_19101",
    "cityName": "Novyi Buh",
    "stationName": "Street Shepelia",
    "localName": "",
    "latitude": "47.6801522",
    "longitude": "32.5082539",
    "humidity": 67.73,
    "PM10": 4.21,
    "PM2n5": 19.17,
    "Pressure": 1013,
    "Temperature": 8,
    "AirQualityIndex": 41.47,
    "localId": 265
  },
  {
    "id": "SAVEDNIPRO_19104",
    "cityName": "Kyiv",
    "stationName": "prospekt Peremohy, 30",
    "localName": "",
    "latitude": "50.452174",
    "longitude": "30.464789",
    "humidity": 41.38,
    "PM10": 26.97,
    "PM2n5": 5.27,
    "Pressure": 992,
    "Temperature": 10,
    "AirQualityIndex": 74.57,
    "localId": 266
  },
  {
    "id": "SAVEDNIPRO_19108",
    "cityName": "Vita-Poshtova",
    "stationName": "Britannica School",
    "localName": "",
    "latitude": "50.333593",
    "longitude": "30.351063",
    "humidity": 61.06,
    "PM10": 42.73,
    "PM2n5": 11.87,
    "Pressure": 1011,
    "Temperature": 9,
    "AirQualityIndex": 43.08,
    "localId": 267
  },
  {
    "id": "SAVEDNIPRO_19116",
    "cityName": "Kyiv",
    "stationName": "Street Lysychanska, 35",
    "localName": "",
    "latitude": "50.411976",
    "longitude": "30.496778",
    "humidity": 72.43,
    "PM10": 47.52,
    "PM2n5": 3.01,
    "Pressure": 1011,
    "Temperature": 10,
    "AirQualityIndex": 5.32,
    "localId": 268
  },
  {
    "id": "SAVEDNIPRO_19117",
    "cityName": "Zaporizhzhia",
    "stationName": "Street Patorzhynskoho",
    "localName": "",
    "latitude": "47.8689649",
    "longitude": "35.2297073",
    "humidity": 46.15,
    "PM10": 68.02,
    "PM2n5": 19,
    "Pressure": 999,
    "Temperature": 6,
    "AirQualityIndex": 141.21,
    "localId": 269
  },
  {
    "id": "SAVEDNIPRO_19179",
    "cityName": "Mariupol",
    "stationName": "Street Novorosiisiiska, 12",
    "localName": "",
    "latitude": "47.067450",
    "longitude": "37.485584",
    "humidity": 28.09,
    "PM10": 18.03,
    "PM2n5": 13.02,
    "Pressure": 984,
    "Temperature": 5,
    "AirQualityIndex": 159.55,
    "localId": 270
  },
  {
    "id": "SAVEDNIPRO_19246",
    "cityName": "Hrushkivtsi",
    "stationName": "Street Peremohy, 32",
    "localName": "",
    "latitude": "49.51477",
    "longitude": "28.44255",
    "humidity": 35.36,
    "PM10": 75.75,
    "PM2n5": 15.38,
    "Pressure": 995,
    "Temperature": 10,
    "AirQualityIndex": 117.84,
    "localId": 271
  },
  {
    "id": "SAVEDNIPRO_19298",
    "cityName": "Chornobai",
    "stationName": "provulok Slynka, 4",
    "localName": "",
    "latitude": "49.666631",
    "longitude": "32.325405",
    "humidity": 73.66,
    "PM10": 63.37,
    "PM2n5": 18.44,
    "Pressure": 997,
    "Temperature": 9,
    "AirQualityIndex": 194.68,
    "localId": 272
  },
  {
    "id": "SAVEDNIPRO_19301",
    "cityName": "Klavdiievo-Tarasove",
    "stationName": "Street Shevchenko, 99",
    "localName": "",
    "latitude": "50.583284162702796",
    "longitude": "29.991048352270333",
    "humidity": 26.35,
    "PM10": 69.1,
    "PM2n5": 9.77,
    "Pressure": 990,
    "Temperature": 10,
    "AirQualityIndex": 172.55,
    "localId": 273
  },
  {
    "id": "SAVEDNIPRO_19306",
    "cityName": "Katerynivka",
    "stationName": "Street Tsentralna, 32A",
    "localName": "",
    "latitude": "47.876249",
    "longitude": "37.344970",
    "humidity": 38.97,
    "PM10": 20.03,
    "PM2n5": 3.28,
    "Pressure": 985,
    "Temperature": 6,
    "AirQualityIndex": 87.59,
    "localId": 274
  },
  {
    "id": "SAVEDNIPRO_19320",
    "cityName": "Novohrodivka",
    "stationName": "Street Parkova, 30",
    "localName": "",
    "latitude": "48.202876",
    "longitude": "37.341606",
    "humidity": 38.53,
    "PM10": 21.49,
    "PM2n5": 16.17,
    "Pressure": 997,
    "Temperature": 11,
    "AirQualityIndex": 145.58,
    "localId": 275
  },
  {
    "id": "SAVEDNIPRO_19387",
    "cityName": "Bereznehuvatske",
    "stationName": "Street Shkolna, 34",
    "localName": "",
    "latitude": "47.747778",
    "longitude": "32.279167",
    "humidity": 71.93,
    "PM10": 32.66,
    "PM2n5": 17.89,
    "Pressure": 980,
    "Temperature": 5,
    "AirQualityIndex": 157.49,
    "localId": 276
  },
  {
    "id": "SAVEDNIPRO_19454",
    "cityName": "Pavlohrad",
    "stationName": "Street Ozerna, 87",
    "localName": "",
    "latitude": "48.536410",
    "longitude": "35.866605",
    "humidity": 25.06,
    "PM10": 51.1,
    "PM2n5": 19.21,
    "Pressure": 1017,
    "Temperature": 6,
    "AirQualityIndex": 67.69,
    "localId": 277
  },
  {
    "id": "SAVEDNIPRO_19476",
    "cityName": "Zymne",
    "stationName": "Street Myru",
    "localName": "",
    "latitude": "50.799637",
    "longitude": "24.327239",
    "humidity": 44.68,
    "PM10": 15.88,
    "PM2n5": 2.81,
    "Pressure": 1003,
    "Temperature": 5,
    "AirQualityIndex": 198.65,
    "localId": 278
  },
  {
    "id": "SAVEDNIPRO_19477",
    "cityName": "Novopokrovka",
    "stationName": "Street Molodizhna, 1",
    "localName": "",
    "latitude": "48.057804",
    "longitude": "34.606344",
    "humidity": 65.03,
    "PM10": 21.2,
    "PM2n5": 16.58,
    "Pressure": 1015,
    "Temperature": 8,
    "AirQualityIndex": 86.16,
    "localId": 279
  },
  {
    "id": "SAVEDNIPRO_19684",
    "cityName": "Rakiv Lis",
    "stationName": "Street Shkilna, 4",
    "localName": "",
    "latitude": "51.621694",
    "longitude": "24.921318",
    "humidity": 61.83,
    "PM10": 11.72,
    "PM2n5": 18.83,
    "Pressure": 997,
    "Temperature": 9,
    "AirQualityIndex": 85.19,
    "localId": 280
  },
  {
    "id": "SAVEDNIPRO_19708",
    "cityName": "Sumy",
    "stationName": "Street Berezova, 28",
    "localName": "",
    "latitude": "50.940911",
    "longitude": "34.746837",
    "humidity": 56.51,
    "PM10": 74.73,
    "PM2n5": 18.54,
    "Pressure": 1011,
    "Temperature": 11,
    "AirQualityIndex": 89.75,
    "localId": 281
  },
  {
    "id": "SAVEDNIPRO_19810",
    "cityName": "Sumy",
    "stationName": "Street Zasumska, 3",
    "localName": "",
    "latitude": "50.9119348",
    "longitude": "34.7949552",
    "humidity": 68.44,
    "PM10": 15.33,
    "PM2n5": 12.71,
    "Pressure": 1013,
    "Temperature": 9,
    "AirQualityIndex": 60.06,
    "localId": 282
  },
  {
    "id": "SAVEDNIPRO_19997",
    "cityName": "Velyki Viknyny",
    "stationName": "Velykoviknynska zahalnoosvitnia shkola I-IIIstupeniv",
    "localName": "",
    "latitude": "49.929920",
    "longitude": "25.868925",
    "humidity": 49.86,
    "PM10": 35.87,
    "PM2n5": 16.31,
    "Pressure": 987,
    "Temperature": 9,
    "AirQualityIndex": 110.25,
    "localId": 283
  },
  {
    "id": "SAVEDNIPRO_20013",
    "cityName": "Pustomyty",
    "stationName": "Street Darii Diachenko, 17",
    "localName": "",
    "latitude": "49.718539",
    "longitude": "23.912361",
    "humidity": 59,
    "PM10": 67.96,
    "PM2n5": 16.21,
    "Pressure": 990,
    "Temperature": 7,
    "AirQualityIndex": 128.18,
    "localId": 284
  },
  {
    "id": "SAVEDNIPRO_20060",
    "cityName": "Korosten",
    "stationName": "Street Mykhaila Hrushevskoho, 22/1",
    "localName": "",
    "latitude": "50.949312",
    "longitude": "28.642018",
    "humidity": 28.92,
    "PM10": 44.66,
    "PM2n5": 11.21,
    "Pressure": 1006,
    "Temperature": 10,
    "AirQualityIndex": 2.3,
    "localId": 285
  },
  {
    "id": "SAVEDNIPRO_20061",
    "cityName": "Kazanka",
    "stationName": "Street Myru, 208",
    "localName": "",
    "latitude": "47.831669",
    "longitude": "32.830301",
    "humidity": 52.76,
    "PM10": 79.04,
    "PM2n5": 8.31,
    "Pressure": 990,
    "Temperature": 9,
    "AirQualityIndex": 155.39,
    "localId": 286
  },