[
  {
    "id": "SAVEDNIPRO_001",
    "cityName": "Dnipro",
    "stationName": "Geroev Avenue, 40",
    "localName": "Save Dnipro #1",
    "latitude": "48.408944",
    "longitude": "35.072505",
    "humidity": 74.81,
    "PM10": 65.02,
    "PM2n5": 15.75,
    "Pressure": 988,
    "Temperature": 1,
    "AirQualityIndex": 168.11,
    "localId": 0
  },
  {
    "id": "SAVEDNIPRO_002",
    "cityName": "Dnipro",
    "stationName": "Pershogo Travnya Street, 7",
    "localName": "Save Dnipro #5",
    "latitude": "48.418962",
    "longitude": "35.009254",
    "humidity": 65.87,
    "PM10": 24.86,
    "PM2n5": 19.72,
    "Pressure": 986,
    "Temperature": 1,
    "AirQualityIndex": 144.18,
    "localId": 1
  },
  {
    "id": "SAVEDNIPRO_003",
    "cityName": "Dnipro",
    "stationName": "Ulyanova Street, 26",
    "localName": "Save Dnipro #3",
    "latitude": "48.46179",
    "longitude": "35.022893",
    "humidity": 69.28,
    "PM10": 71.57,
    "PM2n5": 13.53,
    "Pressure": 985,
    "Temperature": 0,
    "AirQualityIndex": 66.82,
    "localId": 2
  },
  {
    "id": "SAVEDNIPRO_004",
    "cityName": "Dnipro",
    "stationName": "Novokrymskaya Street, 1",
    "localName": "Save Dnipro #2",
    "latitude": "48.428476",
    "longitude": "35.010238",
    "humidity": 35.32,
    "PM10": 5.3,
    "PM2n5": 9.88,
    "Pressure": 1006,
    "Temperature": 1,
    "AirQualityIndex": 53.56,
    "localId": 3
  },
  {
    "id": "SAVEDNIPRO_006",
    "cityName": "Dnipro",
    "stationName": "Pryberezhna Street, 49",
    "localName": "Save Dnipro #4",
    "latitude": "48.405856",
    "longitude": "35.145451",
    "humidity": 27.44,
    "PM10": 68.55,
    "PM2n5": 7.11,
    "Pressure": 990,
    "Temperature": 4,
    "AirQualityIndex": 7.33,
    "localId": 4
  },
  {
    "id": "SAVEDNIPRO_007",
    "cityName": "Dnipro",
    "stationName": "Dmytra Yavornytskoho Avenue, 60",
    "localName": "Save Dnipro #9",
    "latitude": "48.467467",
    "longitude": "35.041472",
    "humidity": 48.72,
    "PM10": 36.99,
    "PM2n5": 19.67,
    "Pressure": 1014,
    "Temperature": 4,
    "AirQualityIndex": 102.1,
    "localId": 5
  },
  {
    "id": "SAVEDNIPRO_008",
    "cityName": "Dnipro",
    "stationName": "Haharina Avenue, 43",
    "localName": "Save Dnipro #10",
    "latitude": "48.448030",
    "longitude": "35.058606",
    "humidity": 73.99,
    "PM10": 23.85,
    "PM2n5": 13.27,
    "Pressure": 1015,
    "Temperature": 1,
    "AirQualityIndex": 162.69,
    "localId": 6
  },
  {
    "id": "SAVEDNIPRO_009",
    "cityName": "Dnipro",
    "stationName": "Kalynova Street, 49",
    "localName": "Save Dnipro #11",
    "latitude": "48.513536",
    "longitude": "35.062787",
    "humidity": 35.55,
    "PM10": 32.6,
    "PM2n5": 3.87,
    "Pressure": 1020,
    "Temperature": 3,
    "AirQualityIndex": 199.93,
    "localId": 7
  },
  {
    "id": "SAVEDNIPRO_014",
    "cityName": "Dnipro",
    "stationName": "Vokzalna Square, 2",
    "localName": "Save Dnipro #19",
    "latitude": "48.475959",
    "longitude": "35.016979",
    "humidity": 41.21,
    "PM10": 27.06,
    "PM2n5": 6.48,
    "Pressure": 1019,
    "Temperature": 5,
    "AirQualityIndex": 100.71,
    "localId": 8
  },
  {
    "id": "SAVEDNIPRO_015",
    "cityName": "Dnipro",
    "stationName": "Pavla Nirinberha Street, 4-6",
    "localName": "Save Dnipro #30",
    "latitude": "48.467926",
    "longitude": "35.055617",
    "humidity": 50.05,
    "PM10": 13.73,
    "PM2n5": 16.52,
    "Pressure": 996,
    "Temperature": 1,
    "AirQualityIndex": 91.6,
    "localId": 9
  },
  {
    "id": "SAVEDNIPRO_016",
    "cityName": "Dnipro",
    "stationName": "Street Shoduarivska, 5",
    "localName": "Save Dnipro #25",
    "latitude": "48.484034",
    "longitude": "34.936086",
    "humidity": 74.27,
    "PM10": 46.97,
    "PM2n5": 19.01,
    "Pressure": 985,
    "Temperature": 1,
    "AirQualityIndex": 44,
    "localId": 10
  },
  {
    "id": "SAVEDNIPRO_018",
    "cityName": "Dnipro",
    "stationName": "Beregova Street, 29",
    "localName": "Save Dnipro #26",
    "latitude": "48.501095",
    "longitude": "34.990169",
    "humidity": 39.12,
    "PM10": 3.29,
    "PM2n5": 7.03,
    "Pressure": 989,
    "Temperature": 2,
    "AirQualityIndex": 134.29,
    "localId": 11
  },
  {
    "id": "SAVEDNIPRO_023",
    "cityName": "Dnipro",
    "stationName": "Shyroka Street, 173",
    "localName": "Save Dnipro #32",
    "latitude": "48.518050",
    "longitude": "34.964451",
    "humidity": 49.64,
    "PM10": 40.78,
    "PM2n5": 13.53,
    "Pressure": 1019,
    "Temperature": 5,
    "AirQualityIndex": 189.54,
    "localId": 12
  },
  {
    "id": "SAVEDNIPRO_024",
    "cityName": "Sursko-Lytovske",
    "stationName": "50 Rokiv Peremogy Street",
    "localName": "Save Dnipro #28",
    "latitude": "48.350994",
    "longitude": "34.946876",
    "humidity": 40.44,
    "PM10": 33.04,
    "PM2n5": 17.92,
    "Pressure": 1011,
    "Temperature": 1,
    "AirQualityIndex": 72.22,
    "localId": 13
  },
  {
    "id": "SAVEDNIPRO_025",
    "cityName": "Dnipro",
    "stationName": "Street Barykadna, 21",
    "localName": "",
    "latitude": "48.463293",
    "longitude": "35.056401",
    "humidity": 54.02,
    "PM10": 75.74,
    "PM2n5": 16.06,
    "Pressure": 991,
    "Temperature": 1,
    "AirQualityIndex": 176.78,
    "localId": 14
  },
  {
    "id": "SAVEDNIPRO_032",
    "cityName": "Dnipro",
    "stationName": "Slavy Boulevard, 11",
    "localName": "Save Dnipro #22",
    "latitude": "48.4119490",
    "longitude": "35.0697377",
    "humidity": 48.28,
    "PM10": 56.58,
    "PM2n5": 1.48,
    "Pressure": 1009,
    "Temperature": 0,
    "AirQualityIndex": 108.15,
    "localId": 15
  },
  {
    "id": "SAVEDNIPRO_035",
    "cityName": "Novooleksandrivka",
    "stationName": "Televiziyna \r\n Street / Arendnyy Lane",
    "localName": "Save Dnipro #17",
    "latitude": "48.343889",
    "longitude": "35.015000",
    "humidity": 67.71,
    "PM10": 67.31,
    "PM2n5": 19.72,
    "Pressure": 1005,
    "Temperature": 4,
    "AirQualityIndex": 112.54,
    "localId": 16
  },
  {
    "id": "SAVEDNIPRO_075",
    "cityName": "Dnipro",
    "stationName": "Pavla Nirinberha Street, 10",
    "localName": "Save Dnipro #14",
    "latitude": "48.466150",
    "longitude": "35.055459",
    "humidity": 52.77,
    "PM10": 6.18,
    "PM2n5": 13.79,
    "Pressure": 987,
    "Temperature": 2,
    "AirQualityIndex": 38.98,
    "localId": 17
  },
  {
    "id": "SAVEDNIPRO_090",
    "cityName": "Obukhivka",
    "stationName": "Dniprovs'ko-Oril's'kyy pryrodnyy zapovidnyk",
    "localName": "Save Dnipro #34",
    "latitude": "48.5339822",
    "longitude": "34.7914877",
    "humidity": 36.68,
    "PM10": 55.74,
    "PM2n5": 8.93,
    "Pressure": 1012,
    "Temperature": 0,
    "AirQualityIndex": 152.66,
    "localId": 18
  },
  {
    "id": "SAVEDNIPRO_094",
    "cityName": "Kam'ianske",
    "stationName": "Heroiv Boulevard, 38",
    "localName": "Save Dnipro #34",
    "latitude": "48.607373",
    "longitude": "34.570512",
    "humidity": 67.08,
    "PM10": 54.6,
    "PM2n5": 18.19,
    "Pressure": 983,
    "Temperature": 0,
    "AirQualityIndex": 67.78,
    "localId": 19
  },
  {
    "id": "SAVEDNIPRO_095",
    "cityName": "Dnipro",
    "stationName": "Velyka Diivska Street, 4",
    "localName": "Save Dnipro #53",
    "latitude": "48.480519",
    "longitude": "34.934133",
    "humidity": 64.6,
    "PM10": 67.63,
    "PM2n5": 4.11,
    "Pressure": 1009,
    "Temperature": 3,
    "AirQualityIndex": 143.65,
    "localId": 20
  },
  {
    "id": "SAVEDNIPRO_096",
    "cityName": "Dnipro",
    "stationName": "Hoholya Street, 10",
    "localName": "Save Dnipro #36",
    "latitude": "48.458139",
    "longitude": "35.052214",
    "humidity": 49.2,
    "PM10": 57.71,
    "PM2n5": 8.94,
    "Pressure": 998,
    "Temperature": 0,
    "AirQualityIndex": 139.81,
    "localId": 21
  },
  {
    "id": "SAVEDNIPRO_097",
    "cityName": "Halych",
    "stationName": "Karaimska Street, 3",
    "localName": "Save Dnipro #39",
    "latitude": "49.125336",
    "longitude": "24.730753",
    "humidity": 51.45,
    "PM10": 71.21,
    "PM2n5": 11.01,
    "Pressure": 1005,
    "Temperature": 5,
    "AirQualityIndex": 185.02,
    "localId": 22
  },
  {
    "id": "SAVEDNIPRO_101",
    "cityName": "Dnipro",
    "stationName": "Samarkandskyi provulok, 1",
    "localName": "Save Dnipro #40",
    "latitude": "48.4538103",
    "longitude": "35.0185786",
    "humidity": 50.28,
    "PM10": 74.11,
    "PM2n5": 7.81,
    "Pressure": 1020,
    "Temperature": 1,
    "AirQualityIndex": 23.14,
    "localId": 23
  },
  {
    "id": "SAVEDNIPRO_102",
    "cityName": "Vilnohirsk",
    "stationName": "Molodizhna Street, 28",
    "localName": "Save Dnipro #49",
    "latitude": "48.480857",
    "longitude": "34.018492",
    "humidity": 30.65,
    "PM10": 22.23,
    "PM2n5": 18.61,
    "Pressure": 996,
    "Temperature": 2,
    "AirQualityIndex": 190.62,
    "localId": 24
  },
  {
    "id": "SAVEDNIPRO_103",
    "cityName": "Dnipro",
    "stationName": "Topolia-2, 23",
    "localName": "Save Dnipro #38",
    "latitude": "48.391810",
    "longitude": "35.028813",
    "humidity": 71.16,
    "PM10": 70.86,
    "PM2n5": 1.35,
    "Pressure": 989,
    "Temperature": 4,
    "AirQualityIndex": 11.81,
    "localId": 25
  },
  {
    "id": "SAVEDNIPRO_132",
    "cityName": "Dnipro",
    "stationName": "prospekt Serhiia Nihoiana, 57",
    "localName": "",
    "latitude": "48.476276",
    "longitude": "34.984768",
    "humidity": 25.29,
    "PM10": 22.09,
    "PM2n5": 4.82,
    "Pressure": 1017,
    "Temperature": 1,
    "AirQualityIndex": 168.53,
    "localId": 26
  },
  {
    "id": "SAVEDNIPRO_136",
    "cityName": "Dnipro",
    "stationName": "Forest Park of Friendship of Peoples",
    "localName": "Save Dnipro #42",
    "latitude": "48.540300",
    "longitude": "35.092615",
    "humidity": 39.41,
    "PM10": 75.76,
    "PM2n5": 14.08,
    "Pressure": 995,
    "Temperature": 2,
    "AirQualityIndex": 149.97,
    "localId": 27
  },
  {
    "id": "SAVEDNIPRO_897",
    "cityName": "Novooleksandrivka",
    "stationName": "Surska Street, 74",
    "localName": "Save Dnipro #51",
    "latitude": "48.341841",
    "longitude": "35.005390",
    "humidity": 39.27,
    "PM10": 19.47,
    "PM2n5": 4.59,
    "Pressure": 1010,
    "Temperature": 4,
    "AirQualityIndex": 165.44,
    "localId": 28
  },
  {
    "id": "SAVEDNIPRO_949",
    "cityName": "Zaporizhzhia",
    "stationName": "Street Haharina, 3",
    "localName": "Save Dnipro #48",
    "latitude": "47.8352753",
    "longitude": "35.1446249",
    "humidity": 31.72,
    "PM10": 79.7,
    "PM2n5": 2.79,
    "Pressure": 999,
    "Temperature": 2,
    "AirQualityIndex": 151.93,
    "localId": 29
  },
  {
    "id": "SAVEDNIPRO_997",
    "cityName": "Dnipro",
    "stationName": "Street Darnytska, 9",
    "localName": "",
    "latitude": "48.5052009",
    "longitude": "35.0718389",
    "humidity": 57.71,
    "PM10": 5.09,
    "PM2n5": 4.59,
    "Pressure": 1008,
    "Temperature": 4,
    "AirQualityIndex": 85.67,
    "localId": 30
  },
  {
    "id": "SAVEDNIPRO_1000",
    "cityName": "Dnipro",
    "stationName": "Street Ivana Akinfiieva, 10",
    "localName": "Save Dnipro #55",
    "latitude": "48.460155",
    "longitude": "35.066821",
    "humidity": 46.89,
    "PM10": 11.35,
    "PM2n5": 12.24,
    "Pressure": 986,
    "Temperature": 4,
    "AirQualityIndex": 20.39,
    "localId": 31
  },
  {
    "id": "SAVEDNIPRO_1001",
    "cityName": "Dnipro",
    "stationName": "Street Hladkova, 6",
    "localName": "",
    "latitude": "48.400802",
    "longitude": "35.001839",
    "humidity": 50.29,
    "PM10": 1.38,
    "PM2n5": 6.68,
    "Pressure": 1011,
    "Temperature": 0,
    "AirQualityIndex": 180.83,
    "localId": 32
  },
  {
    "id": "SAVEDNIPRO_1002",
    "cityName": "Sursko-Klevtseve",
    "stationName": "",
    "localName": "Save Dnipro #56",
    "latitude": "48.312916",
    "longitude": "34.880235",
    "humidity": 59.04,
    "PM10": 10.34,
    "PM2n5": 19.44,
    "Pressure": 1013,
    "Temperature": 0,
    "AirQualityIndex": 112.1,
    "localId": 33
  },
  {
    "id": "SAVEDNIPRO_1004",
    "cityName": "Kyiv",
    "stationName": "Street Henerala Zhmachenka, 4",
    "localName": "Save Dnipro #58",
    "latitude": "50.458479",
    "longitude": "30.6079481",
    "humidity": 30.28,
    "PM10": 28.85,
    "PM2n5": 14.09,
    "Pressure": 985,
    "Temperature": 2,
    "AirQualityIndex": 156.81,
    "localId": 34
  },
  {
    "id": "SAVEDNIPRO_1005",
    "cityName": "Dnipro",
    "stationName": "Street Serhiia Yefremova, 3A",
    "localName": "Save Dnipro #59",
    "latitude": "48.459042",
    "longitude": "35.058479",
    "humidity": 26.81,
    "PM10": 41.52,
    "PM2n5": 18.44,
    "Pressure": 995,
    "Temperature": 2,
    "AirQualityIndex": 127.84,
    "localId": 35
  },
  {
    "id": "SAVEDNIPRO_1006",
    "cityName": "Kam'ianske",
    "stationName": "Street Yuriia Volkova, 10A",
    "localName": "Save Dnipro #60",
    "latitude": "48.509524",
    "longitude": "34.61578",
    "humidity": 48.4,
    "PM10": 1.19,
    "PM2n5": 11.92,
    "Pressure": 995,
    "Temperature": 0,
    "AirQualityIndex": 169.88,
    "localId": 36
  },
  {
    "id": "SAVEDNIPRO_1007",
    "cityName": "Dnipro",
    "stationName": "prospekt Slobozhanskyi, 127A",
    "localName": "Save Dnipro #64",
    "latitude": "48.523936",
    "longitude": "35.0811455",
    "humidity": 70.07,
    "PM10": 68.89,
    "PM2n5": 9.08,
    "Pressure": 998,
    "Temperature": 5,
    "AirQualityIndex": 139.38,
    "localId": 37
  },
  {
    "id": "SAVEDNIPRO_1008",
    "cityName": "Vinnytsia",
    "stationName": "Street Stetsenka, 75",
    "localName": "Save Dnipro #63",
    "latitude": "49.239341",
    "longitude": "28.479885",
    "humidity": 74.49,
    "PM10": 56.06,
    "PM2n5": 12.34,
    "Pressure": 981,
    "Temperature": 3,
    "AirQualityIndex": 182.47,
    "localId": 38
  },
  {
    "id": "SAVEDNIPRO_1009",
    "cityName": "Dnipro",
    "stationName": "Donetske shose, 121",
    "localName": "Save Dnipro #62",
    "latitude": "48.523444",
    "longitude": "35.023331",
    "humidity": 55.69,
    "PM10": 56.73,
    "PM2n5": 19.64,
    "Pressure": 1000,
    "Temperature": 5,
    "AirQualityIndex": 180.51,
    "localId": 39
  },
  {
    "id": "SAVEDNIPRO_1021",
    "cityName": "Dnipro",
    "stationName": "Street Semaforna, 30A",
    "localName": "Save Dnipro #61",
    "latitude": "48.489936",
    "longitude": "35.1337483",
    "humidity": 65.91,
    "PM10": 43.2,
    "PM2n5": 13.43,
    "Pressure": 1002,
    "Temperature": 0,
    "AirQualityIndex": 176.93,
    "localId": 40
  },
  {
    "id": "SAVEDNIPRO_1053",
    "cityName": "Dnipro",
    "stationName": "Yaroslavska Street, 12",
    "localName": "Save Dnipro #24",
    "latitude": "48.433796",
    "longitude": "35.030484",
    "humidity": 25.62,
    "PM10": 67.02,
    "PM2n5": 12.26,
    "Pressure": 1003,
    "Temperature": 4,
    "AirQualityIndex": 43.74,
    "localId": 41
  },
  {
    "id": "SAVEDNIPRO_1102",
    "cityName": "Sumy",
    "stationName": "",
    "localName": "Save Dnipro #73",
    "latitude": "50.896400",
    "longitude": "34.830288",
    "humidity": 54.43,
    "PM10": 59.47,
    "PM2n5": 18.98,
    "Pressure": 1002,
    "Temperature": 2,
    "AirQualityIndex": 120.44,
    "localId": 42
  },
  {
    "id": "SAVEDNIPRO_1131",
    "cityName": "Zaporizhzhia",
    "stationName": "Tbiliska Street, 27A",
    "localName": "",
    "latitude": "47.83602089075",
    "longitude": "35.10648322033",
    "humidity": 46.64,
    "PM10": 46.68,
    "PM2n5": 8.57,
    "Pressure": 1007,
    "Temperature": 4,
    "AirQualityIndex": 152.36,
    "localId": 43
  },
  {
    "id": "SAVEDNIPRO_1143",
    "cityName": "Dobropillia",
    "stationName": "Street Zapovitna",
    "localName": "Save Dnipro #75",
    "latitude": "48.477333",
    "longitude": "37.092000",
    "humidity": 74.59,
    "PM10": 52.66,
    "PM2n5": 1.98,
    "Pressure": 1005,
    "Temperature": 2,
    "AirQualityIndex": 161.12,
    "localId": 44
  },
  {
    "id": "SAVEDNIPRO_1168",
    "cityName": "Mariupol",
    "stationName": "Street Lomizova, 11",
    "localName": "",
    "latitude": "47.101121",
    "longitude": "37.627157",
    "humidity": 33.06,
    "PM10": 43.02,
    "PM2n5": 9.03,
    "Pressure": 985,
    "Temperature": 4,
    "AirQualityIndex": 197.82,
    "localId": 45
  },
  {
    "id": "SAVEDNIPRO_1169",
    "cityName": "Mariupol",
    "stationName": "prospekt Metalurhiv, 206-A",
    "localName": "",
    "latitude": "47.137890",
    "longitude": "37.565452",
    "humidity": 48.52,
    "PM10": 61.36,
    "PM2n5": 3.49,
    "Pressure": 985,
    "Temperature": 5,
    "AirQualityIndex": 72.48,
    "localId": 46
  },
  {
    "id": "SAVEDNIPRO_1174",
    "cityName": "Kam'ianske",
    "stationName": "prospekt Svobody, 49",
    "localName": "",
    "latitude": "48.516430",
    "longitude": "34.614322",
    "humidity": 68.64,
    "PM10": 18.53,
    "PM2n5": 18.71,
    "Pressure": 1017,
    "Temperature": 2,
    "AirQualityIndex": 114.28,
    "localId": 47
  },
  {
    "id": "SAVEDNIPRO_1175",
    "cityName": "Kam'ianske",
    "stationName": "Street Voiniv-afhantsiv, 5D",
    "localName": "",
    "latitude": "48.608365",
    "longitude": "34.558746",
    "humidity": 58.67,
    "PM10": 79.96,
    "PM2n5": 15.62,
    "Pressure": 988,
    "Temperature": 1,
    "AirQualityIndex": 30.28,
    "localId": 48
  },
  {
    "id": "SAVEDNIPRO_1176",
    "cityName": "Kam'ianske",
    "stationName": "prospekt Svobody, 56",
    "localName": "",
    "latitude": "48.507758",
    "longitude": "34.609865",
    "humidity": 49.58,
    "PM10": 68.43,
    "PM2n5": 3.29,
    "Pressure": 1004,
    "Temperature": 1,
    "AirQualityIndex": 159.27,
    "localId": 49
  },
  {
    "id": "SAVEDNIPRO_1178",
    "cityName": "Pisochyn",
    "stationName": "Street Zelena, 19",
    "localName": "",
    "latitude": "49.964888",
    "longitude": "36.122653",
    "humidity": 51.47,
    "PM10": 43.96,
    "PM2n5": 17.51,
    "Pressure": 1007,
    "Temperature": 2,
    "AirQualityIndex": 81.78,
    "localId": 50
  },
  {
    "id": "SAVEDNIPRO_1179",
    "cityName": "Kam'ianske",
    "stationName": "Street Vorobiova, 15",
    "localName": "",
    "latitude": "48.503785",
    "longitude": "34.614396",
    "humidity": 65.02,
    "PM10": 67.74,
    "PM2n5": 4.06,
    "Pressure": 1004,
    "Temperature": 3,
    "AirQualityIndex": 98.56,
    "localId": 51
  },
  {
    "id": "SAVEDNIPRO_1180",
    "cityName": "Kam'ianske",
    "stationName": "prospekt Anoshkina, 58A",
    "localName": "",
    "latitude": "48.509854",
    "longitude": "34.595553",
    "humidity": 40.01,
    "PM10": 37.88,
    "PM2n5": 7.19,
    "Pressure": 984,
    "Temperature": 3,
    "AirQualityIndex": 185.61,
    "localId": 52
  },
  {
    "id": "SAVEDNIPRO_1182",
    "cityName": "Kam'ianske",
    "stationName": "Street Sportyvna, 19",
    "localName": "",
    "latitude": "48.517399",
    "longitude": "34.599969",
    "humidity": 63.61,
    "PM10": 72.17,
    "PM2n5": 7.07,
    "Pressure": 992,
    "Temperature": 5,
    "AirQualityIndex": 98.51,
    "localId": 53
  },
  {
    "id": "SAVEDNIPRO_1183",
    "cityName": "Kam'ianske",
    "stationName": "Yuvileinyi prospekt, 57",
    "localName": "",
    "latitude": "48.489721",
    "longitude": "34.621939",
    "humidity": 72.48,
    "PM10": 65.31,
    "PM2n5": 5.17,
    "Pressure": 987,
    "Temperature": 0,
    "AirQualityIndex": 74.64,
    "localId": 54
  },
  {
    "id": "SAVEDNIPRO_1212",
    "cityName": "Zaporizhzhia",
    "stationName": "Street Shkilna, 50",
    "localName": "",
    "latitude": "47.816804",
    "longitude": "35.169158",
    "humidity": 28.76,
    "PM10": 14.58,
    "PM2n5": 7.53,
    "Pressure": 1000,
    "Temperature": 1,
    "AirQualityIndex": 138.73,
    "localId": 55
  },
  {
    "id": "SAVEDNIPRO_1260",
    "cityName": "Zaporizhzhia",
    "stationName": "Street Mykoly Koryshchenka, 26",
    "localName": "",
    "latitude": "47.82919027096",
    "longitude": "35.23301213980",
    "humidity": 50.49,
    "PM10": 77.55,
    "PM2n5": 5.52,
    "Pressure": 997,
    "Temperature": 2,
    "AirQualityIndex": 102.72,
    "localId": 56
  },
  {
    "id": "SAVEDNIPRO_1266",
    "cityName": "Kyiv",
    "stationName": "Street Kostiantynivska, 73",
    "localName": "",
    "latitude": "50.473860",
    "longitude": "30.497474",
    "humidity": 37.97,
    "PM10": 16.47,
    "PM2n5": 10.87,
    "Pressure": 1007,
    "Temperature": 0,
    "AirQualityIndex": 52.5,
    "localId": 57
  },
  {
    "id": "SAVEDNIPRO_1268",
    "cityName": "Bobrovytsia",
    "stationName": "Street Nezalezhnosti, 46",
    "localName": "",
    "latitude": "50.741761",
    "longitude": "31.384359",
    "humidity": 25.69,
    "PM10": 67.99,
    "PM2n5": 19.43,
    "Pressure": 990,
    "Temperature": 3,
    "AirQualityIndex": 118.81,
    "localId": 58
  },
  {
    "id": "SAVEDNIPRO_1269",
    "cityName": "Poltava",
    "stationName": "Street Pidmonastyrska, 41",
    "localName": "",
    "latitude": "49.592648",
    "longitude": "34.570985",
    "humidity": 49.05,
    "PM10": 19.97,
    "PM2n5": 12.53,
    "Pressure": 1001,
    "Temperature": 2,
    "AirQualityIndex": 111.4,
    "localId": 59
  },
  {
    "id": "SAVEDNIPRO_1270",
    "cityName": "Dnipro",
    "stationName": "Street Mykhaila Hrushevskoho, 34",
    "localName": "Save Dnipro #104",
    "latitude": "48.454988",
    "longitude": "35.036721",
    "humidity": 50.54,
    "PM10": 4.6,
    "PM2n5": 4.82,
    "Pressure": 1014,
    "Temperature": 1,
    "AirQualityIndex": 96.52,
    "localId": 60
  },
  {
    "id": "SAVEDNIPRO_1271",
    "cityName": "Dnipro",
    "stationName": "prospekt Myru, 5",
    "localName": "",
    "latitude": "48.525274",
    "longitude": "35.019689",
    "humidity": 49.91,
    "PM10": 13.32,
    "PM2n5": 13.42,
    "Pressure": 994,
    "Temperature": 4,
    "AirQualityIndex": 18.2,
    "localId": 61
  },
  {
    "id": "SAVEDNIPRO_1272",
    "cityName": "Kam'ianske",
    "stationName": "Street Kazanska, 35",
    "localName": "",
    "latitude": "48.494670",
    "longitude": "34.602290",
    "humidity": 62.01,
    "PM10": 34.53,
    "PM2n5": 17.26,
    "Pressure": 1003,
    "Temperature": 3,
    "AirQualityIndex": 114.55,
    "localId": 62
  },
  {
    "id": "SAVEDNIPRO_1274",
    "cityName": "Kyiv",
    "stationName": "prospekt Heroiv Stalinhrada, 6K8",
    "localName": "",
    "latitude": "50.494958",
    "longitude": "30.522702",
    "humidity": 55.91,
    "PM10": 72.63,
    "PM2n5": 3.14,
    "Pressure": 980,
    "Temperature": 4,
    "AirQualityIndex": 141.19,
    "localId": 63
  },
  {
    "id": "SAVEDNIPRO_1275",
    "cityName": "Kam'ianske",
    "stationName": "prospekt Konstytutsii 19",
    "localName": "",
    "latitude": "48.475955",
    "longitude": "34.667161",
    "humidity": 40.73,
    "PM10": 29.55,
    "PM2n5": 3.82,
    "Pressure": 1013,
    "Temperature": 1,
    "AirQualityIndex": 128.59,
    "localId": 64
  },
  {
    "id": "SAVEDNIPRO_1276",
    "cityName": "Poltava",
    "stationName": "Street Radyshcheva, 46",
    "localName": "",
    "latitude": "49.577176",
    "longitude": "34.607160",
    "humidity": 44.03,
    "PM10": 30.91,
    "PM2n5": 2.74,
    "Pressure": 1006,
    "Temperature": 4,
    "AirQualityIndex": 24.38,
    "localId": 65
  },
  {
    "id": "SAVEDNIPRO_1278",
    "cityName": "Kyiv",
    "stationName": "Street Saperno-Slobidska, 25/4",
    "localName": "",
    "latitude": "50.404417",
    "longitude": "30.534111",
    "humidity": 28.71,
    "PM10": 64.79,
    "PM2n5": 5.05,
    "Pressure": 984,
    "Temperature": 4,
    "AirQualityIndex": 25.47,
    "localId": 66
  },
  {
    "id": "SAVEDNIPRO_1279",
    "cityName": "Dnipro",
    "stationName": "Street Maiachka, 14",
    "localName": "",
    "latitude": "48.4934802",
    "longitude": "35.1992773",
    "humidity": 28.94,
    "PM10": 69.36,
    "PM2n5": 1.9,
    "Pressure": 1006,
    "Temperature": 2,
    "AirQualityIndex": 60.45,
    "localId": 67
  },
  {
    "id": "SAVEDNIPRO_1293",
    "cityName": "Kushuhum",
    "stationName": "Street Partyzanska",
    "localName": "",
    "latitude": "47.723589",
    "longitude": "35.206665",
    "humidity": 29.27,
    "PM10": 60.95,
    "PM2n5": 6.01,
    "Pressure": 989,
    "Temperature": 5,
    "AirQualityIndex": 75.61,
    "localId": 68
  },
  {
    "id": "SAVEDNIPRO_1294",
    "cityName": "Kyiv",
    "stationName": "Street 8-a Sadova",
    "localName": "",
    "latitude": "50.4682878",
    "longitude": "30.5729412",
    "humidity": 55.3,
    "PM10": 2.57,
    "PM2n5": 9.47,
    "Pressure": 998,
    "Temperature": 3,
    "AirQualityIndex": 131.53,
    "localId": 69
  },
  {
    "id": "SAVEDNIPRO_1295",
    "cityName": "Brovary",
    "stationName": "Sadove tovarystvo Khimik",
    "localName": "",
    "latitude": "50.514441",
    "longitude": "30.797268",
    "humidity": 49.15,
    "PM10": 39.1,
    "PM2n5": 5.1,
    "Pressure": 1000,
    "Temperature": 5,
    "AirQualityIndex": 131.82,
    "localId": 70
  },
  {
    "id": "SAVEDNIPRO_1297",
    "cityName": "Zaporizhzhia",
    "stationName": "Street Charivna, 157",
    "localName": "",
    "latitude": "47.844147",
    "longitude": "35.230268",
    "humidity": 73.09,
    "PM10": 37.48,
    "PM2n5": 16.11,
    "Pressure": 1017,
    "Temperature": 3,
    "AirQualityIndex": 84.21,
    "localId": 71
  },
  {
    "id": "SAVEDNIPRO_1298",
    "cityName": "Zaporizhzhia",
    "stationName": "Street Leonida Zhabotynskoho, 63",
    "localName": "",
    "latitude": "47.8382123",
    "longitude": "35.1351085",
    "humidity": 50.16,
    "PM10": 37.15,
    "PM2n5": 16.71,
    "Pressure": 1020,
    "Temperature": 3,
    "AirQualityIndex": 188.05,
    "localId": 72
  },
  {
    "id": "SAVEDNIPRO_1300",
    "cityName": "Cherkaske",
    "stationName": "Street Yasna, 3",
    "localName": "",
    "latitude": "48.835490",
    "longitude": "37.392544",
    "humidity": 70.66,
    "PM10": 45.31,
    "PM2n5": 14.8,
    "Pressure": 1008,
    "Temperature": 1,
    "AirQualityIndex": 105.24,
    "localId": 73
  },
  {
    "id": "SAVEDNIPRO_1301",
    "cityName": "Zaporizhzhia",
    "stationName": "Street Vesnina, 1A",
    "localName": "",
    "latitude": "47.865793",
    "longitude": "35.058838",
    "humidity": 73.76,
    "PM10": 8.46,
    "PM2n5": 14.11,
    "Pressure": 1000,
    "Temperature": 1,
    "AirQualityIndex": 178.09,
    "localId": 74
  },
  {
    "id": "SAVEDNIPRO_1302",
    "cityName": "Yurivka",
    "stationName": "Street Naberezhna, 3",
    "localName": "",
    "latitude": "50.317396",
    "longitude": "30.390961",
    "humidity": 30.35,
    "PM10": 57.35,
    "PM2n5": 15.21,
    "Pressure": 986,
    "Temperature": 1,
    "AirQualityIndex": 111.7,
    "localId": 75
  },
  {
    "id": "SAVEDNIPRO_1303",
    "cityName": "Chornomorsk",
    "stationName": "Street Vitaliia Shuma, 2H",
    "localName": "",
    "latitude": "46.297067",
    "longitude": "30.639265",
    "humidity": 61.87,
    "PM10": 52.05,
    "PM2n5": 14.48,
    "Pressure": 998,
    "Temperature": 1,
    "AirQualityIndex": 116.63,
    "localId": 76
  },
  {
    "id": "SAVEDNIPRO_1306",
    "cityName": "Kyiv",
    "stationName": "Street Marshala Malynovskoho, 4V",
    "localName": "",
    "latitude": "50.505132",
    "longitude": "30.489238",
    "humidity": 40.43,
    "PM10": 64.81,
    "PM2n5": 2.04,
    "Pressure": 1000,
    "Temperature": 0,
    "AirQualityIndex": 121.51,
    "localId": 77
  },
  {
    "id": "SAVEDNIPRO_1308",
    "cityName": "Zaporizhzhia",
    "stationName": "Avtobusna Street, 13",
    "localName": "",
    "latitude": "47.8630359",
    "longitude": "35.1845460",
    "humidity": 48.15,
    "PM10": 39.91,
    "PM2n5": 7.19,
    "Pressure": 992,
    "Temperature": 5,
    "AirQualityIndex": 49.45,
    "localId": 78
  },
  {
    "id": "SAVEDNIPRO_1309",
    "cityName": "Zaporizhzhia",
    "stationName": "Tsentralnyi bulvar, 22A",
    "localName": "",
    "latitude": "47.835703",
    "longitude": "35.134718",
    "humidity": 36.52,
    "PM10": 70.45,
    "PM2n5": 14.45,
    "Pressure": 1003,
    "Temperature": 0,
    "AirQualityIndex": 144.16,
    "localId": 79
  },
  {
    "id": "SAVEDNIPRO_1311",
    "cityName": "Vita-Poshtova",
    "stationName": "Street Zvenyhorodska",
    "localName": "",
    "latitude": "50.312514",
    "longitude": "30.375136",
    "humidity": 51.72,
    "PM10": 37.28,
    "PM2n5": 19.17,
    "Pressure": 1010,
    "Temperature": 4,
    "AirQualityIndex": 182.52,
    "localId": 80
  },
  {
    "id": "SAVEDNIPRO_1313",
    "cityName": "Yurivka",
    "stationName": "Street Naberezhna, 12",
    "localName": "",
    "latitude": "50.326257",
    "longitude": "30.375458",
    "humidity": 62.39,
    "PM10": 77.55,
    "PM2n5": 7.24,
    "Pressure": 1003,
    "Temperature": 4,
    "AirQualityIndex": 4.22,
    "localId": 81
  },
  {
    "id": "SAVEDNIPRO_1315",
    "cityName": "Zaporizhzhia",
    "stationName": "Street Svitla, 16",
    "localName": "",
    "latitude": "47.815380",
    "longitude": "35.053843",
    "humidity": 63.82,
    "PM10": 2.44,
    "PM2n5": 10.59,
    "Pressure": 1000,
    "Temperature": 4,
    "AirQualityIndex": 60.1,
    "localId": 82
  },
  {
    "id": "SAVEDNIPRO_1316",
    "cityName": "Zaporizhzhia",
    "stationName": "prospekt Sobornyi, 228",
    "localName": "",
    "latitude": "47.8606913",
    "longitude": "35.1002317",
    "humidity": 49.55,
    "PM10": 70.61,
    "PM2n5": 10.76,
    "Pressure": 988,
    "Temperature": 5,
    "AirQualityIndex": 120.96,
    "localId": 83
  },
  {
    "id": "SAVEDNIPRO_1354",
    "cityName": "Velyka Severynka",
    "stationName": "Street Myru, 2A",
    "localName": "",
    "latitude": "48.608155",
    "longitude": "32.231918",
    "humidity": 34.95,
    "PM10": 76.11,
    "PM2n5": 2.21,
    "Pressure": 998,
    "Temperature": 5,
    "AirQualityIndex": 98.84,
    "localId": 84
  },
  {
    "id": "SAVEDNIPRO_1372",
    "cityName": "Kyiv",
    "stationName": "Street Verkhovynna, 37",
    "localName": "",
    "latitude": "50.452314",
    "longitude": "30.371420",
    "humidity": 33.49,
    "PM10": 79.12,
    "PM2n5": 11.55,
    "Pressure": 988,
    "Temperature": 5,
    "AirQualityIndex": 98.08,
    "localId": 85
  },
  {
    "id": "SAVEDNIPRO_1373",
    "cityName": "Kyiv",
    "stationName": "Street Marshala Malynovskoho, 13B",
    "localName": "",
    "latitude": "50.502855",
    "longitude": "30.495153",
    "humidity": 63.51,
    "PM10": 54.31,
    "PM2n5": 9.2,
    "Pressure": 1005,
    "Temperature": 2,
    "AirQualityIndex": 124.9,
    "localId": 86
  },
  {
    "id": "SAVEDNIPRO_1376",
    "cityName": "Kyiv",
    "stationName": "Street Volodymyro-Lybidska 25",
    "localName": "",
    "latitude": "50.421359",
    "longitude": "30.514859",
    "humidity": 53.79,
    "PM10": 74.02,
    "PM2n5": 1.03,
    "Pressure": 996,
    "Temperature": 1,
    "AirQualityIndex": 69.26,
    "localId": 87
  },
  {
    "id": "SAVEDNIPRO_1377",
    "cityName": "Chornomorsk",
    "stationName": "Street Transportna, 14A",
    "localName": "Save Dnipro #159",
    "latitude": "46.311634",
    "longitude": "30.654892",
    "humidity": 65.09,
    "PM10": 54.08,
    "PM2n5": 8.58,
    "Pressure": 1002,
    "Temperature": 3,
    "AirQualityIndex": 37.78,
    "localId": 88
  },
  {
    "id": "SAVEDNIPRO_1378",
    "cityName": "Hatne",
    "stationName": "Street Yaroslava Mudroho, 6",
    "localName": "",
    "latitude": "50.359801",
    "longitude": "30.424000",
    "humidity": 70.7,
    "PM10": 70.96,
    "PM2n5": 9.53,
    "Pressure": 996,
    "Temperature": 3,
    "AirQualityIndex": 71.18,
    "localId": 89
  },
  {
    "id": "SAVEDNIPRO_1380",
    "cityName": "Odesa",
    "stationName": "Street Armiiska, 19",
    "localName": "Save Dnipro #162",
    "latitude": "46.452237",
    "longitude": "30.748921",
    "humidity": 42.5,
    "PM10": 60.19,
    "PM2n5": 2.78,
    "Pressure": 998,
    "Temperature": 1,
    "AirQualityIndex": 108.86,
    "localId": 90
  },
  {
    "id": "SAVEDNIPRO_1381",
    "cityName": "Reshetylivka",
    "stationName": "Street Pokrovska, 14",
    "localName": "",
    "latitude": "49.562487",
    "longitude": "34.078514",
    "humidity": 51.01,
    "PM10": 35.99,
    "PM2n5": 1.81,
    "Pressure": 992,
    "Temperature": 5,
    "AirQualityIndex": 10.13,
    "localId": 91
  },
  {
    "id": "SAVEDNIPRO_1382",
    "cityName": "Zaporizhzhia",
    "stationName": "Street Nezalezhnoi Ukrainy, 68A",
    "localName": "",
    "latitude": "47.827955",
    "longitude": "35.204411",
    "humidity": 60.25,
    "PM10": 50.61,
    "PM2n5": 3.34,
    "Pressure": 984,
    "Temperature": 0,
    "AirQualityIndex": 53.44,
    "localId": 92
  },
  {
    "id": "SAVEDNIPRO_1384",
    "cityName": "Hnidyn",
    "stationName": "Street Nova, 1",
    "localName": "",
    "latitude": "50.33948",
    "longitude": "30.70528",
    "humidity": 46.01,
    "PM10": 7.55,
    "PM2n5": 17.47,
    "Pressure": 1007,
    "Temperature": 0,
    "AirQualityIndex": 147.94,
    "localId": 93
  },
  {
    "id": "SAVEDNIPRO_1385",
    "cityName": "Hnidyn",
    "stationName": "Street Kuzbasova, 22",
    "localName": "",
    "latitude": "50.327707",
    "longitude": "30.696919",
    "humidity": 49.37,
    "PM10": 61.72,
    "PM2n5": 12.18,
    "Pressure": 988,
    "Temperature": 2,
    "AirQualityIndex": 85.37,
    "localId": 94
  },
  {
    "id": "SAVEDNIPRO_1386",
    "cityName": "Odesa",
    "stationName": "Street Balkivska, 40A",
    "localName": "",
    "latitude": "46.486764",
    "longitude": "30.707282",
    "humidity": 67.62,
    "PM10": 36.16,
    "PM2n5": 16,
    "Pressure": 994,
    "Temperature": 0,
    "AirQualityIndex": 156.47,
    "localId": 95
  },
  {
    "id": "SAVEDNIPRO_1387",
    "cityName": "Kyiv",
    "stationName": "Street Reitarska, 17",
    "localName": "",
    "latitude": "50.4515820",
    "longitude": "30.5115602",
    "humidity": 50.12,
    "PM10": 13.45,
    "PM2n5": 1.2,
    "Pressure": 1005,
    "Temperature": 0,
    "AirQualityIndex": 30.3,
    "localId": 96
  },
  {
    "id": "SAVEDNIPRO_1388",
    "cityName": "Brovary",
    "stationName": "Street Symona Petliury, 36",
    "localName": "",
    "latitude": "50.5245",
    "longitude": "30.798465",
    "humidity": 52.99,
    "PM10": 45.47,
    "PM2n5": 12.2,
    "Pressure": 997,
    "Temperature": 3,
    "AirQualityIndex": 19.19,
    "localId": 97
  },
  {
    "id": "SAVEDNIPRO_1392",
    "cityName": "Brovary",
    "stationName": "bulvar Nezalezhnosti, 4A",
    "localName": "",
    "latitude": "50.512282",
    "longitude": "30.796358",
    "humidity": 37.3,
    "PM10": 26.35,
    "PM2n5": 4.69,
    "Pressure": 998,
    "Temperature": 3,
    "AirQualityIndex": 149.9,
    "localId": 98
  },
  {
    "id": "SAVEDNIPRO_1394",
    "cityName": "Kyiv",
    "stationName": "Street Kyrylivska 64",
    "localName": "",
    "latitude": "50.4742163",
    "longitude": "30.4942892",
    "humidity": 64.8,
    "PM10": 54.21,
    "PM2n5": 4.36,
    "Pressure": 983,
    "Temperature": 4,
    "AirQualityIndex": 158.27,
    "localId": 99
  },
  {
    "id": "SAVEDNIPRO_1395",
    "cityName": "Rivne",
    "stationName": "Street Kostromska, 73",
    "localName": "",
    "latitude": "50.6331689",
    "longitude": "26.2856835",
    "humidity": 31.5,
    "PM10": 21.75,
    "PM2n5": 17.33,
    "Pressure": 990,
    "Temperature": 4,
    "AirQualityIndex": 134.01,
    "localId": 100
  },
  {
    "id": "SAVEDNIPRO_1396",
    "cityName": "Khrystanivka",
    "stationName": "Street Shevchenka, 23",
    "localName": "",
    "latitude": "50.297342",
    "longitude": "33.376383",
    "humidity": 35.11,
    "PM10": 18,
    "PM2n5": 6.16,
    "Pressure": 989,
    "Temperature": 1,
    "AirQualityIndex": 171.92,
    "localId": 101
  },
  {
    "id": "SAVEDNIPRO_1397",
    "cityName": "Baranivka",
    "stationName": "Street Soborna, 6",
    "localName": "",
    "latitude": "50.293875",
    "longitude": "27.669171",
    "humidity": 46.12,
    "PM10": 73.01,
    "PM2n5": 8.11,
    "Pressure": 984,
    "Temperature": 1,
    "AirQualityIndex": 135,
    "localId": 102
  },
  {
    "id": "SAVEDNIPRO_1411",
    "cityName": "Chornomorsk",
    "stationName": "Street Parkova, 22",
    "localName": "",
    "latitude": "46.2997433",
    "longitude": "30.6593683",
    "humidity": 30.41,
    "PM10": 44,
    "PM2n5": 12.63,
    "Pressure": 1002,
    "Temperature": 0,
    "AirQualityIndex": 26.66,
    "localId": 103
  },
  {
    "id": "SAVEDNIPRO_1412",
    "cityName": "Nadvirna",
    "stationName": "maidan Shevchenka, 33",
    "localName": "",
    "latitude": "48.633951",
    "longitude": "24.567418",
    "humidity": 62.91,
    "PM10": 4.26,
    "PM2n5": 14.72,
    "Pressure": 1013,
    "Temperature": 3,
    "AirQualityIndex": 72.22,
    "localId": 104
  },
  {
    "id": "SAVEDNIPRO_1424",
    "cityName": "Kyiv",
    "stationName": "Street Yuriia Popravky, 4",
    "localName": "",
    "latitude": "50.455080",
    "longitude": "30.629557",
    "humidity": 67.63,
    "PM10": 2.84,
    "PM2n5": 6.04,
    "Pressure": 1003,
    "Temperature": 0,
    "AirQualityIndex": 152.84,
    "localId": 105
  },
  {
    "id": "SAVEDNIPRO_1425",
    "cityName": "Kyiv",
    "stationName": "prospekt Heroiv Stalinhrada 28",
    "localName": "",
    "latitude": "50.513766",
    "longitude": "30.508991",
    "humidity": 67.87,
    "PM10": 22.66,
    "PM2n5": 12.79,
    "Pressure": 1010,
    "Temperature": 5,
    "AirQualityIndex": 155.62,
    "localId": 106
  },
  {
    "id": "SAVEDNIPRO_1426",
    "cityName": "Zaporizhzhia",
    "stationName": "prospekt Yuvileinyi, 19",
    "localName": "",
    "latitude": "47.817382",
    "longitude": "35.054906",
    "humidity": 32.06,
    "PM10": 12.57,
    "PM2n5": 13.51,
    "Pressure": 991,
    "Temperature": 3,
    "AirQualityIndex": 119.03,
    "localId": 107
  },
  {
    "id": "SAVEDNIPRO_1427",
    "cityName": "Chornomorsk",
    "stationName": "Street Vitaliia Shuma, 9",
    "localName": "",
    "latitude": "46.302583",
    "longitude": "30.642833",
    "humidity": 63.04,
    "PM10": 53.24,
    "PM2n5": 8.23,
    "Pressure": 1014,
    "Temperature": 1,
    "AirQualityIndex": 122.85,
    "localId": 108
  },
  {
    "id": "SAVEDNIPRO_1428",
    "cityName": "Dobropillia",
    "stationName": "mikroraion Molodizhnyi, 36",
    "localName": "",
    "latitude": "48.469470",
    "longitude": "37.079867",
    "humidity": 66.1,
    "PM10": 55.79,
    "PM2n5": 11.98,
    "Pressure": 1019,
    "Temperature": 0,
    "AirQualityIndex": 107.14,
    "localId": 109
  },
  {
    "id": "SAVEDNIPRO_1448",
    "cityName": "Rusaniv",
    "stationName": "Street Partyzanska",
    "localName": "",
    "latitude": "50.503785",
    "longitude": "31.149722",
    "humidity": 58.67,
    "PM10": 51.04,
    "PM2n5": 5.26,
    "Pressure": 1014,
    "Temperature": 3,
    "AirQualityIndex": 139.44,
    "localId": 110
  },
  {
    "id": "SAVEDNIPRO_1507",
    "cityName": "Irpin",
    "stationName": "Street Varshavska, 114",
    "localName": "",
    "latitude": "50.537636",
    "longitude": "30.266628",
    "humidity": 66.03,
    "PM10": 72.44,
    "PM2n5": 10.96,
    "Pressure": 993,
    "Temperature": 5,
    "AirQualityIndex": 55.03,
    "localId": 111
  },
  {
    "id": "SAVEDNIPRO_1510",
    "cityName": "Kharkiv",
    "stationName": "Street Tobolska, 41A",
    "localName": "",
    "latitude": "50.027901",
    "longitude": "36.215151",
    "humidity": 53.37,
    "PM10": 34.81,
    "PM2n5": 14.54,
    "Pressure": 1017,
    "Temperature": 5,
    "AirQualityIndex": 140.42,
    "localId": 112
  },
  {
    "id": "SAVEDNIPRO_1511",
    "cityName": "Voropaiv",
    "stationName": "Street Kyivska, 100",
    "localName": "",
    "latitude": "50.785232",
    "longitude": "30.683176",
    "humidity": 37.01,
    "PM10": 20.53,
    "PM2n5": 14.65,
    "Pressure": 987,
    "Temperature": 4,
    "AirQualityIndex": 14.33,
    "localId": 113
  },
  {
    "id": "SAVEDNIPRO_1513",
    "cityName": "Chaiky",
    "stationName": "Street Leontovycha, 16",
    "localName": "",
    "latitude": "50.432666",
    "longitude": "30.279492",
    "humidity": 61.5,
    "PM10": 67.43,
    "PM2n5": 11.64,
    "Pressure": 999,
    "Temperature": 0,
    "AirQualityIndex": 146.9,
    "localId": 114
  },
  {
    "id": "SAVEDNIPRO_1514",
    "cityName": "Radomyshl",
    "stationName": "Street Shevchenka, 25",
    "localName": "",
    "latitude": "50.501932",
    "longitude": "29.229013",
    "humidity": 72.31,
    "PM10": 72.93,
    "PM2n5": 7.7,
    "Pressure": 1001,
    "Temperature": 3,
    "AirQualityIndex": 144.7,
    "localId": 115
  },
  {
    "id": "SAVEDNIPRO_1538",
    "cityName": "Hnidyn",
    "stationName": "Street Luhova",
    "localName": "",
    "latitude": "50.3290625",
    "longitude": "30.6978125",
    "humidity": 57.14,
    "PM10": 33.74,
    "PM2n5": 18.76,
    "Pressure": 983,
    "Temperature": 2,
    "AirQualityIndex": 77.18,
    "localId": 116
  },
  {
    "id": "SAVEDNIPRO_1540",
    "cityName": "Kyiv",
    "stationName": "Street Borshchahivska, 16",
    "localName": "",
    "latitude": "50.447179",
    "longitude": "30.468070",
    "humidity": 71.51,
    "PM10": 65.42,
    "PM2n5": 11.98,
    "Pressure": 1008,
    "Temperature": 1,
    "AirQualityIndex": 82,
    "localId": 117
  },
  {
    "id": "SAVEDNIPRO_1542",
    "cityName": "Liubar",
    "stationName": "Street Nezalezhnosti, 39",
    "localName": "",
    "latitude": "49.924459",
    "longitude": "27.746386",
    "humidity": 31.73,
    "PM10": 34.45,
    "PM2n5": 15.7,
    "Pressure": 1005,
    "Temperature": 4,
    "AirQualityIndex": 170.5,
    "localId": 118
  },
  {
    "id": "SAVEDNIPRO_1543",
    "cityName": "Kharkiv",
    "stationName": "Hryhorivske shose, 57",
    "localName": "",
    "latitude": "49.979663",
    "longitude": "36.184030",
    "humidity": 42.74,
    "PM10": 3.03,
    "PM2n5": 11.35,
    "Pressure": 985,
    "Temperature": 1,
    "AirQualityIndex": 171.59,
    "localId": 119
  },
  {
    "id": "SAVEDNIPRO_1544",
    "cityName": "Kyiv",
    "stationName": "Street Anny Akhmatovoi, 47",
    "localName": "",
    "latitude": "50.404406",
    "longitude": "30.615846",
    "humidity": 26.93,
    "PM10": 33.66,
    "PM2n5": 4.27,
    "Pressure": 993,
    "Temperature": 1,
    "AirQualityIndex": 149.45,
    "localId": 120
  },
  {
    "id": "SAVEDNIPRO_1555",
    "cityName": "Raihorodok",
    "stationName": "Street Skhidna, 4",
    "localName": "",
    "latitude": "48.905655",
    "longitude": "37.724880",
    "humidity": 73.32,
    "PM10": 32.15,
    "PM2n5": 19.35,
    "Pressure": 986,
    "Temperature": 4,
    "AirQualityIndex": 98.88,
    "localId": 121
  },
  {
    "id": "SAVEDNIPRO_1557",
    "cityName": "Sloviansk",
    "stationName": "ploshcha Soborna, 2",
    "localName": "",
    "latitude": "48.851999",
    "longitude": "37.606324",
    "humidity": 41.29,
    "PM10": 33.42,
    "PM2n5": 15.79,
    "Pressure": 1010,
    "Temperature": 2,
    "AirQualityIndex": 134.61,
    "localId": 122
  },
  {
    "id": "SAVEDNIPRO_1558",
    "cityName": "Bakhmut",
    "stationName": "Street Myru, 44",
    "localName": "",
    "latitude": "48.589113",
    "longitude": "38.000524",
    "humidity": 44.76,
    "PM10": 46.83,
    "PM2n5": 2.17,
    "Pressure": 986,
    "Temperature": 3,
    "AirQualityIndex": 40.24,
    "localId": 123
  },
  {
    "id": "SAVEDNIPRO_1560",
    "cityName": "Mykolaivka",
    "stationName": "Street Mykhaila Petrenka, 7",
    "localName": "",
    "latitude": "48.855326",
    "longitude": "37.774202",
    "humidity": 31.55,
    "PM10": 25.56,
    "PM2n5": 7.96,
    "Pressure": 1019,
    "Temperature": 3,
    "AirQualityIndex": 131.05,
    "localId": 124
  },
  {
    "id": "SAVEDNIPRO_1561",
    "cityName": "Izmail",
    "stationName": "Street Riepina, 12",
    "localName": "",
    "latitude": "45.360426",
    "longitude": "28.818493",
    "humidity": 61.3,
    "PM10": 67.15,
    "PM2n5": 17.39,
    "Pressure": 1014,
    "Temperature": 0,
    "AirQualityIndex": 45.07,
    "localId": 125
  },
  {
    "id": "SAVEDNIPRO_1562",
    "cityName": "Toretsk",
    "stationName": "Street Maiakovskoho, 10",
    "localName": "",
    "latitude": "48.397121",
    "longitude": "37.843989",
    "humidity": 66.1,
    "PM10": 21.44,
    "PM2n5": 15.25,
    "Pressure": 997,
    "Temperature": 4,
    "AirQualityIndex": 72.49,
    "localId": 126
  },
  {
    "id": "SAVEDNIPRO_1563",
    "cityName": "Druzhkivka",
    "stationName": "Street Minska, 12",
    "localName": "",
    "latitude": "48.613735",
    "longitude": "37.486107",
    "humidity": 27.53,
    "PM10": 14.52,
    "PM2n5": 11.45,
    "Pressure": 990,
    "Temperature": 3,
    "AirQualityIndex": 11.64,
    "localId": 127
  },
  {
    "id": "SAVEDNIPRO_1564",
    "cityName": "Teplodar",
    "stationName": "Street Biliayivska, 3",
    "localName": "",
    "latitude": "46.5228989",
    "longitude": "30.3185014",
    "humidity": 59.65,
    "PM10": 77.68,
    "PM2n5": 1.87,
    "Pressure": 981,
    "Temperature": 0,
    "AirQualityIndex": 132.06,
    "localId": 128
  },
  {
    "id": "SAVEDNIPRO_1565",
    "cityName": "Serhiivka",
    "stationName": "Street Haharina, 1A",
    "localName": "",
    "latitude": "46.024188",
    "longitude": "30.362985",
    "humidity": 25.25,
    "PM10": 57.55,
    "PM2n5": 8.4,
    "Pressure": 983,
    "Temperature": 4,
    "AirQualityIndex": 48.39,
    "localId": 129
  },
  {
    "id": "SAVEDNIPRO_1566",
    "cityName": "Tsarychanka",
    "stationName": "Street 14 Hvardiiskoi Dyvizii, 10",
    "localName": "",
    "latitude": "48.941752",
    "longitude": "34.486318",
    "humidity": 48.22,
    "PM10": 36.07,
    "PM2n5": 12.83,
    "Pressure": 991,
    "Temperature": 0,
    "AirQualityIndex": 163.1,
    "localId": 130
  },
  {
    "id": "SAVEDNIPRO_1568",
    "cityName": "Perechyn",
    "stationName": "ploshcha Narodna, 16",
    "localName": "",
    "latitude": "48.735167",
    "longitude": "22.477306",
    "humidity": 30.98,
    "PM10": 44.39,
    "PM2n5": 16.87,
    "Pressure": 1013,
    "Temperature": 0,
    "AirQualityIndex": 196.21,
    "localId": 131
  },
  {
    "id": "SAVEDNIPRO_1569",
    "cityName": "Kozova",
    "stationName": "Street Mykhaila Hrushevskoho, 32",
    "localName": "",
    "latitude": "49.432754",
    "longitude": "25.144195",
    "humidity": 65.23,
    "PM10": 78.95,
    "PM2n5": 17.35,
    "Pressure": 1014,
    "Temperature": 1,
    "AirQualityIndex": 107.92,
    "localId": 132
  },
  {
    "id": "SAVEDNIPRO_1570",
    "cityName": "Novopskov",
    "stationName": "Street Shkilna, 15B",
    "localName": "",
    "latitude": "49.537144",
    "longitude": "39.114868",
    "humidity": 38.09,
    "PM10": 40.9,
    "PM2n5": 19.83,
    "Pressure": 981,
    "Temperature": 4,
    "AirQualityIndex": 148.06,
    "localId": 133
  },
  {
    "id": "SAVEDNIPRO_1571",
    "cityName": "Bilokurakyne",
    "stationName": "ploshcha Tarasa Shevchenka, 4",
    "localName": "",
    "latitude": "49.525283",
    "longitude": "38.731923",
    "humidity": 26.61,
    "PM10": 13.76,
    "PM2n5": 19.42,
    "Pressure": 1016,
    "Temperature": 1,
    "AirQualityIndex": 94.07,
    "localId": 134
  },
  {
    "id": "SAVEDNIPRO_1572",
    "cityName": "Pechenizhyn",
    "stationName": "Street Nezalezhnosti, 15",
    "localName": "",
    "latitude": "48.516707",
    "longitude": "24.883313",
    "humidity": 40.94,
    "PM10": 46.97,
    "PM2n5": 14.31,
    "Pressure": 995,
    "Temperature": 0,
    "AirQualityIndex": 72.5,
    "localId": 135
  },
  {
    "id": "SAVEDNIPRO_1573",
    "cityName": "Petropil",
    "stationName": "Street Molodizhna, 1",
    "localName": "",
    "latitude": "48.014856",
    "longitude": "34.950205",
    "humidity": 26.92,
    "PM10": 64.75,
    "PM2n5": 5.22,
    "Pressure": 999,
    "Temperature": 2,
    "AirQualityIndex": 148.13,
    "localId": 136
  },
  {
    "id": "SAVEDNIPRO_1576",
    "cityName": "Vyshniv",
    "stationName": "Street Nezalezhnosti, 80A",
    "localName": "",
    "latitude": "51.197866",
    "longitude": "24.030688",
    "humidity": 55.9,
    "PM10": 38.43,
    "PM2n5": 16.12,
    "Pressure": 1006,
    "Temperature": 2,
    "AirQualityIndex": 82.91,
    "localId": 137
  },
  {
    "id": "SAVEDNIPRO_1577",
    "cityName": "Drohobych",
    "stationName": "Street Hrushevskoho, 170",
    "localName": "",
    "latitude": "49.354152",
    "longitude": "23.540407",
    "humidity": 38.65,
    "PM10": 76.22,
    "PM2n5": 12.03,
    "Pressure": 991,
    "Temperature": 5,
    "AirQualityIndex": 50.04,
    "localId": 138
  },
  {
    "id": "SAVEDNIPRO_1579",
    "cityName": "Koriukivka",
    "stationName": "Street Bulvarna, 6",
    "localName": "",
    "latitude": "51.772445",
    "longitude": "32.258389",
    "humidity": 28.05,
    "PM10": 45.65,
    "PM2n5": 15.76,
    "Pressure": 993,
    "Temperature": 2,
    "AirQualityIndex": 100.99,
    "localId": 139
  },
  {
    "id": "SAVEDNIPRO_1580",
    "cityName": "Semenivka",
    "stationName": "3-y Tsentralnyi provulok, 2",
    "localName": "",
    "latitude": "52.173104",
    "longitude": "32.591975",
    "humidity": 48.16,
    "PM10": 63.54,
    "PM2n5": 5.9,
    "Pressure": 1001,
    "Temperature": 5,
    "AirQualityIndex": 88.86,
    "localId": 140
  },
  {
    "id": "SAVEDNIPRO_1581",
    "cityName": "Khmilnyk",
    "stationName": "Street Stoliarchuka, 10",
    "localName": "",
    "latitude": "49.558073",
    "longitude": "27.956940",
    "humidity": 31.85,
    "PM10": 59.46,
    "PM2n5": 17.73,
    "Pressure": 988,
    "Temperature": 4,
    "AirQualityIndex": 35.97,
    "localId": 141
  },
  {
    "id": "SAVEDNIPRO_1582",
    "cityName": "Khorostkiv",
    "stationName": "Street Bohdana Lepkoho, 1",
    "localName": "",
    "latitude": "49.212406",
    "longitude": "25.923519",
    "humidity": 29.61,
    "PM10": 30.89,
    "PM2n5": 11.7,
    "Pressure": 1012,
    "Temperature": 1,
    "AirQualityIndex": 26.63,
    "localId": 142
  },
  {
    "id": "SAVEDNIPRO_1583",
    "cityName": "Sambir",
    "stationName": "ploshcha Rynok, 1",
    "localName": "",
    "latitude": "49.518117",
    "longitude": "23.196529",
    "humidity": 60.65,
    "PM10": 66.75,
    "PM2n5": 10.66,
    "Pressure": 980,
    "Temperature": 5,
    "AirQualityIndex": 138.68,
    "localId": 143
  },
  {
    "id": "SAVEDNIPRO_1585",
    "cityName": "Chernihivka",
    "stationName": "Street Ukrainska, 57",
    "localName": "",
    "latitude": "47.194468",
    "longitude": "36.216471",
    "humidity": 35.2,
    "PM10": 54.62,
    "PM2n5": 11.62,
    "Pressure": 1008,
    "Temperature": 5,
    "AirQualityIndex": 85.19,
    "localId": 144
  },
  {
    "id": "SAVEDNIPRO_1586",
    "cityName": "Tetiiv",
    "stationName": "Street Yanusha Ostrozkoho, 5",
    "localName": "",
    "latitude": "49.371778",
    "longitude": "29.679528",
    "humidity": 61.41,
    "PM10": 54.9,
    "PM2n5": 14.47,
    "Pressure": 989,
    "Temperature": 5,
    "AirQualityIndex": 117.65,
    "localId": 145
  },
  {
    "id": "SAVEDNIPRO_1587",
    "cityName": "Snovsk",
    "stationName": "Street Nezalezhnosti, 19",
    "localName": "",
    "latitude": "51.819637",
    "longitude": "31.942129",
    "humidity": 47.21,
    "PM10": 30.26,
    "PM2n5": 17.67,
    "Pressure": 997,
    "Temperature": 5,
    "AirQualityIndex": 106.71,
    "localId": 146
  },
  {
    "id": "SAVEDNIPRO_1588",
    "cityName": "Sosnytsia",
    "stationName": "Street Osvity, 21A",
    "localName": "",
    "latitude": "51.524997",
    "longitude": "32.510375",
    "humidity": 49.97,
    "PM10": 38.55,
    "PM2n5": 19.45,
    "Pressure": 1019,
    "Temperature": 0,
    "AirQualityIndex": 15.31,
    "localId": 147
  },
  {
    "id": "SAVEDNIPRO_1589",
    "cityName": "Kiliia",
    "stationName": "Street Dunaiska, 92",
    "localName": "",
    "latitude": "45.452392",
    "longitude": "29.261819",
    "humidity": 51.88,
    "PM10": 73.15,
    "PM2n5": 13.3,
    "Pressure": 997,
    "Temperature": 1,
    "AirQualityIndex": 16.19,
    "localId": 148
  },
  {
    "id": "SAVEDNIPRO_1590",
    "cityName": "Yuzhne",
    "stationName": "prospekt Hryhorivskoho Desanta, 18",
    "localName": "",
    "latitude": "46.621765",
    "longitude": "31.101823",
    "humidity": 67.09,
    "PM10": 24.22,
    "PM2n5": 7.12,
    "Pressure": 1019,
    "Temperature": 4,
    "AirQualityIndex": 14.81,
    "localId": 149
  },
  {
    "id": "SAVEDNIPRO_1592",
    "cityName": "Novoukrainka",
    "stationName": "Street Pokrovska, 70",
    "localName": "",
    "latitude": "48.316617",
    "longitude": "31.523581",
    "humidity": 54.41,
    "PM10": 8.96,
    "PM2n5": 19.86,
    "Pressure": 994,
    "Temperature": 0,
    "AirQualityIndex": 159.2,
    "localId": 150
  },
  {
    "id": "SAVEDNIPRO_1593",
    "cityName": "Vasylkivka",
    "stationName": "Vasylkivka",
    "localName": "",
    "latitude": "48.217358",
    "longitude": "36.011523",
    "humidity": 38.83,
    "PM10": 41.53,
    "PM2n5": 18.37,
    "Pressure": 1013,
    "Temperature": 3,
    "AirQualityIndex": 185.75,
    "localId": 151
  },
  {
    "id": "SAVEDNIPRO_1595",
    "cityName": "Kulykivka",
    "stationName": "Street Myru, 67",
    "localName": "",
    "latitude": "51.373776",
    "longitude": "31.645106",
    "humidity": 39.87,
    "PM10": 76.57,
    "PM2n5": 2.93,
    "Pressure": 988,
    "Temperature": 3,
    "AirQualityIndex": 179.61,
    "localId": 152
  },
  {
    "id": "SAVEDNIPRO_1596",
    "cityName": "Mykhailivka",
    "stationName": "Street Shevchenka, 31",
    "localName": "",
    "latitude": "46.585535",
    "longitude": "34.562095",
    "humidity": 47.06,
    "PM10": 58.49,
    "PM2n5": 8.02,
    "Pressure": 1013,
    "Temperature": 3,
    "AirQualityIndex": 69.72,
    "localId": 153
  },
  {
    "id": "SAVEDNIPRO_1597",
    "cityName": "Fastiv",
    "stationName": "Street Trudova, 32",
    "localName": "",
    "latitude": "50.062178",
    "longitude": "29.918784",
    "humidity": 54.84,
    "PM10": 19.24,
    "PM2n5": 8.63,
    "Pressure": 1008,
    "Temperature": 2,
    "AirQualityIndex": 156.74,
    "localId": 154
  },
  {
    "id": "SAVEDNIPRO_1601",
    "cityName": "Bilhorod-Dnistrovskyi",
    "stationName": "Street Peremohy, 25",
    "localName": "",
    "latitude": "46.181611",
    "longitude": "30.362611",
    "humidity": 73.34,
    "PM10": 1.98,
    "PM2n5": 18.95,
    "Pressure": 1008,
    "Temperature": 2,
    "AirQualityIndex": 185.1,
    "localId": 155
  },
  {
    "id": "SAVEDNIPRO_1602",
    "cityName": "Zatoka",
    "stationName": "Street Prymorska, 20",
    "localName": "",
    "latitude": "46.067602",
    "longitude": "30.457430",
    "humidity": 37.56,
    "PM10": 50.49,
    "PM2n5": 6.73,
    "Pressure": 995,
    "Temperature": 0,
    "AirQualityIndex": 154.58,
    "localId": 156
  },
  {
    "id": "SAVEDNIPRO_1603",
    "cityName": "Verkhovyna",
    "stationName": "Street Ivana Franka, 3",
    "localName": "",
    "latitude": "48.155409",
    "longitude": "24.829758",
    "humidity": 55.52,
    "PM10": 49.29,
    "PM2n5": 14.28,
    "Pressure": 988,
    "Temperature": 3,
    "AirQualityIndex": 146.4,
    "localId": 157
  },
  {
    "id": "SAVEDNIPRO_1604",
    "cityName": "Vorokhta",
    "stationName": "Street Danyla Halytsoho, 41",
    "localName": "",
    "latitude": "48.292875",
    "longitude": "24.563048",
    "humidity": 62.25,
    "PM10": 32.91,
    "PM2n5": 10.78,
    "Pressure": 1008,
    "Temperature": 1,
    "AirQualityIndex": 86.67,
    "localId": 158
  },
  {
    "id": "SAVEDNIPRO_1605",
    "cityName": "Yasinia",
    "stationName": "Street Myru, 6",
    "localName": "",
    "latitude": "48.271480",
    "longitude": "24.360622",
    "humidity": 38.23,
    "PM10": 67.01,
    "PM2n5": 10.66,
    "Pressure": 984,
    "Temperature": 4,
    "AirQualityIndex": 98.17,
    "localId": 159
  },
  {
    "id": "SAVEDNIPRO_1606",
    "cityName": "Kosiv",
    "stationName": "maidan Nezalezhnosti, 11",
    "localName": "",
    "latitude": "48.320237",
    "longitude": "25.091142",
    "humidity": 71.9,
    "PM10": 2.84,
    "PM2n5": 2.24,
    "Pressure": 981,
    "Temperature": 2,
    "AirQualityIndex": 139,
    "localId": 160
  },
  {
    "id": "SAVEDNIPRO_1607",
    "cityName": "Yaremche",
    "stationName": "Street Svobody, 265",
    "localName": "",
    "latitude": "48.448912",
    "longitude": "24.553462",
    "humidity": 29.57,
    "PM10": 65.23,
    "PM2n5": 3.67,
    "Pressure": 1010,
    "Temperature": 0,
    "AirQualityIndex": 7.25,
    "localId": 161
  },
  {
    "id": "SAVEDNIPRO_1637",
    "cityName": "Maniava",
    "stationName": "Street Nezalezhnosti, 20",
    "localName": "",
    "latitude": "48.653396",
    "longitude": "24.374891",
    "humidity": 32.42,
    "PM10": 55.08,
    "PM2n5": 10.35,
    "Pressure": 1013,
    "Temperature": 2,
    "AirQualityIndex": 111.89,
    "localId": 162
  },
  {
    "id": "SAVEDNIPRO_1638",
    "cityName": "Cherkasy",
    "stationName": "provulok Krainii, 24",
    "localName": "",
    "latitude": "49.4058272",
    "longitude": "32.0392034",
    "humidity": 60.55,
    "PM10": 29.71,
    "PM2n5": 13.37,
    "Pressure": 991,
    "Temperature": 4,
    "AirQualityIndex": 144.15,
    "localId": 163
  },
  {
    "id": "SAVEDNIPRO_1639",
    "cityName": "Tomashpil",
    "stationName": "ploshcha Tarasa Shevchenka, 1",
    "localName": "",
    "latitude": "48.536566",
    "longitude": "28.513644",
    "humidity": 32.87,
    "PM10": 71.69,
    "PM2n5": 9.37,
    "Pressure": 993,
    "Temperature": 5,
    "AirQualityIndex": 45.91,
    "localId": 164
  },
  {
    "id": "SAVEDNIPRO_1645",
    "cityName": "Bilshivtsi",
    "stationName": "Street Striletska, 5",
    "localName": "",
    "latitude": "49.182508",
    "longitude": "24.743334",
    "humidity": 45.72,
    "PM10": 17.24,
    "PM2n5": 18.11,
    "Pressure": 996,
    "Temperature": 5,
    "AirQualityIndex": 128.58,
    "localId": 165
  },
  {
    "id": "SAVEDNIPRO_1646",
    "cityName": "Zaozerne",
    "stationName": "Street Shkilna, 59",
    "localName": "",
    "latitude": "48.690250",
    "longitude": "29.155364",
    "humidity": 48.81,
    "PM10": 33.07,
    "PM2n5": 19.09,
    "Pressure": 1009,
    "Temperature": 2,
    "AirQualityIndex": 128.28,
    "localId": 166
  },
  {
    "id": "SAVEDNIPRO_2738",
    "cityName": "Zaporizhzhia",
    "stationName": "Street Sviatoho Mykolaia 67",
    "localName": "",
    "latitude": "47.8159538",
    "longitude": "35.1734128",
    "humidity": 47.75,
    "PM10": 48.15,
    "PM2n5": 15.66,
    "Pressure": 991,
    "Temperature": 3,
    "AirQualityIndex": 131.09,
    "localId": 167
  },
  {
    "id": "SAVEDNIPRO_2923",
    "cityName": "Petropavlivska Borshchahivka",
    "stationName": "Street Lvivska, 1A, k.4-2",
    "localName": "",
    "latitude": "50.433252",
    "longitude": "30.319928",
    "humidity": 36.73,
    "PM10": 55.06,
    "PM2n5": 3.79,
    "Pressure": 1000,
    "Temperature": 2,
    "AirQualityIndex": 142.49,
    "localId": 168
  },
  {
    "id": "SAVEDNIPRO_2924",
    "cityName": "Kyiv",
    "stationName": "Street Heroiv Oborony, 13",
    "localName": "",
    "latitude": "50.383883",
    "longitude": "30.496689",
    "humidity": 43.08,
    "PM10": 39.99,
    "PM2n5": 8.83,
    "Pressure": 990,
    "Temperature": 4,
    "AirQualityIndex": 63.97,
    "localId": 169
  },
  {
    "id": "SAVEDNIPRO_2925",
    "cityName": "Kyiv",
    "stationName": "Street Tykhoritska, 30/7",
    "localName": "",
    "latitude": "50.4003378",
    "longitude": "30.4966682",
    "humidity": 51.88,
    "PM10": 21.65,
    "PM2n5": 3.25,
    "Pressure": 987,
    "Temperature": 0,
    "AirQualityIndex": 73.06,
    "localId": 170
  },
  {
    "id": "SAVEDNIPRO_2944",
    "cityName": "Nadvirna",
    "stationName": "Street Soborna, 120",
    "localName": "",
    "latitude": "48.613466",
    "longitude": "24.575289",
    "humidity": 34.84,
    "PM10": 58,
    "PM2n5": 19.21,
    "Pressure": 1017,
    "Temperature": 4,
    "AirQualityIndex": 142.03,
    "localId": 171
  },
  {
    "id": "SAVEDNIPRO_2946",
    "cityName": "Verkhovyna",
    "stationName": "Street Kryvets",
    "localName": "",
    "latitude": "48.147531",
    "longitude": "24.785409",
    "humidity": 35.81,
    "PM10": 13.99,
    "PM2n5": 3.3,
    "Pressure": 1019,
    "Temperature": 4,
    "AirQualityIndex": 143.82,
    "localId": 172
  },
  {
    "id": "SAVEDNIPRO_2947",
    "cityName": "Kyiv",
    "stationName": "Street Desiatynna, 13",
    "localName": "",
    "latitude": "50.382794",
    "longitude": "30.457889",
    "humidity": 47.75,
    "PM10": 19.55,
    "PM2n5": 17.01,
    "Pressure": 1005,
    "Temperature": 1,
    "AirQualityIndex": 119.27,
    "localId": 173
  },
  {
    "id": "SAVEDNIPRO_2948",
    "cityName": "Dachne",
    "stationName": "provulok Aptechnyi, 5",
    "localName": "",
    "latitude": "46.582371",
    "longitude": "30.550164",
    "humidity": 42.66,
    "PM10": 10.03,
    "PM2n5": 6.75,
    "Pressure": 987,
    "Temperature": 2,
    "AirQualityIndex": 81.45,
    "localId": 174
  },
  {
    "id": "SAVEDNIPRO_2971",
    "cityName": "Nadvirna",
    "stationName": "Street Danyla Halytskoho",
    "localName": "",
    "latitude": "48.637791",
    "longitude": "24.589826",
    "humidity": 53.79,
    "PM10": 14.97,
    "PM2n5": 12.22,
    "Pressure": 1009,
    "Temperature": 3,
    "AirQualityIndex": 131.77,
    "localId": 175
  },
  {
    "id": "SAVEDNIPRO_2972",
    "cityName": "Tatariv",
    "stationName": "urochyshche Pihy, 660",
    "localName": "",
    "latitude": "48.334527",
    "longitude": "24.581930",
    "humidity": 58.5,
    "PM10": 61.45,
    "PM2n5": 17.99,
    "Pressure": 1008,
    "Temperature": 2,
    "AirQualityIndex": 18.25,
    "localId": 176
  },
  {
    "id": "SAVEDNIPRO_2973",
    "cityName": "Kyiv",
    "stationName": "2-y Tupykovyi provulok, 18",
    "localName": "",
    "latitude": "50.3683248",
    "longitude": "30.6842978",
    "humidity": 37.29,
    "PM10": 6.13,
    "PM2n5": 10,
    "Pressure": 1005,
    "Temperature": 0,
    "AirQualityIndex": 48.33,
    "localId": 177
  },
  {
    "id": "SAVEDNIPRO_2974",
    "cityName": "Dnipro",
    "stationName": "prospekt Bohdana Khmelnytskoho, 156",
    "localName": "",
    "latitude": "48.389709",
    "longitude": "34.999168",
    "humidity": 49.68,
    "PM10": 47.44,
    "PM2n5": 12.31,
    "Pressure": 1018,
    "Temperature": 5,
    "AirQualityIndex": 192.04,
    "localId": 178
  },
  {
    "id": "SAVEDNIPRO_3014",
    "cityName": "Brovary",
    "stationName": "Street Haidamatska, 33",
    "localName": "",
    "latitude": "50.496656",
    "longitude": "30.744022",
    "humidity": 66.61,
    "PM10": 24.08,
    "PM2n5": 13.4,
    "Pressure": 1009,
    "Temperature": 4,
    "AirQualityIndex": 70.66,
    "localId": 179
  },
  {
    "id": "SAVEDNIPRO_3015",
    "cityName": "Peremoha",
    "stationName": "Street Korolova, 10",
    "localName": "",
    "latitude": "50.542000",
    "longitude": "30.825502",
    "humidity": 55.86,
    "PM10": 14.64,
    "PM2n5": 5.97,
    "Pressure": 996,
    "Temperature": 4,
    "AirQualityIndex": 107.08,
    "localId": 180
  },
  {
    "id": "SAVEDNIPRO_3016",
    "cityName": "Kyiv",
    "stationName": "Street Budindustrii, 4",
    "localName": "",
    "latitude": "50.402528",
    "longitude": "30.568056",
    "humidity": 26.72,
    "PM10": 74.34,
    "PM2n5": 12.16,
    "Pressure": 981,
    "Temperature": 3,
    "AirQualityIndex": 114.54,
    "localId": 181
  },
  {
    "id": "SAVEDNIPRO_3017",
    "cityName": "Illinivka",
    "stationName": "Street Krynychna, 32",
    "localName": "",
    "latitude": "48.491370",
    "longitude": "37.673650",
    "humidity": 58.67,
    "PM10": 26.67,
    "PM2n5": 12.13,
    "Pressure": 995,
    "Temperature": 2,
    "AirQualityIndex": 33,
    "localId": 182
  },
  {
    "id": "SAVEDNIPRO_3018",
    "cityName": "Kyiv",
    "stationName": "Street Zhylianska, 30A",
    "localName": "",
    "latitude": "50.434808",
    "longitude": "30.510823",
    "humidity": 34.78,
    "PM10": 44.16,
    "PM2n5": 10.44,
    "Pressure": 1006,
    "Temperature": 1,
    "AirQualityIndex": 27.2,
    "localId": 183
  },
  {
    "id": "SAVEDNIPRO_3021",
    "cityName": "Mykolaiv",
    "stationName": "Street Metalurhiv 8",
    "localName": "",
    "latitude": "46.868088",
    "longitude": "32.009947",
    "humidity": 46.79,
    "PM10": 71.13,
    "PM2n5": 6.07,
    "Pressure": 1001,
    "Temperature": 5,
    "AirQualityIndex": 111.05,
    "localId": 184
  },
  {
    "id": "SAVEDNIPRO_3022",
    "cityName": "Dnipro",
    "stationName": "Street Nakhimova 41",
    "localName": "",
    "latitude": "48.4464278",
    "longitude": "35.0151460",
    "humidity": 44.95,
    "PM10": 33,
    "PM2n5": 8.91,
    "Pressure": 1006,
    "Temperature": 2,
    "AirQualityIndex": 6,
    "localId": 185
  },
  {
    "id": "SAVEDNIPRO_3144",
    "cityName": "Svydivok",
    "stationName": "Street Sydorchuka, 37",
    "localName": "",
    "latitude": "49.512636",
    "longitude": "31.906911",
    "humidity": 60.5,
    "PM10": 26.58,
    "PM2n5": 12.76,
    "Pressure": 1017,
    "Temperature": 0,
    "AirQualityIndex": 114.31,
    "localId": 186
  },
  {
    "id": "SAVEDNIPRO_3210",
    "cityName": "Vyshneve",
    "stationName": "Street Pershotravneva, 21",
    "localName": "Luftdaten #40723",
    "latitude": "50.382",
    "longitude": "30.38",
    "humidity": 69.44,
    "PM10": 62.59,
    "PM2n5": 12.58,
    "Pressure": 1000,
    "Temperature": 2,
    "AirQualityIndex": 145.25,
    "localId": 187
  },
  {
    "id": "SAVEDNIPRO_3260",
    "cityName": "Cherkasy",
    "stationName": "Street 30-richchia Peremohy, 38",
    "localName": "",
    "latitude": "49.4255539915765",
    "longitude": "32.01328954180976",
    "humidity": 49.96,
    "PM10": 6.25,
    "PM2n5": 3.84,
    "Pressure": 1000,
    "Temperature": 0,
    "AirQualityIndex": 79.1,
    "localId": 188
  },
  {
    "id": "SAVEDNIPRO_3262",
    "cityName": "Cherkasy",
    "stationName": "bulvar Shevchenko, 460",
    "localName": "",
    "latitude": "49.422005",
    "longitude": "32.096475",
    "humidity": 27.33,
    "PM10": 45.99,
    "PM2n5": 5.84,
    "Pressure": 990,
    "Temperature": 2,
    "AirQualityIndex": 53.93,
    "localId": 189
  },
  {
    "id": "SAVEDNIPRO_3263",
    "cityName": "Cherkasy",
    "stationName": "Street Baidy Vyshnevetskoho, 49",
    "localName": "",
    "latitude": "49.442538",
    "longitude": "32.056531",
    "humidity": 55.54,
    "PM10": 54.7,
    "PM2n5": 6.1,
    "Pressure": 1017,
    "Temperature": 4,
    "AirQualityIndex": 96.57,
    "localId": 190
  },
  {
    "id": "SAVEDNIPRO_3264",
    "cityName": "Cherkasy",
    "stationName": "Street Pakhariv Khutir, 29",
    "localName": "",
    "latitude": "49.456974",
    "longitude": "32.007218",
    "humidity": 34.95,
    "PM10": 44.81,
    "PM2n5": 10.26,
    "Pressure": 993,
    "Temperature": 3,
    "AirQualityIndex": 73.75,
    "localId": 191
  },
  {
    "id": "SAVEDNIPRO_3306",
    "cityName": "Kyiv",
    "stationName": "Street Lavrska, 8",
    "localName": "",
    "latitude": "50.436484",
    "longitude": "30.552905",
    "humidity": 62.3,
    "PM10": 36.63,
    "PM2n5": 6.6,
    "Pressure": 1014,
    "Temperature": 4,
    "AirQualityIndex": 139.13,
    "localId": 192
  },
  {
    "id": "SAVEDNIPRO_3398",
    "cityName": "Kyiv",
    "stationName": "Street Vasylia Tiutiunnyka, 53",
    "localName": "",
    "latitude": "50.417128",
    "longitude": "30.528690",
    "humidity": 52.69,
    "PM10": 72.58,
    "PM2n5": 2.01,
    "Pressure": 989,
    "Temperature": 5,
    "AirQualityIndex": 3.43,
    "localId": 193
  },
  {
    "id": "SAVEDNIPRO_3401",
    "cityName": "Kyiv",
    "stationName": "Street Yelyzavety Chavdar, 6",
    "localName": "",
    "latitude": "50.3915128",
    "longitude": "30.6237862",
    "humidity": 42.27,
    "PM10": 50.58,
    "PM2n5": 16.39,
    "Pressure": 982,
    "Temperature": 5,
    "AirQualityIndex": 175.62,
    "localId": 194
  },
  {
    "id": "SAVEDNIPRO_3418",
    "cityName": "Kremenets",
    "stationName": "Street Slovatskoho",
    "localName": "",
    "latitude": "50.095595",
    "longitude": "25.722824",
    "humidity": 29.57,
    "PM10": 22.12,
    "PM2n5": 1.4,
    "Pressure": 1011,
    "Temperature": 4,
    "AirQualityIndex": 128.72,
    "localId": 195
  },
  {
    "id": "SAVEDNIPRO_3419",
    "cityName": "Petropavlivska Borshchahivka",
    "stationName": "Street Dnipropetrovska",
    "localName": "",
    "latitude": "50.4218146",
    "longitude": "30.3273005",
    "humidity": 29.82,
    "PM10": 51.96,
    "PM2n5": 18.97,
    "Pressure": 986,
    "Temperature": 2,
    "AirQualityIndex": 47.38,
    "localId": 196
  },
  {
    "id": "SAVEDNIPRO_3420",
    "cityName": "Lviv",
    "stationName": "Street Zelena, 27",
    "localName": "",
    "latitude": "49.833325",
    "longitude": "24.039184",
    "humidity": 48.93,
    "PM10": 31.5,
    "PM2n5": 10.39,
    "Pressure": 1013,
    "Temperature": 3,
    "AirQualityIndex": 21.73,
    "localId": 197
  },
  {
    "id": "SAVEDNIPRO_3422",
    "cityName": "Kyiv",
    "stationName": "bulvar Perova, 10A",
    "localName": "",
    "latitude": "50.471205",
    "longitude": "30.598600",
    "humidity": 56.19,
    "PM10": 29.64,
    "PM2n5": 8.32,
    "Pressure": 982,
    "Temperature": 5,
    "AirQualityIndex": 128.51,
    "localId": 198
  },
  {
    "id": "SAVEDNIPRO_3423",
    "cityName": "Kozyn",
    "stationName": "Street Zarichna, 4",
    "localName": "",
    "latitude": "50.234897",
    "longitude": "30.663275",
    "humidity": 66.95,
    "PM10": 51.92,
    "PM2n5": 13.2,
    "Pressure": 1013,
    "Temperature": 4,
    "AirQualityIndex": 50.94,
    "localId": 199
  },
  {
    "id": "SAVEDNIPRO_3424",
    "cityName": "Vyshenky",
    "stationName": "Street Velyka Naberezhna",
    "localName": "",
    "latitude": "50.2850885",
    "longitude": "30.6995002",
    "humidity": 42.21,
    "PM10": 76.98,
    "PM2n5": 6.95,
    "Pressure": 1003,
    "Temperature": 1,
    "AirQualityIndex": 44.26,
    "localId": 200
  },
  {
    "id": "SAVEDNIPRO_3535",
    "cityName": "Kyiv",
    "stationName": "Street Sovska, 23",
    "localName": "",
    "latitude": "50.397128",
    "longitude": "30.455709",
    "humidity": 34.62,
    "PM10": 25.47,
    "PM2n5": 11.8,
    "Pressure": 1009,
    "Temperature": 4,
    "AirQualityIndex": 69.23,
    "localId": 201
  },
  {
    "id": "SAVEDNIPRO_3572",
    "cityName": "Kyiv",
    "stationName": "Street Mykhaila Drahomanova, 17",
    "localName": "",
    "latitude": "50.409345",
    "longitude": "30.639613",
    "humidity": 40.53,
    "PM10": 76.96,
    "PM2n5": 18.23,
    "Pressure": 997,
    "Temperature": 1,
    "AirQualityIndex": 69.46,
    "localId": 202
  },
  {
    "id": "SAVEDNIPRO_3594",
    "cityName": "Baranivka",
    "stationName": "Street Ivana Franka, 1A",
    "localName": "",
    "latitude": "50.287114",
    "longitude": "27.648709",
    "humidity": 58.93,
    "PM10": 21.24,
    "PM2n5": 13.97,
    "Pressure": 984,
    "Temperature": 3,
    "AirQualityIndex": 66.16,
    "localId": 203
  },
  {
    "id": "SAVEDNIPRO_3595",
    "cityName": "Dnipro",
    "stationName": "Street Vysokovoltna, 14m",
    "localName": "",
    "latitude": "48.423869",
    "longitude": "35.031133",
    "humidity": 53.77,
    "PM10": 6.39,
    "PM2n5": 8.52,
    "Pressure": 1006,
    "Temperature": 3,
    "AirQualityIndex": 122.77,
    "localId": 204
  },
  {
    "id": "SAVEDNIPRO_3596",
    "cityName": "Horishni Plavni",
    "stationName": "Street Horkoho, 195",
    "localName": "",
    "latitude": "49.034799",
    "longitude": "33.564750",
    "humidity": 39.93,
    "PM10": 72.3,
    "PM2n5": 11.89,
    "Pressure": 989,
    "Temperature": 5,
    "AirQualityIndex": 45.6,
    "localId": 205
  },
  {
    "id": "SAVEDNIPRO_3597",
    "cityName": "Khotiv",
    "stationName": "Street Lisova, 34",
    "localName": "",
    "latitude": "50.3328803",
    "longitude": "30.4440768",
    "humidity": 62.8,
    "PM10": 50.74,
    "PM2n5": 9.22,
    "Pressure": 1008,
    "Temperature": 0,
    "AirQualityIndex": 104.19,
    "localId": 206
  },
  {
    "id": "SAVEDNIPRO_3605",
    "cityName": "Dnipro",
    "stationName": "Street Molodohvardiiska, 18",
    "localName": "",
    "latitude": "48.476547",
    "longitude": "35.117154",
    "humidity": 70.54,
    "PM10": 49.53,
    "PM2n5": 1.87,
    "Pressure": 996,
    "Temperature": 4,
    "AirQualityIndex": 118.34,
    "localId": 207
  },
  {
    "id": "SAVEDNIPRO_3608",
    "cityName": "Dnipro",
    "stationName": "Street 20-richchia Peremohy, 43",
    "localName": "",
    "latitude": "48.416020",
    "longitude": "35.132420",
    "humidity": 32.93,
    "PM10": 65.15,
    "PM2n5": 17.22,
    "Pressure": 1012,
    "Temperature": 0,
    "AirQualityIndex": 1.45,
    "localId": 208
  },
  {
    "id": "SAVEDNIPRO_3616",
    "cityName": "Dnipro",
    "stationName": "Street Topolyna, 35",
    "localName": "",
    "latitude": "48.391809",
    "longitude": "35.021741",
    "humidity": 49.88,
    "PM10": 32.82,
    "PM2n5": 15.68,
    "Pressure": 1009,
    "Temperature": 3,
    "AirQualityIndex": 14.62,
    "localId": 209
  },
  {
    "id": "SAVEDNIPRO_3617",
    "cityName": "Dnipro",
    "stationName": "Street Chernyshevskoho, 24A",
    "localName": "",
    "latitude": "48.453418",
    "longitude": "35.053162",
    "humidity": 58.32,
    "PM10": 51.17,
    "PM2n5": 9.14,
    "Pressure": 1020,
    "Temperature": 5,
    "AirQualityIndex": 49.05,
    "localId": 210
  },
  {
    "id": "SAVEDNIPRO_3683",
    "cityName": "Krekhaiv",
    "stationName": "Sadove tovarystvo Khimik",
    "localName": "",
    "latitude": "50.783955",
    "longitude": "30.769977",
    "humidity": 65.77,
    "PM10": 49.85,
    "PM2n5": 2.58,
    "Pressure": 1012,
    "Temperature": 5,
    "AirQualityIndex": 168.08,
    "localId": 211
  },
  {
    "id": "SAVEDNIPRO_4061",
    "cityName": "Dnipro",
    "stationName": "Donetske shose, 1",
    "localName": "",
    "latitude": "48.5104497",
    "longitude": "34.9874743",
    "humidity": 39.06,
    "PM10": 60.54,
    "PM2n5": 9.01,
    "Pressure": 1018,
    "Temperature": 3,
    "AirQualityIndex": 124.79,
    "localId": 212
  },
  {
    "id": "SAVEDNIPRO_4185",
    "cityName": "Rozhivka",
    "stationName": "Street Slavy, 17",
    "localName": "",
    "latitude": "50.600621",
    "longitude": "30.761064",
    "humidity": 62.98,
    "PM10": 5.91,
    "PM2n5": 17.57,
    "Pressure": 996,
    "Temperature": 3,
    "AirQualityIndex": 128.59,
    "localId": 213
  },
  {
    "id": "SAVEDNIPRO_4186",
    "cityName": "Ukrainka",
    "stationName": "Street Sosnova",
    "localName": "",
    "latitude": "50.155032",
    "longitude": "30.746305",
    "humidity": 65.96,
    "PM10": 48.66,
    "PM2n5": 1.45,
    "Pressure": 1011,
    "Temperature": 3,
    "AirQualityIndex": 58.06,
    "localId": 214
  },
  {
    "id": "SAVEDNIPRO_4187",
    "cityName": "Brovary",
    "stationName": "Street Oleksiia Bolshechenka, 7",
    "localName": "",
    "latitude": "50.519816",
    "longitude": "30.774017",
    "humidity": 63.93,
    "PM10": 20.92,
    "PM2n5": 12.17,
    "Pressure": 1000,
    "Temperature": 3,
    "AirQualityIndex": 94.91,
    "localId": 215
  },
  {
    "id": "SAVEDNIPRO_4189",
    "cityName": "Kharkiv",
    "stationName": "prospekt Nauky, 43",
    "localName": "",
    "latitude": "50.033602",
    "longitude": "36.220648",
    "humidity": 55.7,
    "PM10": 20.83,
    "PM2n5": 17.51,
    "Pressure": 1017,
    "Temperature": 3,
    "AirQualityIndex": 148.83,
    "localId": 216
  },
  {
    "id": "SAVEDNIPRO_4190",
    "cityName": "Vita-Poshtova",
    "stationName": "Street Ozerna",
    "localName": "",
    "latitude": "50.307679",
    "longitude": "30.363271",
    "humidity": 70.29,
    "PM10": 30.93,
    "PM2n5": 3.38,
    "Pressure": 992,
    "Temperature": 5,
    "AirQualityIndex": 70.64,
    "localId": 217
  },
  {
    "id": "SAVEDNIPRO_4200",
    "cityName": "Dnipro",
    "stationName": "Street Hidroparkova, 9",
    "localName": "",
    "latitude": "48.478241",
    "longitude": "34.903792",
    "humidity": 51.13,
    "PM10": 11.15,
    "PM2n5": 6.77,
    "Pressure": 1007,
    "Temperature": 5,
    "AirQualityIndex": 194.75,
    "localId": 218
  },
  {
    "id": "SAVEDNIPRO_4201",
    "cityName": "Kyiv",
    "stationName": "Street Pavla Pototskoho",
    "localName": "",
    "latitude": "50.3963897",
    "longitude": "30.4485849",
    "humidity": 37.25,
    "PM10": 47.97,
    "PM2n5": 13.41,
    "Pressure": 1018,
    "Temperature": 3,
    "AirQualityIndex": 181.82,
    "localId": 219
  },
  {
    "id": "SAVEDNIPRO_4202",
    "cityName": "Nova Kakhovka",
    "stationName": "Street Paryzkoi komuny",
    "localName": "",
    "latitude": "46.757534",
    "longitude": "33.369862",
    "humidity": 32.23,
    "PM10": 39.15,
    "PM2n5": 17.12,
    "Pressure": 1001,
    "Temperature": 4,
    "AirQualityIndex": 154.83,
    "localId": 220
  },
  {
    "id": "SAVEDNIPRO_4208",
    "cityName": "Dnipro",
    "stationName": "Street Berdianska, 1",
    "localName": "",
    "latitude": "48.487060",
    "longitude": "35.066893",
    "humidity": 57.24,
    "PM10": 42.41,
    "PM2n5": 15.29,
    "Pressure": 995,
    "Temperature": 5,
    "AirQualityIndex": 90.49,
    "localId": 221
  },
  {
    "id": "SAVEDNIPRO_4210",
    "cityName": "Dnipro",
    "stationName": "prospekt Bohdana Khmelnytskoho, 229",
    "localName": "",
    "latitude": "48.373500",
    "longitude": "34.995097",
    "humidity": 62.15,
    "PM10": 35.78,
    "PM2n5": 9.38,
    "Pressure": 1015,
    "Temperature": 3,
    "AirQualityIndex": 106.12,
    "localId": 222
  },
  {
    "id": "SAVEDNIPRO_4232",
    "cityName": "Kyiv",
    "stationName": "Street Desiatynna, 13",
    "localName": "",
    "latitude": "50.457508",
    "longitude": "30.519401",
    "humidity": 70.72,
    "PM10": 5.69,
    "PM2n5": 1.93,
    "Pressure": 995,
    "Temperature": 3,
    "AirQualityIndex": 19.62,
    "localId": 223
  },
  {
    "id": "SAVEDNIPRO_13405",
    "cityName": "Roslavychi",
    "stationName": "KH Berezovaia roshcha",
    "localName": "",
    "latitude": "50.266944",
    "longitude": "30.443000",
    "humidity": 29.11,
    "PM10": 42.18,
    "PM2n5": 4.54,
    "Pressure": 1007,
    "Temperature": 5,
    "AirQualityIndex": 86.79,
    "localId": 224
  },
  {
    "id": "SAVEDNIPRO_13406",
    "cityName": "Hatne",
    "stationName": "vulytsa Barvinkova, 11a",
    "localName": "",
    "latitude": "50.371506",
    "longitude": "30.422791",
    "humidity": 53.81,
    "PM10": 26.34,
    "PM2n5": 13.94,
    "Pressure": 1005,
    "Temperature": 4,
    "AirQualityIndex": 129.29,
    "localId": 225
  },
  {
    "id": "SAVEDNIPRO_13407",
    "cityName": "Kyiv",
    "stationName": "bulvar Darnytskyi, 10",
    "localName": "",
    "latitude": "50.464790",
    "longitude": "30.611383",
    "humidity": 47.03,
    "PM10": 26.27,
    "PM2n5": 7.71,
    "Pressure": 983,
    "Temperature": 5,
    "AirQualityIndex": 92.76,
    "localId": 226
  },
  {
    "id": "SAVEDNIPRO_13409",
    "cityName": "Severynivka",
    "stationName": "Street Pavla Skoropadskoho",
    "localName": "",
    "latitude": "50.395791",
    "longitude": "29.978961",
    "humidity": 72.28,
    "PM10": 30.56,
    "PM2n5": 7.25,
    "Pressure": 1004,
    "Temperature": 2,
    "AirQualityIndex": 165.96,
    "localId": 227
  },
  {
    "id": "SAVEDNIPRO_13411",
    "cityName": "Kozyn",
    "stationName": "Street Starokyivska",
    "localName": "",
    "latitude": "50.257856",
    "longitude": "30.653474",
    "humidity": 29.82,
    "PM10": 49,
    "PM2n5": 11.84,
    "Pressure": 998,
    "Temperature": 1,
    "AirQualityIndex": 121.24,
    "localId": 228
  },
  {
    "id": "SAVEDNIPRO_13413",
    "cityName": "Kyiv",
    "stationName": "Street Hertsena, 35",
    "localName": "",
    "latitude": "50.472750",
    "longitude": "30.463750",
    "humidity": 66.53,
    "PM10": 69.04,
    "PM2n5": 19.63,
    "Pressure": 984,
    "Temperature": 1,
    "AirQualityIndex": 84.61,
    "localId": 229
  },
  {
    "id": "SAVEDNIPRO_13414",
    "cityName": "Bohuslav",
    "stationName": "Street Ivana Franka, 22/1",
    "localName": "",
    "latitude": "49.537806",
    "longitude": "30.864059",
    "humidity": 73.77,
    "PM10": 2.45,
    "PM2n5": 15.08,
    "Pressure": 986,
    "Temperature": 1,
    "AirQualityIndex": 56.99,
    "localId": 230
  },
  {
    "id": "SAVEDNIPRO_13419",
    "cityName": "Shevchenkove",
    "stationName": "provulok Yuvileinyi, 7",
    "localName": "",
    "latitude": "50.416389",
    "longitude": "30.241333",
    "humidity": 47.43,
    "PM10": 23.48,
    "PM2n5": 14.8,
    "Pressure": 993,
    "Temperature": 3,
    "AirQualityIndex": 40.49,
    "localId": 231
  },
  {
    "id": "SAVEDNIPRO_13533",
    "cityName": "Vyshenky",
    "stationName": "Zoloche-Provans, 2",
    "localName": "",
    "latitude": "50.298605",
    "longitude": "30.703356",
    "humidity": 50.22,
    "PM10": 52.9,
    "PM2n5": 6.73,
    "Pressure": 986,
    "Temperature": 4,
    "AirQualityIndex": 164.55,
    "localId": 232
  },
  {
    "id": "SAVEDNIPRO_13536",
    "cityName": "Lviv",
    "stationName": "Street Sumska, 10",
    "localName": "",
    "latitude": "49.812327",
    "longitude": "24.036764",
    "humidity": 54.89,
    "PM10": 55.74,
    "PM2n5": 10.39,
    "Pressure": 983,
    "Temperature": 0,
    "AirQualityIndex": 100.49,
    "localId": 233
  },
  {
    "id": "SAVEDNIPRO_13537",
    "cityName": "Kyiv",
    "stationName": "prospekt Beresteiskyi, 67",
    "localName": "",
    "latitude": "50.458610",
    "longitude": "30.410043",
    "humidity": 28.01,
    "PM10": 64.58,
    "PM2n5": 3.5,
    "Pressure": 1005,
    "Temperature": 5,
    "AirQualityIndex": 51.54,
    "localId": 234
  },
  {
    "id": "SAVEDNIPRO_13538",
    "cityName": "Dnipro",
    "stationName": "Street Zooparkova",
    "localName": "",
    "latitude": "48.473475",
    "longitude": "35.195720",
    "humidity": 59.11,
    "PM10": 14.52,
    "PM2n5": 8.08,
    "Pressure": 993,
    "Temperature": 0,
    "AirQualityIndex": 80.84,
    "localId": 235
  },
  {
    "id": "SAVEDNIPRO_13539",
    "cityName": "Zhovkva",
    "stationName": "Street Kyivska",
    "localName": "",
    "latitude": "50.054100",
    "longitude": "23.956800",
    "humidity": 31.32,
    "PM10": 6.31,
    "PM2n5": 7.77,
    "Pressure": 1020,
    "Temperature": 5,
    "AirQualityIndex": 150.1,
    "localId": 236
  },
  {
    "id": "SAVEDNIPRO_13540",
    "cityName": "Kyiv",
    "stationName": "Street Levitana, 3",
    "localName": "",
    "latitude": "50.375516",
    "longitude": "30.541971",
    "humidity": 68.91,
    "PM10": 26.15,
    "PM2n5": 16.49,
    "Pressure": 996,
    "Temperature": 0,
    "AirQualityIndex": 182.96,
    "localId": 237
  },
  {
    "id": "SAVEDNIPRO_13710",
    "cityName": "Vyshenky",
    "stationName": "Zoloche-Provans, 1",
    "localName": "",
    "latitude": "50.299113",
    "longitude": "30.703047",
    "humidity": 26.4,
    "PM10": 28.28,
    "PM2n5": 16.12,
    "Pressure": 1004,
    "Temperature": 2,
    "AirQualityIndex": 134.59,
    "localId": 238
  },
  {
    "id": "SAVEDNIPRO_13711",
    "cityName": "Petrushky",
    "stationName": "Sadivnytske Tovarystvo \"Yuryst\"",
    "localName": "",
    "latitude": "50.4073682",
    "longitude": "30.1595883",
    "humidity": 34.36,
    "PM10": 68.07,
    "PM2n5": 19.43,
    "Pressure": 991,
    "Temperature": 2,
    "AirQualityIndex": 140.32,
    "localId": 239
  },
  {
    "id": "SAVEDNIPRO_13715",
    "cityName": "Zvenyhorodka",
    "stationName": "Street Viacheslava Chornovola, 40",
    "localName": "",
    "latitude": "49.0768671",
    "longitude": "30.9639523",
    "humidity": 45.86,
    "PM10": 72.09,
    "PM2n5": 2.97,
    "Pressure": 1016,
    "Temperature": 3,
    "AirQualityIndex": 196.09,
    "localId": 240
  },
  {
    "id": "SAVEDNIPRO_13965",
    "cityName": "Kyiv",
    "stationName": "prospekt Akademika Hlushkova, 1P30",
    "localName": "",
    "latitude": "50.3774076",
    "longitude": "30.4815071",
    "humidity": 49.76,
    "PM10": 7.5,
    "PM2n5": 4.57,
    "Pressure": 1019,
    "Temperature": 3,
    "AirQualityIndex": 93.35,
    "localId": 241
  },
  {
    "id": "SAVEDNIPRO_14712",
    "cityName": "Mykolaivka",
    "stationName": "Street Henerala Pushkina, 45",
    "localName": "",
    "latitude": "48.362656",
    "longitude": "34.703311",
    "humidity": 37.01,
    "PM10": 71.76,
    "PM2n5": 18.05,
    "Pressure": 981,
    "Temperature": 0,
    "AirQualityIndex": 188.78,
    "localId": 242
  },
  {
    "id": "SAVEDNIPRO_14713",
    "cityName": "Cherkasy",
    "stationName": "provulok Sichovyi, 17",
    "localName": "",
    "latitude": "49.428755",
    "longitude": "32.066555",
    "humidity": 65.93,
    "PM10": 9.09,
    "PM2n5": 8.76,
    "Pressure": 993,
    "Temperature": 0,
    "AirQualityIndex": 109.48,
    "localId": 243
  },
  {
    "id": "SAVEDNIPRO_14714",
    "cityName": "Dnipro",
    "stationName": "Street Naberezhna Zavodska, 44",
    "localName": "",
    "latitude": "48.490444",
    "longitude": "34.985071",
    "humidity": 28.36,
    "PM10": 42.86,
    "PM2n5": 10.69,
    "Pressure": 1005,
    "Temperature": 1,
    "AirQualityIndex": 7.13,
    "localId": 244
  },
  {
    "id": "SAVEDNIPRO_14758",
    "cityName": "Zaporizhzhia",
    "stationName": "Street Nezalezhnoi Ukrainy, 68A",
    "localName": "",
    "latitude": "47.847054111908996",
    "longitude": "35.12933723683439",
    "humidity": 63.91,
    "PM10": 74.05,
    "PM2n5": 3.64,
    "Pressure": 1015,
    "Temperature": 5,
    "AirQualityIndex": 94.04,
    "localId": 245
  },
  {
    "id": "SAVEDNIPRO_15702",
    "cityName": "Kluziv",
    "stationName": "Street Spilna",
    "localName": "",
    "latitude": "48.954444",
    "longitude": "24.715858",
    "humidity": 67.77,
    "PM10": 65.42,
    "PM2n5": 11.14,
    "Pressure": 1015,
    "Temperature": 2,
    "AirQualityIndex": 195.34,
    "localId": 246
  },
  {
    "id": "SAVEDNIPRO_15703",
    "cityName": "Kruhlyk",
    "stationName": "Street Teremkivska, 10",
    "localName": "",
    "latitude": "50.306289",
    "longitude": "30.420185",
    "humidity": 59.99,
    "PM10": 33.22,
    "PM2n5": 13,
    "Pressure": 1012,
    "Temperature": 1,
    "AirQualityIndex": 80.86,
    "localId": 247
  },
  {
    "id": "SAVEDNIPRO_15705",
    "cityName": "Kharkiv",
    "stationName": "Street Valentynivska, 24A",
    "localName": "",
    "latitude": "50.012753",
    "longitude": "36.334998",
    "humidity": 44.11,
    "PM10": 33.21,
    "PM2n5": 1.5,
    "Pressure": 1005,
    "Temperature": 3,
    "AirQualityIndex": 78.4,
    "localId": 248
  },
  {
    "id": "SAVEDNIPRO_15712",
    "cityName": "Stari Petrivtsi",
    "stationName": "vul. Dachna",
    "localName": "",
    "latitude": "50.642541",
    "longitude": "30.432218",
    "humidity": 42.12,
    "PM10": 32.06,
    "PM2n5": 6.8,
    "Pressure": 985,
    "Temperature": 1,
    "AirQualityIndex": 42.33,
    "localId": 249
  },
  {
    "id": "SAVEDNIPRO_16860",
    "cityName": "Sievierodonetsk",
    "stationName": "75-y mykroraion",
    "localName": "",
    "latitude": "48.946746",
    "longitude": "38.524948",
    "humidity": 32.27,
    "PM10": 67.53,
    "PM2n5": 12.66,
    "Pressure": 986,
    "Temperature": 4,
    "AirQualityIndex": 58.78,
    "localId": 250
  },
  {
    "id": "SAVEDNIPRO_16862",
    "cityName": "Khotiv",
    "stationName": "vul. Partyzanska, 1A",
    "localName": "",
    "latitude": "50.326409",
    "longitude": "30.470360",
    "humidity": 44.83,
    "PM10": 66.4,
    "PM2n5": 16.05,
    "Pressure": 984,
    "Temperature": 5,
    "AirQualityIndex": 170.08,
    "localId": 251
  },
  {
    "id": "SAVEDNIPRO_17448",
    "cityName": "Dnipro",
    "stationName": "Street Vykonkomivska, 24B",
    "localName": "",
    "latitude": "48.456973",
    "longitude": "35.047031",
    "humidity": 70.27,
    "PM10": 18.61,
    "PM2n5": 5.04,
    "Pressure": 982,
    "Temperature": 4,
    "AirQualityIndex": 10.94,
    "localId": 252
  },
  {
    "id": "SAVEDNIPRO_17802",
    "cityName": "Nikopol",
    "stationName": "Street Dovhalivska",
    "localName": "",
    "latitude": "47.576907",
    "longitude": "34.459222",
    "humidity": 48.94,
    "PM10": 2.98,
    "PM2n5": 18.8,
    "Pressure": 1007,
    "Temperature": 5,
    "AirQualityIndex": 23.85,
    "localId": 253
  },
  {
    "id": "SAVEDNIPRO_17817",
    "cityName": "Nizhyn",
    "stationName": "Street Syniakivska, 96",
    "localName": "",
    "latitude": "51.037223",
    "longitude": "31.876354",
    "humidity": 39.83,
    "PM10": 60.79,
    "PM2n5": 10.46,
    "Pressure": 996,
    "Temperature": 3,
    "AirQualityIndex": 147.65,
    "localId": 254
  },
  {
    "id": "SAVEDNIPRO_17865",
    "cityName": "Kolomyia",
    "stationName": "Street Hnata Kovtsuniaka, 2",
    "localName": "",
    "latitude": "48.535159",
    "longitude": "25.034321",
    "humidity": 26.57,
    "PM10": 39.68,
    "PM2n5": 6.37,
    "Pressure": 995,
    "Temperature": 5,
    "AirQualityIndex": 169.46,
    "localId": 255
  },
  {
    "id": "SAVEDNIPRO_17895",
    "cityName": "Odesa",
    "stationName": "Street Akademika Korolova, 81",
    "localName": "",
    "latitude": "46.387139",
    "longitude": "30.723278",
    "humidity": 26.45,
    "PM10": 30.13,
    "PM2n5": 3.33,
    "Pressure": 1002,
    "Temperature": 5,
    "AirQualityIndex": 25.79,
    "localId": 256
  },
  {
    "id": "SAVEDNIPRO_17896",
    "cityName": "Vyshhorod",
    "stationName": "Street Sholudenka, 24",
    "localName": "",
    "latitude": "50.597002",
    "longitude": "30.465978",
    "humidity": 51.36,
    "PM10": 50.59,
    "PM2n5": 13.91,
    "Pressure": 982,
    "Temperature": 5,
    "AirQualityIndex": 171.52,
    "localId": 257
  },
  {
    "id": "SAVEDNIPRO_18420",
    "cityName": "Berezhany",
    "stationName": "ploshcha Rynok",
    "localName": "",
    "latitude": "49.445221",
    "longitude": "24.938534",
    "humidity": 53.08,
    "PM10": 15.07,
    "PM2n5": 10.6,
    "Pressure": 1003,
    "Temperature": 1,
    "AirQualityIndex": 180.9,
    "localId": 258
  },
  {
    "id": "SAVEDNIPRO_18511",
    "cityName": "Kherson",
    "stationName": "Beryslavske shose, 12A",
    "localName": "",
    "latitude": "46.665987",
    "longitude": "32.635329",
    "humidity": 48.93,
    "PM10": 15.91,
    "PM2n5": 11.41,
    "Pressure": 1014,
    "Temperature": 0,
    "AirQualityIndex": 7.45,
    "localId": 259
  },
  {
    "id": "SAVEDNIPRO_18729",
    "cityName": "Mala Oleksandrivka",
    "stationName": "Street Molodizhna, 12",
    "localName": "",
    "latitude": "47.2973894",
    "longitude": "33.2816014",
    "humidity": 51.15,
    "PM10": 71.71,
    "PM2n5": 5.67,
    "Pressure": 1016,
    "Temperature": 2,
    "AirQualityIndex": 108.57,
    "localId": 260
  },
  {
    "id": "SAVEDNIPRO_18736",
    "cityName": "Mykolaivka",
    "stationName": "Sadivnytske Tovarystvo \"Mekhanik\"",
    "localName": "",
    "latitude": "50.449945",
    "longitude": "30.016305",
    "humidity": 72.11,
    "PM10": 41.48,
    "PM2n5": 1.75,
    "Pressure": 991,
    "Temperature": 2,
    "AirQualityIndex": 3.56,
    "localId": 261
  },
  {
    "id": "SAVEDNIPRO_18802",
    "cityName": "Kyiv",
    "stationName": "prospekt Beresteiskyi, 30",
    "localName": "",
    "latitude": "50.452248",
    "longitude": "30.464829",
    "humidity": 43.79,
    "PM10": 45.07,
    "PM2n5": 15.73,
    "Pressure": 1019,
    "Temperature": 4,
    "AirQualityIndex": 78.7,
    "localId": 262
  },
  {
    "id": "SAVEDNIPRO_18986",
    "cityName": "Dolishnii Luzhok",
    "stationName": "Dolishnoluzhetska SZSh Drohobytskoi miskoi rady",
    "localName": "",
    "latitude": "49.455202",
    "longitude": "23.377091",
    "humidity": 33.98,
    "PM10": 46.02,
    "PM2n5": 18.86,
    "Pressure": 986,
    "Temperature": 0,
    "AirQualityIndex": 198.6,
    "localId": 263
  },
  {
    "id": "SAVEDNIPRO_19014",
    "cityName": "Dniprorudne",
    "stationName": "Street Heroiv pratsi, 7",
    "localName": "",
    "latitude": "47.385610",
    "longitude": "35.000290",
    "humidity": 34.58,
    "PM10": 56.6,
    "PM2n5": 16.91,
    "Pressure": 988,
    "Temperature": 5,
    "AirQualityIndex": 171.06,
    "localId": 264
  },
  {
    "id": "SAVEDNIPRO_19101",
    "cityName": "Novyi Buh",
    "stationName": "Street Shepelia",
    "localName": "",
    "latitude": "47.6801522",
    "longitude": "32.5082539",
    "humidity": 58.63,
    "PM10": 59.21,
    "PM2n5": 9.68,
    "Pressure": 992,
    "Temperature": 2,
    "AirQualityIndex": 24.8,
    "localId": 265
  },
  {
    "id": "SAVEDNIPRO_19104",
    "cityName": "Kyiv",
    "stationName": "prospekt Peremohy, 30",
    "localName": "",
    "latitude": "50.452174",
    "longitude": "30.464789",
    "humidity": 56.58,
    "PM10": 58.97,
    "PM2n5": 11.28,
    "Pressure": 1007,
    "Temperature": 3,
    "AirQualityIndex": 83.76,
    "localId": 266
  },
  {
    "id": "SAVEDNIPRO_19108",
    "cityName": "Vita-Poshtova",
    "stationName": "Britannica School",
    "localName": "",
    "latitude": "50.333593",
    "longitude": "30.351063",
    "humidity": 44.98,
    "PM10": 79.93,
    "PM2n5": 9.71,
    "Pressure": 989,
    "Temperature": 0,
    "AirQualityIndex": 73.91,
    "localId": 267
  },
  {
    "id": "SAVEDNIPRO_19116",
    "cityName": "Kyiv",
    "stationName": "Street Lysychanska, 35",
    "localName": "",
    "latitude": "50.411976",
    "longitude": "30.496778",
    "humidity": 34.23,
    "PM10": 78.06,
    "PM2n5": 5.85,
    "Pressure": 1010,
    "Temperature": 0,
    "AirQualityIndex": 74.82,
    "localId": 268
  },
  {
    "id": "SAVEDNIPRO_19117",
    "cityName": "Zaporizhzhia",
    "stationName": "Street Patorzhynskoho",
    "localName": "",
    "latitude": "47.8689649",
    "longitude": "35.2297073",
    "humidity": 30.33,
    "PM10": 26.43,
    "PM2n5": 16.96,
    "Pressure": 1010,
    "Temperature": 1,
    "AirQualityIndex": 64.56,
    "localId": 269
  },
  {
    "id": "SAVEDNIPRO_19179",
    "cityName": "Mariupol",
    "stationName": "Street Novorosiisiiska, 12",
    "localName": "",
    "latitude": "47.067450",
    "longitude": "37.485584",
    "humidity": 49.03,
    "PM10": 15.5,
    "PM2n5": 3.34,
    "Pressure": 1011,
    "Temperature": 0,
    "AirQualityIndex": 142.57,
    "localId": 270
  },
  {
    "id": "SAVEDNIPRO_19246",
    "cityName": "Hrushkivtsi",
    "stationName": "Street Peremohy, 32",
    "localName": "",
    "latitude": "49.51477",
    "longitude": "28.44255",
    "humidity": 46.6,
    "PM10": 25.43,
    "PM2n5": 8.65,
    "Pressure": 993,
    "Temperature": 2,
    "AirQualityIndex": 93.36,
    "localId": 271
  },
  {
    "id": "SAVEDNIPRO_19298",
    "cityName": "Chornobai",
    "stationName": "provulok Slynka, 4",
    "localName": "",
    "latitude": "49.666631",
    "longitude": "32.325405",
    "humidity": 33.75,
    "PM10": 37.09,
    "PM2n5": 9.05,
    "Pressure": 1016,
    "Temperature": 1,
    "AirQualityIndex": 157.32,
    "localId": 272
  },
  {
    "id": "SAVEDNIPRO_19301",
    "cityName": "Klavdiievo-Tarasove",
    "stationName": "Street Shevchenko, 99",
    "localName": "",
    "latitude": "50.583284162702796",
    "longitude": "29.991048352270333",
    "humidity": 48.43,
    "PM10": 37.46,
    "PM2n5": 7.04,
    "Pressure": 988,
    "Temperature": 3,
    "AirQualityIndex": 4.31,
    "localId": 273
  },
  {
    "id": "SAVEDNIPRO_19306",
    "cityName": "Katerynivka",
    "stationName": "Street Tsentralna, 32A",
    "localName": "",
    "latitude": "47.876249",
    "longitude": "37.344970",
    "humidity": 29.24,
    "PM10": 55.01,
    "PM2n5": 9.15,
    "Pressure": 998,
    "Temperature": 1,
    "AirQualityIndex": 4.68,
    "localId": 274
  },
  {
    "id": "SAVEDNIPRO_19320",
    "cityName": "Novohrodivka",
    "stationName": "Street Parkova, 30",
    "localName": "",
    "latitude": "48.202876",
    "longitude": "37.341606",
    "humidity": 65.42,
    "PM10": 24.64,
    "PM2n5": 12.61,
    "Pressure": 983,
    "Temperature": 3,
    "AirQualityIndex": 123.57,
    "localId": 275
  },
  {
    "id": "SAVEDNIPRO_19387",
    "cityName": "Bereznehuvatske",
    "stationName": "Street Shkolna, 34",
    "localName": "",
    "latitude": "47.747778",
    "longitude": "32.279167",
    "humidity": 25.64,
    "PM10": 12.98,
    "PM2n5": 17.69,
    "Pressure": 1019,
    "Temperature": 3,
    "AirQualityIndex": 66.83,
    "localId": 276
  },
  {
    "id": "SAVEDNIPRO_19454",
    "cityName": "Pavlohrad",
    "stationName": "Street Ozerna, 87",
    "localName": "",
    "latitude": "48.536410",
    "longitude": "35.866605",
    "humidity": 35.38,
    "PM10": 73.31,
    "PM2n5": 16.92,
    "Pressure": 1007,
    "Temperature": 5,
    "AirQualityIndex": 11.04,
    "localId": 277
  },
  {
    "id": "SAVEDNIPRO_19476",
    "cityName": "Zymne",
    "stationName": "Street Myru",
    "localName": "",
    "latitude": "50.799637",
    "longitude": "24.327239",
    "humidity": 30.78,
    "PM10": 69.02,
    "PM2n5": 7.77,
    "Pressure": 1008,
    "Temperature": 1,
    "AirQualityIndex": 15.66,
    "localId": 278
  },
  {
    "id": "SAVEDNIPRO_19477",
    "cityName": "Novopokrovka",
    "stationName": "Street Molodizhna, 1",
    "localName": "",
    "latitude": "48.057804",
    "longitude": "34.606344",
    "humidity": 63.76,
    "PM10": 63.66,
    "PM2n5": 18.49,
    "Pressure": 996,
    "Temperature": 0,
    "AirQualityIndex": 84.95,
    "localId": 279
  },
  {
    "id": "SAVEDNIPRO_19684",
    "cityName": "Rakiv Lis",
    "stationName": "Street Shkilna, 4",
    "localName": "",
    "latitude": "51.621694",
    "longitude": "24.921318",
    "humidity": 55.62,
    "PM10": 2.81,
    "PM2n5": 17.78,
    "Pressure": 997,
    "Temperature": 2,
    "AirQualityIndex": 184.29,
    "localId": 280
  },
  {
    "id": "SAVEDNIPRO_19708",
    "cityName": "Sumy",
    "stationName": "Street Berezova, 28",
    "localName": "",
    "latitude": "50.940911",
    "longitude": "34.746837",
    "humidity": 70.59,
    "PM10": 25.95,
    "PM2n5": 8.48,
    "Pressure": 1011,
    "Temperature": 5,
    "AirQualityIndex": 11.24,
    "localId": 281
  },
  {
    "id": "SAVEDNIPRO_19810",
    "cityName": "Sumy",
    "stationName": "Street Zasumska, 3",
    "localName": "",
    "latitude": "50.9119348",
    "longitude": "34.7949552",
    "humidity": 47.56,
    "PM10": 60.61,
    "PM2n5": 17.65,
    "Pressure": 993,
    "Temperature": 0,
    "AirQualityIndex": 39.35,
    "localId": 282
  },
  {
    "id": "SAVEDNIPRO_19997",
    "cityName": "Velyki Viknyny",
    "stationName": "Velykoviknynska zahalnoosvitnia shkola I-IIIstupeniv",
    "localName": "",
    "latitude": "49.929920",
    "longitude": "25.868925",
    "humidity": 68.12,
    "PM10": 45.18,
    "PM2n5": 17.92,
    "Pressure": 1010,
    "Temperature": 0,
    "AirQualityIndex": 171.96,
    "localId": 283
  },
  {
    "id": "SAVEDNIPRO_20013",
    "cityName": "Pustomyty",
    "stationName": "Street Darii Diachenko, 17",
    "localName": "",
    "latitude": "49.718539",
    "longitude": "23.912361",
    "humidity": 30.75,
    "PM10": 1.97,
    "PM2n5": 15.18,
    "Pressure": 1009,
    "Temperature": 4,
    "AirQualityIndex": 147.73,
    "localId": 284
  },
  {
    "id": "SAVEDNIPRO_20060",
    "cityName": "Korosten",
    "stationName": "Street Mykhaila Hrushevskoho, 22/1",
    "localName": "",
    "latitude": "50.949312",
    "longitude": "28.642018",
    "humidity": 61.52,
    "PM10": 76.16,
    "PM2n5": 13.54,
    "Pressure": 992,
    "Temperature": 0,
    "AirQualityIndex": 59.31,
    "localId": 285
  },
  {
    "id": "SAVEDNIPRO_20061",
    "cityName": "Kazanka",
    "stationName": "Street Myru, 208",
    "localName": "",
    "latitude": "47.831669",
    "longitude": "32.830301",
    "humidity": 50.76,
    "PM10": 32.89,
    "PM2n5": 8.31,
    "Pressure": 1005,
    "Temperature": 1,
    "AirQualityIndex": 185.17,
    "localId": 286
  },