[
  {
    "id": "SAVEDNIPRO_001",
    "cityName": "Dnipro",
    "stationName": "Geroev Avenue, 40",
    "localName": "Save Dnipro #1",
    "latitude": "48.408944",
    "longitude": "35.072505",
    "humidity": 70.11,
    "PM10": 36.67,
    "PM2n5": 3.79,
    "Pressure": 991,
    "Temperature": 7,
    "AirQualityIndex": 18.4,
    "localId": 0
  },
  {
    "id": "SAVEDNIPRO_002",
    "cityName": "Dnipro",
    "stationName": "Pershogo Travnya Street, 7",
    "localName": "Save Dnipro #5",
    "latitude": "48.418962",
    "longitude": "35.009254",
    "humidity": 50.37,
    "PM10": 10.78,
    "PM2n5": 12.22,
    "Pressure": 982,
    "Temperature": 11,
    "AirQualityIndex": 81.55,
    "localId": 1
  },
  {
    "id": "SAVEDNIPRO_003",
    "cityName": "Dnipro",
    "stationName": "Ulyanova Street, 26",
    "localName": "Save Dnipro #3",
    "latitude": "48.46179",
    "longitude": "35.022893",
    "humidity": 65.19,
    "PM10": 19.66,
    "PM2n5": 8.65,
    "Pressure": 1002,
    "Temperature": 11,
    "AirQualityIndex": 139.44,
    "localId": 2
  },
  {
    "id": "SAVEDNIPRO_004",
    "cityName": "Dnipro",
    "stationName": "Novokrymskaya Street, 1",
    "localName": "Save Dnipro #2",
    "latitude": "48.428476",
    "longitude": "35.010238",
    "humidity": 66.25,
    "PM10": 69.07,
    "PM2n5": 4.88,
    "Pressure": 983,
    "Temperature": 5,
    "AirQualityIndex": 113.68,
    "localId": 3
  },
  {
    "id": "SAVEDNIPRO_006",
    "cityName": "Dnipro",
    "stationName": "Pryberezhna Street, 49",
    "localName": "Save Dnipro #4",
    "latitude": "48.405856",
    "longitude": "35.145451",
    "humidity": 44.76,
    "PM10": 15.35,
    "PM2n5": 15.1,
    "Pressure": 1018,
    "Temperature": 6,
    "AirQualityIndex": 43.06,
    "localId": 4
  },
  {
    "id": "SAVEDNIPRO_007",
    "cityName": "Dnipro",
    "stationName": "Dmytra Yavornytskoho Avenue, 60",
    "localName": "Save Dnipro #9",
    "latitude": "48.467467",
    "longitude": "35.041472",
    "humidity": 61.49,
    "PM10": 13.21,
    "PM2n5": 11.91,
    "Pressure": 1016,
    "Temperature": 5,
    "AirQualityIndex": 152.3,
    "localId": 5
  },
  {
    "id": "SAVEDNIPRO_008",
    "cityName": "Dnipro",
    "stationName": "Haharina Avenue, 43",
    "localName": "Save Dnipro #10",
    "latitude": "48.448030",
    "longitude": "35.058606",
    "humidity": 67.98,
    "PM10": 77.96,
    "PM2n5": 5.97,
    "Pressure": 1004,
    "Temperature": 6,
    "AirQualityIndex": 33.57,
    "localId": 6
  },
  {
    "id": "SAVEDNIPRO_009",
    "cityName": "Dnipro",
    "stationName": "Kalynova Street, 49",
    "localName": "Save Dnipro #11",
    "latitude": "48.513536",
    "longitude": "35.062787",
    "humidity": 52.18,
    "PM10": 43.96,
    "PM2n5": 16,
    "Pressure": 985,
    "Temperature": 6,
    "AirQualityIndex": 72.03,
    "localId": 7
  },
  {
    "id": "SAVEDNIPRO_014",
    "cityName": "Dnipro",
    "stationName": "Vokzalna Square, 2",
    "localName": "Save Dnipro #19",
    "latitude": "48.475959",
    "longitude": "35.016979",
    "humidity": 65.35,
    "PM10": 54.63,
    "PM2n5": 4.97,
    "Pressure": 983,
    "Temperature": 11,
    "AirQualityIndex": 131.84,
    "localId": 8
  },
  {
    "id": "SAVEDNIPRO_015",
    "cityName": "Dnipro",
    "stationName": "Pavla Nirinberha Street, 4-6",
    "localName": "Save Dnipro #30",
    "latitude": "48.467926",
    "longitude": "35.055617",
    "humidity": 26.35,
    "PM10": 41.57,
    "PM2n5": 10.64,
    "Pressure": 1012,
    "Temperature": 10,
    "AirQualityIndex": 33.1,
    "localId": 9
  },
  {
    "id": "SAVEDNIPRO_016",
    "cityName": "Dnipro",
    "stationName": "Street Shoduarivska, 5",
    "localName": "Save Dnipro #25",
    "latitude": "48.484034",
    "longitude": "34.936086",
    "humidity": 32.05,
    "PM10": 15.05,
    "PM2n5": 6.67,
    "Pressure": 985,
    "Temperature": 8,
    "AirQualityIndex": 102.35,
    "localId": 10
  },
  {
    "id": "SAVEDNIPRO_018",
    "cityName": "Dnipro",
    "stationName": "Beregova Street, 29",
    "localName": "Save Dnipro #26",
    "latitude": "48.501095",
    "longitude": "34.990169",
    "humidity": 50.67,
    "PM10": 52.28,
    "PM2n5": 9.15,
    "Pressure": 993,
    "Temperature": 6,
    "AirQualityIndex": 132.85,
    "localId": 11
  },
  {
    "id": "SAVEDNIPRO_023",
    "cityName": "Dnipro",
    "stationName": "Shyroka Street, 173",
    "localName": "Save Dnipro #32",
    "latitude": "48.518050",
    "longitude": "34.964451",
    "humidity": 36.34,
    "PM10": 13.28,
    "PM2n5": 15.49,
    "Pressure": 1005,
    "Temperature": 9,
    "AirQualityIndex": 53.61,
    "localId": 12
  },
  {
    "id": "SAVEDNIPRO_024",
    "cityName": "Sursko-Lytovske",
    "stationName": "50 Rokiv Peremogy Street",
    "localName": "Save Dnipro #28",
    "latitude": "48.350994",
    "longitude": "34.946876",
    "humidity": 48.39,
    "PM10": 38.04,
    "PM2n5": 8.63,
    "Pressure": 1000,
    "Temperature": 7,
    "AirQualityIndex": 105.57,
    "localId": 13
  },
  {
    "id": "SAVEDNIPRO_025",
    "cityName": "Dnipro",
    "stationName": "Street Barykadna, 21",
    "localName": "",
    "latitude": "48.463293",
    "longitude": "35.056401",
    "humidity": 67.77,
    "PM10": 60.62,
    "PM2n5": 6.68,
    "Pressure": 986,
    "Temperature": 7,
    "AirQualityIndex": 110.17,
    "localId": 14
  },
  {
    "id": "SAVEDNIPRO_032",
    "cityName": "Dnipro",
    "stationName": "Slavy Boulevard, 11",
    "localName": "Save Dnipro #22",
    "latitude": "48.4119490",
    "longitude": "35.0697377",
    "humidity": 66.35,
    "PM10": 29.19,
    "PM2n5": 2.33,
    "Pressure": 982,
    "Temperature": 8,
    "AirQualityIndex": 193.56,
    "localId": 15
  },
  {
    "id": "SAVEDNIPRO_035",
    "cityName": "Novooleksandrivka",
    "stationName": "Televiziyna \r\n Street / Arendnyy Lane",
    "localName": "Save Dnipro #17",
    "latitude": "48.343889",
    "longitude": "35.015000",
    "humidity": 31.97,
    "PM10": 68.75,
    "PM2n5": 8.48,
    "Pressure": 1008,
    "Temperature": 10,
    "AirQualityIndex": 128.12,
    "localId": 16
  },
  {
    "id": "SAVEDNIPRO_075",
    "cityName": "Dnipro",
    "stationName": "Pavla Nirinberha Street, 10",
    "localName": "Save Dnipro #14",
    "latitude": "48.466150",
    "longitude": "35.055459",
    "humidity": 46.6,
    "PM10": 36.8,
    "PM2n5": 7.78,
    "Pressure": 996,
    "Temperature": 8,
    "AirQualityIndex": 49.35,
    "localId": 17
  },
  {
    "id": "SAVEDNIPRO_090",
    "cityName": "Obukhivka",
    "stationName": "Dniprovs'ko-Oril's'kyy pryrodnyy zapovidnyk",
    "localName": "Save Dnipro #34",
    "latitude": "48.5339822",
    "longitude": "34.7914877",
    "humidity": 35.49,
    "PM10": 49.74,
    "PM2n5": 19.79,
    "Pressure": 1005,
    "Temperature": 11,
    "AirQualityIndex": 158.64,
    "localId": 18
  },
  {
    "id": "SAVEDNIPRO_094",
    "cityName": "Kam'ianske",
    "stationName": "Heroiv Boulevard, 38",
    "localName": "Save Dnipro #34",
    "latitude": "48.607373",
    "longitude": "34.570512",
    "humidity": 26.89,
    "PM10": 41.75,
    "PM2n5": 3.39,
    "Pressure": 1006,
    "Temperature": 5,
    "AirQualityIndex": 51.63,
    "localId": 19
  },
  {
    "id": "SAVEDNIPRO_095",
    "cityName": "Dnipro",
    "stationName": "Velyka Diivska Street, 4",
    "localName": "Save Dnipro #53",
    "latitude": "48.480519",
    "longitude": "34.934133",
    "humidity": 58.35,
    "PM10": 64.25,
    "PM2n5": 18.91,
    "Pressure": 981,
    "Temperature": 5,
    "AirQualityIndex": 53.45,
    "localId": 20
  },
  {
    "id": "SAVEDNIPRO_096",
    "cityName": "Dnipro",
    "stationName": "Hoholya Street, 10",
    "localName": "Save Dnipro #36",
    "latitude": "48.458139",
    "longitude": "35.052214",
    "humidity": 63.16,
    "PM10": 68.67,
    "PM2n5": 3.06,
    "Pressure": 998,
    "Temperature": 5,
    "AirQualityIndex": 25.06,
    "localId": 21
  },
  {
    "id": "SAVEDNIPRO_097",
    "cityName": "Halych",
    "stationName": "Karaimska Street, 3",
    "localName": "Save Dnipro #39",
    "latitude": "49.125336",
    "longitude": "24.730753",
    "humidity": 60.04,
    "PM10": 33.69,
    "PM2n5": 19.81,
    "Pressure": 1018,
    "Temperature": 9,
    "AirQualityIndex": 142.01,
    "localId": 22
  },
  {
    "id": "SAVEDNIPRO_101",
    "cityName": "Dnipro",
    "stationName": "Samarkandskyi provulok, 1",
    "localName": "Save Dnipro #40",
    "latitude": "48.4538103",
    "longitude": "35.0185786",
    "humidity": 64.31,
    "PM10": 10.36,
    "PM2n5": 16.24,
    "Pressure": 1004,
    "Temperature": 6,
    "AirQualityIndex": 154.75,
    "localId": 23
  },
  {
    "id": "SAVEDNIPRO_102",
    "cityName": "Vilnohirsk",
    "stationName": "Molodizhna Street, 28",
    "localName": "Save Dnipro #49",
    "latitude": "48.480857",
    "longitude": "34.018492",
    "humidity": 60.32,
    "PM10": 70.03,
    "PM2n5": 15.3,
    "Pressure": 1020,
    "Temperature": 9,
    "AirQualityIndex": 3.26,
    "localId": 24
  },
  {
    "id": "SAVEDNIPRO_103",
    "cityName": "Dnipro",
    "stationName": "Topolia-2, 23",
    "localName": "Save Dnipro #38",
    "latitude": "48.391810",
    "longitude": "35.028813",
    "humidity": 50.42,
    "PM10": 26.14,
    "PM2n5": 5.72,
    "Pressure": 1009,
    "Temperature": 9,
    "AirQualityIndex": 128.5,
    "localId": 25
  },
  {
    "id": "SAVEDNIPRO_132",
    "cityName": "Dnipro",
    "stationName": "prospekt Serhiia Nihoiana, 57",
    "localName": "",
    "latitude": "48.476276",
    "longitude": "34.984768",
    "humidity": 47.59,
    "PM10": 50.99,
    "PM2n5": 14.76,
    "Pressure": 996,
    "Temperature": 6,
    "AirQualityIndex": 5.75,
    "localId": 26
  },
  {
    "id": "SAVEDNIPRO_136",
    "cityName": "Dnipro",
    "stationName": "Forest Park of Friendship of Peoples",
    "localName": "Save Dnipro #42",
    "latitude": "48.540300",
    "longitude": "35.092615",
    "humidity": 72.1,
    "PM10": 33.82,
    "PM2n5": 11.05,
    "Pressure": 1003,
    "Temperature": 8,
    "AirQualityIndex": 169.63,
    "localId": 27
  },
  {
    "id": "SAVEDNIPRO_897",
    "cityName": "Novooleksandrivka",
    "stationName": "Surska Street, 74",
    "localName": "Save Dnipro #51",
    "latitude": "48.341841",
    "longitude": "35.005390",
    "humidity": 72.69,
    "PM10": 72.81,
    "PM2n5": 5.27,
    "Pressure": 1007,
    "Temperature": 10,
    "AirQualityIndex": 20.2,
    "localId": 28
  },
  {
    "id": "SAVEDNIPRO_949",
    "cityName": "Zaporizhzhia",
    "stationName": "Street Haharina, 3",
    "localName": "Save Dnipro #48",
    "latitude": "47.8352753",
    "longitude": "35.1446249",
    "humidity": 55.62,
    "PM10": 48.22,
    "PM2n5": 18.98,
    "Pressure": 1002,
    "Temperature": 10,
    "AirQualityIndex": 66.29,
    "localId": 29
  },
  {
    "id": "SAVEDNIPRO_997",
    "cityName": "Dnipro",
    "stationName": "Street Darnytska, 9",
    "localName": "",
    "latitude": "48.5052009",
    "longitude": "35.0718389",
    "humidity": 41.14,
    "PM10": 66.76,
    "PM2n5": 5.37,
    "Pressure": 990,
    "Temperature": 8,
    "AirQualityIndex": 11.27,
    "localId": 30
  },
  {
    "id": "SAVEDNIPRO_1000",
    "cityName": "Dnipro",
    "stationName": "Street Ivana Akinfiieva, 10",
    "localName": "Save Dnipro #55",
    "latitude": "48.460155",
    "longitude": "35.066821",
    "humidity": 35.63,
    "PM10": 51.21,
    "PM2n5": 14.65,
    "Pressure": 986,
    "Temperature": 11,
    "AirQualityIndex": 77.35,
    "localId": 31
  },
  {
    "id": "SAVEDNIPRO_1001",
    "cityName": "Dnipro",
    "stationName": "Street Hladkova, 6",
    "localName": "",
    "latitude": "48.400802",
    "longitude": "35.001839",
    "humidity": 55.64,
    "PM10": 53.96,
    "PM2n5": 1.95,
    "Pressure": 994,
    "Temperature": 7,
    "AirQualityIndex": 84.03,
    "localId": 32
  },
  {
    "id": "SAVEDNIPRO_1002",
    "cityName": "Sursko-Klevtseve",
    "stationName": "",
    "localName": "Save Dnipro #56",
    "latitude": "48.312916",
    "longitude": "34.880235",
    "humidity": 45.7,
    "PM10": 71.37,
    "PM2n5": 3.46,
    "Pressure": 989,
    "Temperature": 9,
    "AirQualityIndex": 65.25,
    "localId": 33
  },
  {
    "id": "SAVEDNIPRO_1004",
    "cityName": "Kyiv",
    "stationName": "Street Henerala Zhmachenka, 4",
    "localName": "Save Dnipro #58",
    "latitude": "50.458479",
    "longitude": "30.6079481",
    "humidity": 65.98,
    "PM10": 32.04,
    "PM2n5": 18.55,
    "Pressure": 985,
    "Temperature": 9,
    "AirQualityIndex": 59.2,
    "localId": 34
  },
  {
    "id": "SAVEDNIPRO_1005",
    "cityName": "Dnipro",
    "stationName": "Street Serhiia Yefremova, 3A",
    "localName": "Save Dnipro #59",
    "latitude": "48.459042",
    "longitude": "35.058479",
    "humidity": 49.86,
    "PM10": 51.82,
    "PM2n5": 6.32,
    "Pressure": 990,
    "Temperature": 8,
    "AirQualityIndex": 117.27,
    "localId": 35
  },
  {
    "id": "SAVEDNIPRO_1006",
    "cityName": "Kam'ianske",
    "stationName": "Street Yuriia Volkova, 10A",
    "localName": "Save Dnipro #60",
    "latitude": "48.509524",
    "longitude": "34.61578",
    "humidity": 55.84,
    "PM10": 5.92,
    "PM2n5": 15.52,
    "Pressure": 1003,
    "Temperature": 7,
    "AirQualityIndex": 122.5,
    "localId": 36
  },
  {
    "id": "SAVEDNIPRO_1007",
    "cityName": "Dnipro",
    "stationName": "prospekt Slobozhanskyi, 127A",
    "localName": "Save Dnipro #64",
    "latitude": "48.523936",
    "longitude": "35.0811455",
    "humidity": 39.1,
    "PM10": 51.98,
    "PM2n5": 18.22,
    "Pressure": 994,
    "Temperature": 8,
    "AirQualityIndex": 135.99,
    "localId": 37
  },
  {
    "id": "SAVEDNIPRO_1008",
    "cityName": "Vinnytsia",
    "stationName": "Street Stetsenka, 75",
    "localName": "Save Dnipro #63",
    "latitude": "49.239341",
    "longitude": "28.479885",
    "humidity": 44.32,
    "PM10": 51.83,
    "PM2n5": 2.92,
    "Pressure": 1018,
    "Temperature": 5,
    "AirQualityIndex": 148.77,
    "localId": 38
  },
  {
    "id": "SAVEDNIPRO_1009",
    "cityName": "Dnipro",
    "stationName": "Donetske shose, 121",
    "localName": "Save Dnipro #62",
    "latitude": "48.523444",
    "longitude": "35.023331",
    "humidity": 49.7,
    "PM10": 15.92,
    "PM2n5": 3.71,
    "Pressure": 991,
    "Temperature": 6,
    "AirQualityIndex": 5.85,
    "localId": 39
  },
  {
    "id": "SAVEDNIPRO_1021",
    "cityName": "Dnipro",
    "stationName": "Street Semaforna, 30A",
    "localName": "Save Dnipro #61",
    "latitude": "48.489936",
    "longitude": "35.1337483",
    "humidity": 64.76,
    "PM10": 40.65,
    "PM2n5": 18.63,
    "Pressure": 1012,
    "Temperature": 10,
    "AirQualityIndex": 127.7,
    "localId": 40
  },
  {
    "id": "SAVEDNIPRO_1053",
    "cityName": "Dnipro",
    "stationName": "Yaroslavska Street, 12",
    "localName": "Save Dnipro #24",
    "latitude": "48.433796",
    "longitude": "35.030484",
    "humidity": 64.68,
    "PM10": 56.55,
    "PM2n5": 15.82,
    "Pressure": 1003,
    "Temperature": 11,
    "AirQualityIndex": 20.23,
    "localId": 41
  },
  {
    "id": "SAVEDNIPRO_1102",
    "cityName": "Sumy",
    "stationName": "",
    "localName": "Save Dnipro #73",
    "latitude": "50.896400",
    "longitude": "34.830288",
    "humidity": 45.48,
    "PM10": 58.91,
    "PM2n5": 3.79,
    "Pressure": 988,
    "Temperature": 6,
    "AirQualityIndex": 99.15,
    "localId": 42
  },
  {
    "id": "SAVEDNIPRO_1131",
    "cityName": "Zaporizhzhia",
    "stationName": "Tbiliska Street, 27A",
    "localName": "",
    "latitude": "47.83602089075",
    "longitude": "35.10648322033",
    "humidity": 50.88,
    "PM10": 47.13,
    "PM2n5": 4.3,
    "Pressure": 1002,
    "Temperature": 5,
    "AirQualityIndex": 108.01,
    "localId": 43
  },
  {
    "id": "SAVEDNIPRO_1143",
    "cityName": "Dobropillia",
    "stationName": "Street Zapovitna",
    "localName": "Save Dnipro #75",
    "latitude": "48.477333",
    "longitude": "37.092000",
    "humidity": 74.27,
    "PM10": 52.46,
    "PM2n5": 9.7,
    "Pressure": 981,
    "Temperature": 5,
    "AirQualityIndex": 41.11,
    "localId": 44
  },
  {
    "id": "SAVEDNIPRO_1168",
    "cityName": "Mariupol",
    "stationName": "Street Lomizova, 11",
    "localName": "",
    "latitude": "47.101121",
    "longitude": "37.627157",
    "humidity": 65.43,
    "PM10": 50,
    "PM2n5": 6.9,
    "Pressure": 990,
    "Temperature": 5,
    "AirQualityIndex": 139.39,
    "localId": 45
  },
  {
    "id": "SAVEDNIPRO_1169",
    "cityName": "Mariupol",
    "stationName": "prospekt Metalurhiv, 206-A",
    "localName": "",
    "latitude": "47.137890",
    "longitude": "37.565452",
    "humidity": 62.5,
    "PM10": 20.59,
    "PM2n5": 19.46,
    "Pressure": 1017,
    "Temperature": 5,
    "AirQualityIndex": 78.79,
    "localId": 46
  },
  {
    "id": "SAVEDNIPRO_1174",
    "cityName": "Kam'ianske",
    "stationName": "prospekt Svobody, 49",
    "localName": "",
    "latitude": "48.516430",
    "longitude": "34.614322",
    "humidity": 52,
    "PM10": 28.86,
    "PM2n5": 5,
    "Pressure": 1010,
    "Temperature": 8,
    "AirQualityIndex": 107.75,
    "localId": 47
  },
  {
    "id": "SAVEDNIPRO_1175",
    "cityName": "Kam'ianske",
    "stationName": "Street Voiniv-afhantsiv, 5D",
    "localName": "",
    "latitude": "48.608365",
    "longitude": "34.558746",
    "humidity": 59.68,
    "PM10": 59.13,
    "PM2n5": 15.83,
    "Pressure": 1007,
    "Temperature": 7,
    "AirQualityIndex": 59.45,
    "localId": 48
  },
  {
    "id": "SAVEDNIPRO_1176",
    "cityName": "Kam'ianske",
    "stationName": "prospekt Svobody, 56",
    "localName": "",
    "latitude": "48.507758",
    "longitude": "34.609865",
    "humidity": 71.71,
    "PM10": 24.16,
    "PM2n5": 11.97,
    "Pressure": 1006,
    "Temperature": 9,
    "AirQualityIndex": 97.54,
    "localId": 49
  },
  {
    "id": "SAVEDNIPRO_1178",
    "cityName": "Pisochyn",
    "stationName": "Street Zelena, 19",
    "localName": "",
    "latitude": "49.964888",
    "longitude": "36.122653",
    "humidity": 34.66,
    "PM10": 40.38,
    "PM2n5": 4.19,
    "Pressure": 996,
    "Temperature": 11,
    "AirQualityIndex": 99.89,
    "localId": 50
  },
  {
    "id": "SAVEDNIPRO_1179",
    "cityName": "Kam'ianske",
    "stationName": "Street Vorobiova, 15",
    "localName": "",
    "latitude": "48.503785",
    "longitude": "34.614396",
    "humidity": 59.2,
    "PM10": 12.94,
    "PM2n5": 10.07,
    "Pressure": 993,
    "Temperature": 9,
    "AirQualityIndex": 127.62,
    "localId": 51
  },
  {
    "id": "SAVEDNIPRO_1180",
    "cityName": "Kam'ianske",
    "stationName": "prospekt Anoshkina, 58A",
    "localName": "",
    "latitude": "48.509854",
    "longitude": "34.595553",
    "humidity": 50.81,
    "PM10": 41.98,
    "PM2n5": 6.95,
    "Pressure": 985,
    "Temperature": 5,
    "AirQualityIndex": 109.35,
    "localId": 52
  },
  {
    "id": "SAVEDNIPRO_1182",
    "cityName": "Kam'ianske",
    "stationName": "Street Sportyvna, 19",
    "localName": "",
    "latitude": "48.517399",
    "longitude": "34.599969",
    "humidity": 73.85,
    "PM10": 10.45,
    "PM2n5": 2.59,
    "Pressure": 1010,
    "Temperature": 9,
    "AirQualityIndex": 111.86,
    "localId": 53
  },
  {
    "id": "SAVEDNIPRO_1183",
    "cityName": "Kam'ianske",
    "stationName": "Yuvileinyi prospekt, 57",
    "localName": "",
    "latitude": "48.489721",
    "longitude": "34.621939",
    "humidity": 37.48,
    "PM10": 51.5,
    "PM2n5": 12.33,
    "Pressure": 983,
    "Temperature": 5,
    "AirQualityIndex": 158.51,
    "localId": 54
  },
  {
    "id": "SAVEDNIPRO_1212",
    "cityName": "Zaporizhzhia",
    "stationName": "Street Shkilna, 50",
    "localName": "",
    "latitude": "47.816804",
    "longitude": "35.169158",
    "humidity": 53.18,
    "PM10": 54.33,
    "PM2n5": 17.9,
    "Pressure": 1017,
    "Temperature": 6,
    "AirQualityIndex": 24.53,
    "localId": 55
  },
  {
    "id": "SAVEDNIPRO_1260",
    "cityName": "Zaporizhzhia",
    "stationName": "Street Mykoly Koryshchenka, 26",
    "localName": "",
    "latitude": "47.82919027096",
    "longitude": "35.23301213980",
    "humidity": 48.14,
    "PM10": 56.01,
    "PM2n5": 1.17,
    "Pressure": 993,
    "Temperature": 11,
    "AirQualityIndex": 50.83,
    "localId": 56
  },
  {
    "id": "SAVEDNIPRO_1266",
    "cityName": "Kyiv",
    "stationName": "Street Kostiantynivska, 73",
    "localName": "",
    "latitude": "50.473860",
    "longitude": "30.497474",
    "humidity": 47.93,
    "PM10": 45.03,
    "PM2n5": 1.46,
    "Pressure": 999,
    "Temperature": 9,
    "AirQualityIndex": 196.2,
    "localId": 57
  },
  {
    "id": "SAVEDNIPRO_1268",
    "cityName": "Bobrovytsia",
    "stationName": "Street Nezalezhnosti, 46",
    "localName": "",
    "latitude": "50.741761",
    "longitude": "31.384359",
    "humidity": 25.54,
    "PM10": 62.69,
    "PM2n5": 16.56,
    "Pressure": 1005,
    "Temperature": 11,
    "AirQualityIndex": 152.34,
    "localId": 58
  },
  {
    "id": "SAVEDNIPRO_1269",
    "cityName": "Poltava",
    "stationName": "Street Pidmonastyrska, 41",
    "localName": "",
    "latitude": "49.592648",
    "longitude": "34.570985",
    "humidity": 34.4,
    "PM10": 42.9,
    "PM2n5": 17.78,
    "Pressure": 983,
    "Temperature": 11,
    "AirQualityIndex": 17.92,
    "localId": 59
  },
  {
    "id": "SAVEDNIPRO_1270",
    "cityName": "Dnipro",
    "stationName": "Street Mykhaila Hrushevskoho, 34",
    "localName": "Save Dnipro #104",
    "latitude": "48.454988",
    "longitude": "35.036721",
    "humidity": 32.02,
    "PM10": 44.37,
    "PM2n5": 10.3,
    "Pressure": 1004,
    "Temperature": 9,
    "AirQualityIndex": 8.17,
    "localId": 60
  },
  {
    "id": "SAVEDNIPRO_1271",
    "cityName": "Dnipro",
    "stationName": "prospekt Myru, 5",
    "localName": "",
    "latitude": "48.525274",
    "longitude": "35.019689",
    "humidity": 62.4,
    "PM10": 57.16,
    "PM2n5": 5.54,
    "Pressure": 1009,
    "Temperature": 5,
    "AirQualityIndex": 32.31,
    "localId": 61
  },
  {
    "id": "SAVEDNIPRO_1272",
    "cityName": "Kam'ianske",
    "stationName": "Street Kazanska, 35",
    "localName": "",
    "latitude": "48.494670",
    "longitude": "34.602290",
    "humidity": 50.76,
    "PM10": 72.08,
    "PM2n5": 17.42,
    "Pressure": 991,
    "Temperature": 9,
    "AirQualityIndex": 93.44,
    "localId": 62
  },
  {
    "id": "SAVEDNIPRO_1274",
    "cityName": "Kyiv",
    "stationName": "prospekt Heroiv Stalinhrada, 6K8",
    "localName": "",
    "latitude": "50.494958",
    "longitude": "30.522702",
    "humidity": 39.95,
    "PM10": 1.81,
    "PM2n5": 16.42,
    "Pressure": 997,
    "Temperature": 6,
    "AirQualityIndex": 79.41,
    "localId": 63
  },
  {
    "id": "SAVEDNIPRO_1275",
    "cityName": "Kam'ianske",
    "stationName": "prospekt Konstytutsii 19",
    "localName": "",
    "latitude": "48.475955",
    "longitude": "34.667161",
    "humidity": 60.2,
    "PM10": 26.32,
    "PM2n5": 8.02,
    "Pressure": 997,
    "Temperature": 6,
    "AirQualityIndex": 22.43,
    "localId": 64
  },
  {
    "id": "SAVEDNIPRO_1276",
    "cityName": "Poltava",
    "stationName": "Street Radyshcheva, 46",
    "localName": "",
    "latitude": "49.577176",
    "longitude": "34.607160",
    "humidity": 42.92,
    "PM10": 33.12,
    "PM2n5": 16.72,
    "Pressure": 985,
    "Temperature": 11,
    "AirQualityIndex": 133.22,
    "localId": 65
  },
  {
    "id": "SAVEDNIPRO_1278",
    "cityName": "Kyiv",
    "stationName": "Street Saperno-Slobidska, 25/4",
    "localName": "",
    "latitude": "50.404417",
    "longitude": "30.534111",
    "humidity": 44.28,
    "PM10": 39.95,
    "PM2n5": 11.15,
    "Pressure": 981,
    "Temperature": 8,
    "AirQualityIndex": 112.04,
    "localId": 66
  },
  {
    "id": "SAVEDNIPRO_1279",
    "cityName": "Dnipro",
    "stationName": "Street Maiachka, 14",
    "localName": "",
    "latitude": "48.4934802",
    "longitude": "35.1992773",
    "humidity": 40.33,
    "PM10": 77.45,
    "PM2n5": 7.88,
    "Pressure": 991,
    "Temperature": 6,
    "AirQualityIndex": 41.82,
    "localId": 67
  },
  {
    "id": "SAVEDNIPRO_1293",
    "cityName": "Kushuhum",
    "stationName": "Street Partyzanska",
    "localName": "",
    "latitude": "47.723589",
    "longitude": "35.206665",
    "humidity": 29.38,
    "PM10": 41.9,
    "PM2n5": 14.31,
    "Pressure": 989,
    "Temperature": 5,
    "AirQualityIndex": 173.37,
    "localId": 68
  },
  {
    "id": "SAVEDNIPRO_1294",
    "cityName": "Kyiv",
    "stationName": "Street 8-a Sadova",
    "localName": "",
    "latitude": "50.4682878",
    "longitude": "30.5729412",
    "humidity": 48.39,
    "PM10": 36.54,
    "PM2n5": 5.28,
    "Pressure": 980,
    "Temperature": 5,
    "AirQualityIndex": 182.29,
    "localId": 69
  },
  {
    "id": "SAVEDNIPRO_1295",
    "cityName": "Brovary",
    "stationName": "Sadove tovarystvo Khimik",
    "localName": "",
    "latitude": "50.514441",
    "longitude": "30.797268",
    "humidity": 40.12,
    "PM10": 22.22,
    "PM2n5": 18.25,
    "Pressure": 991,
    "Temperature": 9,
    "AirQualityIndex": 193.27,
    "localId": 70
  },
  {
    "id": "SAVEDNIPRO_1297",
    "cityName": "Zaporizhzhia",
    "stationName": "Street Charivna, 157",
    "localName": "",
    "latitude": "47.844147",
    "longitude": "35.230268",
    "humidity": 73.37,
    "PM10": 50.97,
    "PM2n5": 5.65,
    "Pressure": 987,
    "Temperature": 6,
    "AirQualityIndex": 75.98,
    "localId": 71
  },
  {
    "id": "SAVEDNIPRO_1298",
    "cityName": "Zaporizhzhia",
    "stationName": "Street Leonida Zhabotynskoho, 63",
    "localName": "",
    "latitude": "47.8382123",
    "longitude": "35.1351085",
    "humidity": 25.93,
    "PM10": 14.35,
    "PM2n5": 12.14,
    "Pressure": 1011,
    "Temperature": 10,
    "AirQualityIndex": 87.39,
    "localId": 72
  },
  {
    "id": "SAVEDNIPRO_1300",
    "cityName": "Cherkaske",
    "stationName": "Street Yasna, 3",
    "localName": "",
    "latitude": "48.835490",
    "longitude": "37.392544",
    "humidity": 29.23,
    "PM10": 43.91,
    "PM2n5": 6.11,
    "Pressure": 998,
    "Temperature": 5,
    "AirQualityIndex": 124.82,
    "localId": 73
  },
  {
    "id": "SAVEDNIPRO_1301",
    "cityName": "Zaporizhzhia",
    "stationName": "Street Vesnina, 1A",
    "localName": "",
    "latitude": "47.865793",
    "longitude": "35.058838",
    "humidity": 71.37,
    "PM10": 4.86,
    "PM2n5": 11.11,
    "Pressure": 991,
    "Temperature": 6,
    "AirQualityIndex": 35.25,
    "localId": 74
  },
  {
    "id": "SAVEDNIPRO_1302",
    "cityName": "Yurivka",
    "stationName": "Street Naberezhna, 3",
    "localName": "",
    "latitude": "50.317396",
    "longitude": "30.390961",
    "humidity": 71.03,
    "PM10": 31.65,
    "PM2n5": 16.01,
    "Pressure": 1015,
    "Temperature": 6,
    "AirQualityIndex": 174.1,
    "localId": 75
  },
  {
    "id": "SAVEDNIPRO_1303",
    "cityName": "Chornomorsk",
    "stationName": "Street Vitaliia Shuma, 2H",
    "localName": "",
    "latitude": "46.297067",
    "longitude": "30.639265",
    "humidity": 31.13,
    "PM10": 18.24,
    "PM2n5": 12.42,
    "Pressure": 992,
    "Temperature": 11,
    "AirQualityIndex": 53.89,
    "localId": 76
  },
  {
    "id": "SAVEDNIPRO_1306",
    "cityName": "Kyiv",
    "stationName": "Street Marshala Malynovskoho, 4V",
    "localName": "",
    "latitude": "50.505132",
    "longitude": "30.489238",
    "humidity": 32.79,
    "PM10": 8,
    "PM2n5": 13.98,
    "Pressure": 992,
    "Temperature": 11,
    "AirQualityIndex": 135.14,
    "localId": 77
  },
  {
    "id": "SAVEDNIPRO_1308",
    "cityName": "Zaporizhzhia",
    "stationName": "Avtobusna Street, 13",
    "localName": "",
    "latitude": "47.8630359",
    "longitude": "35.1845460",
    "humidity": 65.1,
    "PM10": 34.03,
    "PM2n5": 5.86,
    "Pressure": 1006,
    "Temperature": 6,
    "AirQualityIndex": 198.36,
    "localId": 78
  },
  {
    "id": "SAVEDNIPRO_1309",
    "cityName": "Zaporizhzhia",
    "stationName": "Tsentralnyi bulvar, 22A",
    "localName": "",
    "latitude": "47.835703",
    "longitude": "35.134718",
    "humidity": 33.08,
    "PM10": 67,
    "PM2n5": 12.04,
    "Pressure": 998,
    "Temperature": 6,
    "AirQualityIndex": 3.8,
    "localId": 79
  },
  {
    "id": "SAVEDNIPRO_1311",
    "cityName": "Vita-Poshtova",
    "stationName": "Street Zvenyhorodska",
    "localName": "",
    "latitude": "50.312514",
    "longitude": "30.375136",
    "humidity": 45.63,
    "PM10": 70.12,
    "PM2n5": 13.79,
    "Pressure": 998,
    "Temperature": 11,
    "AirQualityIndex": 100.38,
    "localId": 80
  },
  {
    "id": "SAVEDNIPRO_1313",
    "cityName": "Yurivka",
    "stationName": "Street Naberezhna, 12",
    "localName": "",
    "latitude": "50.326257",
    "longitude": "30.375458",
    "humidity": 57.21,
    "PM10": 34.79,
    "PM2n5": 11.62,
    "Pressure": 1002,
    "Temperature": 8,
    "AirQualityIndex": 21.11,
    "localId": 81
  },
  {
    "id": "SAVEDNIPRO_1315",
    "cityName": "Zaporizhzhia",
    "stationName": "Street Svitla, 16",
    "localName": "",
    "latitude": "47.815380",
    "longitude": "35.053843",
    "humidity": 37.5,
    "PM10": 57.16,
    "PM2n5": 19.72,
    "Pressure": 982,
    "Temperature": 6,
    "AirQualityIndex": 65.47,
    "localId": 82
  },
  {
    "id": "SAVEDNIPRO_1316",
    "cityName": "Zaporizhzhia",
    "stationName": "prospekt Sobornyi, 228",
    "localName": "",
    "latitude": "47.8606913",
    "longitude": "35.1002317",
    "humidity": 25.98,
    "PM10": 38.12,
    "PM2n5": 3.79,
    "Pressure": 1013,
    "Temperature": 6,
    "AirQualityIndex": 114.98,
    "localId": 83
  },
  {
    "id": "SAVEDNIPRO_1354",
    "cityName": "Velyka Severynka",
    "stationName": "Street Myru, 2A",
    "localName": "",
    "latitude": "48.608155",
    "longitude": "32.231918",
    "humidity": 47.81,
    "PM10": 59.84,
    "PM2n5": 3.7,
    "Pressure": 1014,
    "Temperature": 11,
    "AirQualityIndex": 120.59,
    "localId": 84
  },
  {
    "id": "SAVEDNIPRO_1372",
    "cityName": "Kyiv",
    "stationName": "Street Verkhovynna, 37",
    "localName": "",
    "latitude": "50.452314",
    "longitude": "30.371420",
    "humidity": 68.33,
    "PM10": 38.36,
    "PM2n5": 18.28,
    "Pressure": 993,
    "Temperature": 8,
    "AirQualityIndex": 145.8,
    "localId": 85
  },
  {
    "id": "SAVEDNIPRO_1373",
    "cityName": "Kyiv",
    "stationName": "Street Marshala Malynovskoho, 13B",
    "localName": "",
    "latitude": "50.502855",
    "longitude": "30.495153",
    "humidity": 31.51,
    "PM10": 3.68,
    "PM2n5": 10.13,
    "Pressure": 1002,
    "Temperature": 7,
    "AirQualityIndex": 195.43,
    "localId": 86
  },
  {
    "id": "SAVEDNIPRO_1376",
    "cityName": "Kyiv",
    "stationName": "Street Volodymyro-Lybidska 25",
    "localName": "",
    "latitude": "50.421359",
    "longitude": "30.514859",
    "humidity": 48.52,
    "PM10": 74.08,
    "PM2n5": 13.12,
    "Pressure": 1005,
    "Temperature": 10,
    "AirQualityIndex": 106.32,
    "localId": 87
  },
  {
    "id": "SAVEDNIPRO_1377",
    "cityName": "Chornomorsk",
    "stationName": "Street Transportna, 14A",
    "localName": "Save Dnipro #159",
    "latitude": "46.311634",
    "longitude": "30.654892",
    "humidity": 47.29,
    "PM10": 46.07,
    "PM2n5": 14.08,
    "Pressure": 989,
    "Temperature": 7,
    "AirQualityIndex": 128.69,
    "localId": 88
  },
  {
    "id": "SAVEDNIPRO_1378",
    "cityName": "Hatne",
    "stationName": "Street Yaroslava Mudroho, 6",
    "localName": "",
    "latitude": "50.359801",
    "longitude": "30.424000",
    "humidity": 38.74,
    "PM10": 75.82,
    "PM2n5": 9.88,
    "Pressure": 992,
    "Temperature": 10,
    "AirQualityIndex": 36.31,
    "localId": 89
  },
  {
    "id": "SAVEDNIPRO_1380",
    "cityName": "Odesa",
    "stationName": "Street Armiiska, 19",
    "localName": "Save Dnipro #162",
    "latitude": "46.452237",
    "longitude": "30.748921",
    "humidity": 26.24,
    "PM10": 12.92,
    "PM2n5": 1.19,
    "Pressure": 1018,
    "Temperature": 6,
    "AirQualityIndex": 183.95,
    "localId": 90
  },
  {
    "id": "SAVEDNIPRO_1381",
    "cityName": "Reshetylivka",
    "stationName": "Street Pokrovska, 14",
    "localName": "",
    "latitude": "49.562487",
    "longitude": "34.078514",
    "humidity": 37.46,
    "PM10": 19.76,
    "PM2n5": 6.17,
    "Pressure": 1007,
    "Temperature": 5,
    "AirQualityIndex": 70.22,
    "localId": 91
  },
  {
    "id": "SAVEDNIPRO_1382",
    "cityName": "Zaporizhzhia",
    "stationName": "Street Nezalezhnoi Ukrainy, 68A",
    "localName": "",
    "latitude": "47.827955",
    "longitude": "35.204411",
    "humidity": 52.46,
    "PM10": 67.59,
    "PM2n5": 12.64,
    "Pressure": 980,
    "Temperature": 9,
    "AirQualityIndex": 127.88,
    "localId": 92
  },
  {
    "id": "SAVEDNIPRO_1384",
    "cityName": "Hnidyn",
    "stationName": "Street Nova, 1",
    "localName": "",
    "latitude": "50.33948",
    "longitude": "30.70528",
    "humidity": 65.83,
    "PM10": 63.27,
    "PM2n5": 9.07,
    "Pressure": 1015,
    "Temperature": 6,
    "AirQualityIndex": 148,
    "localId": 93
  },
  {
    "id": "SAVEDNIPRO_1385",
    "cityName": "Hnidyn",
    "stationName": "Street Kuzbasova, 22",
    "localName": "",
    "latitude": "50.327707",
    "longitude": "30.696919",
    "humidity": 53.12,
    "PM10": 10.91,
    "PM2n5": 18.39,
    "Pressure": 1007,
    "Temperature": 11,
    "AirQualityIndex": 92.13,
    "localId": 94
  },
  {
    "id": "SAVEDNIPRO_1386",
    "cityName": "Odesa",
    "stationName": "Street Balkivska, 40A",
    "localName": "",
    "latitude": "46.486764",
    "longitude": "30.707282",
    "humidity": 61.66,
    "PM10": 34.08,
    "PM2n5": 9.21,
    "Pressure": 1003,
    "Temperature": 5,
    "AirQualityIndex": 177.88,
    "localId": 95
  },
  {
    "id": "SAVEDNIPRO_1387",
    "cityName": "Kyiv",
    "stationName": "Street Reitarska, 17",
    "localName": "",
    "latitude": "50.4515820",
    "longitude": "30.5115602",
    "humidity": 66.6,
    "PM10": 1.13,
    "PM2n5": 7.37,
    "Pressure": 985,
    "Temperature": 7,
    "AirQualityIndex": 154.95,
    "localId": 96
  },
  {
    "id": "SAVEDNIPRO_1388",
    "cityName": "Brovary",
    "stationName": "Street Symona Petliury, 36",
    "localName": "",
    "latitude": "50.5245",
    "longitude": "30.798465",
    "humidity": 72.37,
    "PM10": 72.27,
    "PM2n5": 11.54,
    "Pressure": 1018,
    "Temperature": 8,
    "AirQualityIndex": 131.23,
    "localId": 97
  },
  {
    "id": "SAVEDNIPRO_1392",
    "cityName": "Brovary",
    "stationName": "bulvar Nezalezhnosti, 4A",
    "localName": "",
    "latitude": "50.512282",
    "longitude": "30.796358",
    "humidity": 26.73,
    "PM10": 25.62,
    "PM2n5": 13,
    "Pressure": 990,
    "Temperature": 5,
    "AirQualityIndex": 175.29,
    "localId": 98
  },
  {
    "id": "SAVEDNIPRO_1394",
    "cityName": "Kyiv",
    "stationName": "Street Kyrylivska 64",
    "localName": "",
    "latitude": "50.4742163",
    "longitude": "30.4942892",
    "humidity": 70.56,
    "PM10": 23.41,
    "PM2n5": 18.48,
    "Pressure": 986,
    "Temperature": 9,
    "AirQualityIndex": 37.54,
    "localId": 99
  },
  {
    "id": "SAVEDNIPRO_1395",
    "cityName": "Rivne",
    "stationName": "Street Kostromska, 73",
    "localName": "",
    "latitude": "50.6331689",
    "longitude": "26.2856835",
    "humidity": 71.57,
    "PM10": 5.02,
    "PM2n5": 11.19,
    "Pressure": 1017,
    "Temperature": 6,
    "AirQualityIndex": 152.5,
    "localId": 100
  },
  {
    "id": "SAVEDNIPRO_1396",
    "cityName": "Khrystanivka",
    "stationName": "Street Shevchenka, 23",
    "localName": "",
    "latitude": "50.297342",
    "longitude": "33.376383",
    "humidity": 74.94,
    "PM10": 19.79,
    "PM2n5": 6.96,
    "Pressure": 999,
    "Temperature": 5,
    "AirQualityIndex": 152.67,
    "localId": 101
  },
  {
    "id": "SAVEDNIPRO_1397",
    "cityName": "Baranivka",
    "stationName": "Street Soborna, 6",
    "localName": "",
    "latitude": "50.293875",
    "longitude": "27.669171",
    "humidity": 66.86,
    "PM10": 11.63,
    "PM2n5": 10.85,
    "Pressure": 992,
    "Temperature": 8,
    "AirQualityIndex": 154.1,
    "localId": 102
  },
  {
    "id": "SAVEDNIPRO_1411",
    "cityName": "Chornomorsk",
    "stationName": "Street Parkova, 22",
    "localName": "",
    "latitude": "46.2997433",
    "longitude": "30.6593683",
    "humidity": 69.89,
    "PM10": 2.63,
    "PM2n5": 11.74,
    "Pressure": 1020,
    "Temperature": 8,
    "AirQualityIndex": 23.8,
    "localId": 103
  },
  {
    "id": "SAVEDNIPRO_1412",
    "cityName": "Nadvirna",
    "stationName": "maidan Shevchenka, 33",
    "localName": "",
    "latitude": "48.633951",
    "longitude": "24.567418",
    "humidity": 47.43,
    "PM10": 77.02,
    "PM2n5": 13.04,
    "Pressure": 999,
    "Temperature": 9,
    "AirQualityIndex": 83.77,
    "localId": 104
  },
  {
    "id": "SAVEDNIPRO_1424",
    "cityName": "Kyiv",
    "stationName": "Street Yuriia Popravky, 4",
    "localName": "",
    "latitude": "50.455080",
    "longitude": "30.629557",
    "humidity": 40.88,
    "PM10": 9.42,
    "PM2n5": 13.13,
    "Pressure": 1020,
    "Temperature": 9,
    "AirQualityIndex": 158.48,
    "localId": 105
  },
  {
    "id": "SAVEDNIPRO_1425",
    "cityName": "Kyiv",
    "stationName": "prospekt Heroiv Stalinhrada 28",
    "localName": "",
    "latitude": "50.513766",
    "longitude": "30.508991",
    "humidity": 73,
    "PM10": 27.16,
    "PM2n5": 19.93,
    "Pressure": 987,
    "Temperature": 11,
    "AirQualityIndex": 87.26,
    "localId": 106
  },
  {
    "id": "SAVEDNIPRO_1426",
    "cityName": "Zaporizhzhia",
    "stationName": "prospekt Yuvileinyi, 19",
    "localName": "",
    "latitude": "47.817382",
    "longitude": "35.054906",
    "humidity": 34.26,
    "PM10": 42.44,
    "PM2n5": 18.22,
    "Pressure": 1003,
    "Temperature": 11,
    "AirQualityIndex": 38.63,
    "localId": 107
  },
  {
    "id": "SAVEDNIPRO_1427",
    "cityName": "Chornomorsk",
    "stationName": "Street Vitaliia Shuma, 9",
    "localName": "",
    "latitude": "46.302583",
    "longitude": "30.642833",
    "humidity": 59.15,
    "PM10": 8.18,
    "PM2n5": 7.39,
    "Pressure": 988,
    "Temperature": 11,
    "AirQualityIndex": 130.26,
    "localId": 108
  },
  {
    "id": "SAVEDNIPRO_1428",
    "cityName": "Dobropillia",
    "stationName": "mikroraion Molodizhnyi, 36",
    "localName": "",
    "latitude": "48.469470",
    "longitude": "37.079867",
    "humidity": 41.36,
    "PM10": 26.77,
    "PM2n5": 17.31,
    "Pressure": 998,
    "Temperature": 7,
    "AirQualityIndex": 155.26,
    "localId": 109
  },
  {
    "id": "SAVEDNIPRO_1448",
    "cityName": "Rusaniv",
    "stationName": "Street Partyzanska",
    "localName": "",
    "latitude": "50.503785",
    "longitude": "31.149722",
    "humidity": 70.68,
    "PM10": 72.56,
    "PM2n5": 17.7,
    "Pressure": 984,
    "Temperature": 9,
    "AirQualityIndex": 111.64,
    "localId": 110
  },
  {
    "id": "SAVEDNIPRO_1507",
    "cityName": "Irpin",
    "stationName": "Street Varshavska, 114",
    "localName": "",
    "latitude": "50.537636",
    "longitude": "30.266628",
    "humidity": 43.7,
    "PM10": 74.01,
    "PM2n5": 4,
    "Pressure": 1005,
    "Temperature": 11,
    "AirQualityIndex": 139.62,
    "localId": 111
  },
  {
    "id": "SAVEDNIPRO_1510",
    "cityName": "Kharkiv",
    "stationName": "Street Tobolska, 41A",
    "localName": "",
    "latitude": "50.027901",
    "longitude": "36.215151",
    "humidity": 53.54,
    "PM10": 79.34,
    "PM2n5": 6.25,
    "Pressure": 1007,
    "Temperature": 6,
    "AirQualityIndex": 166.38,
    "localId": 112
  },
  {
    "id": "SAVEDNIPRO_1511",
    "cityName": "Voropaiv",
    "stationName": "Street Kyivska, 100",
    "localName": "",
    "latitude": "50.785232",
    "longitude": "30.683176",
    "humidity": 57.96,
    "PM10": 35.5,
    "PM2n5": 7.67,
    "Pressure": 1004,
    "Temperature": 11,
    "AirQualityIndex": 5.56,
    "localId": 113
  },
  {
    "id": "SAVEDNIPRO_1513",
    "cityName": "Chaiky",
    "stationName": "Street Leontovycha, 16",
    "localName": "",
    "latitude": "50.432666",
    "longitude": "30.279492",
    "humidity": 36.78,
    "PM10": 22.08,
    "PM2n5": 14.81,
    "Pressure": 1007,
    "Temperature": 10,
    "AirQualityIndex": 90.03,
    "localId": 114
  },
  {
    "id": "SAVEDNIPRO_1514",
    "cityName": "Radomyshl",
    "stationName": "Street Shevchenka, 25",
    "localName": "",
    "latitude": "50.501932",
    "longitude": "29.229013",
    "humidity": 66.08,
    "PM10": 66.71,
    "PM2n5": 8.87,
    "Pressure": 1010,
    "Temperature": 11,
    "AirQualityIndex": 96.33,
    "localId": 115
  },
  {
    "id": "SAVEDNIPRO_1538",
    "cityName": "Hnidyn",
    "stationName": "Street Luhova",
    "localName": "",
    "latitude": "50.3290625",
    "longitude": "30.6978125",
    "humidity": 45.59,
    "PM10": 15.57,
    "PM2n5": 5.88,
    "Pressure": 996,
    "Temperature": 5,
    "AirQualityIndex": 9.45,
    "localId": 116
  },
  {
    "id": "SAVEDNIPRO_1540",
    "cityName": "Kyiv",
    "stationName": "Street Borshchahivska, 16",
    "localName": "",
    "latitude": "50.447179",
    "longitude": "30.468070",
    "humidity": 49.41,
    "PM10": 6.46,
    "PM2n5": 15.52,
    "Pressure": 1009,
    "Temperature": 6,
    "AirQualityIndex": 133.69,
    "localId": 117
  },
  {
    "id": "SAVEDNIPRO_1542",
    "cityName": "Liubar",
    "stationName": "Street Nezalezhnosti, 39",
    "localName": "",
    "latitude": "49.924459",
    "longitude": "27.746386",
    "humidity": 60.65,
    "PM10": 46.85,
    "PM2n5": 3.55,
    "Pressure": 988,
    "Temperature": 6,
    "AirQualityIndex": 163.24,
    "localId": 118
  },
  {
    "id": "SAVEDNIPRO_1543",
    "cityName": "Kharkiv",
    "stationName": "Hryhorivske shose, 57",
    "localName": "",
    "latitude": "49.979663",
    "longitude": "36.184030",
    "humidity": 33.39,
    "PM10": 32.62,
    "PM2n5": 11.56,
    "Pressure": 1012,
    "Temperature": 7,
    "AirQualityIndex": 133.77,
    "localId": 119
  },
  {
    "id": "SAVEDNIPRO_1544",
    "cityName": "Kyiv",
    "stationName": "Street Anny Akhmatovoi, 47",
    "localName": "",
    "latitude": "50.404406",
    "longitude": "30.615846",
    "humidity": 32.92,
    "PM10": 34.4,
    "PM2n5": 12.55,
    "Pressure": 1012,
    "Temperature": 8,
    "AirQualityIndex": 109.6,
    "localId": 120
  },
  {
    "id": "SAVEDNIPRO_1555",
    "cityName": "Raihorodok",
    "stationName": "Street Skhidna, 4",
    "localName": "",
    "latitude": "48.905655",
    "longitude": "37.724880",
    "humidity": 37.74,
    "PM10": 73.64,
    "PM2n5": 13.98,
    "Pressure": 1017,
    "Temperature": 9,
    "AirQualityIndex": 105.27,
    "localId": 121
  },
  {
    "id": "SAVEDNIPRO_1557",
    "cityName": "Sloviansk",
    "stationName": "ploshcha Soborna, 2",
    "localName": "",
    "latitude": "48.851999",
    "longitude": "37.606324",
    "humidity": 46.49,
    "PM10": 60.03,
    "PM2n5": 11.69,
    "Pressure": 981,
    "Temperature": 6,
    "AirQualityIndex": 170.56,
    "localId": 122
  },
  {
    "id": "SAVEDNIPRO_1558",
    "cityName": "Bakhmut",
    "stationName": "Street Myru, 44",
    "localName": "",
    "latitude": "48.589113",
    "longitude": "38.000524",
    "humidity": 34.38,
    "PM10": 29.03,
    "PM2n5": 13.15,
    "Pressure": 993,
    "Temperature": 7,
    "AirQualityIndex": 44.78,
    "localId": 123
  },
  {
    "id": "SAVEDNIPRO_1560",
    "cityName": "Mykolaivka",
    "stationName": "Street Mykhaila Petrenka, 7",
    "localName": "",
    "latitude": "48.855326",
    "longitude": "37.774202",
    "humidity": 29.96,
    "PM10": 39.88,
    "PM2n5": 14.24,
    "Pressure": 998,
    "Temperature": 5,
    "AirQualityIndex": 161.62,
    "localId": 124
  },
  {
    "id": "SAVEDNIPRO_1561",
    "cityName": "Izmail",
    "stationName": "Street Riepina, 12",
    "localName": "",
    "latitude": "45.360426",
    "longitude": "28.818493",
    "humidity": 64.89,
    "PM10": 34.64,
    "PM2n5": 16.87,
    "Pressure": 1013,
    "Temperature": 7,
    "AirQualityIndex": 116.74,
    "localId": 125
  },
  {
    "id": "SAVEDNIPRO_1562",
    "cityName": "Toretsk",
    "stationName": "Street Maiakovskoho, 10",
    "localName": "",
    "latitude": "48.397121",
    "longitude": "37.843989",
    "humidity": 40.72,
    "PM10": 2.17,
    "PM2n5": 16.73,
    "Pressure": 983,
    "Temperature": 5,
    "AirQualityIndex": 181.27,
    "localId": 126
  },
  {
    "id": "SAVEDNIPRO_1563",
    "cityName": "Druzhkivka",
    "stationName": "Street Minska, 12",
    "localName": "",
    "latitude": "48.613735",
    "longitude": "37.486107",
    "humidity": 34.07,
    "PM10": 79.57,
    "PM2n5": 5.07,
    "Pressure": 1014,
    "Temperature": 7,
    "AirQualityIndex": 18.11,
    "localId": 127
  },
  {
    "id": "SAVEDNIPRO_1564",
    "cityName": "Teplodar",
    "stationName": "Street Biliayivska, 3",
    "localName": "",
    "latitude": "46.5228989",
    "longitude": "30.3185014",
    "humidity": 43.93,
    "PM10": 51.36,
    "PM2n5": 13.01,
    "Pressure": 997,
    "Temperature": 11,
    "AirQualityIndex": 155.26,
    "localId": 128
  },
  {
    "id": "SAVEDNIPRO_1565",
    "cityName": "Serhiivka",
    "stationName": "Street Haharina, 1A",
    "localName": "",
    "latitude": "46.024188",
    "longitude": "30.362985",
    "humidity": 42.84,
    "PM10": 50.27,
    "PM2n5": 11.45,
    "Pressure": 1013,
    "Temperature": 8,
    "AirQualityIndex": 172.8,
    "localId": 129
  },
  {
    "id": "SAVEDNIPRO_1566",
    "cityName": "Tsarychanka",
    "stationName": "Street 14 Hvardiiskoi Dyvizii, 10",
    "localName": "",
    "latitude": "48.941752",
    "longitude": "34.486318",
    "humidity": 47.54,
    "PM10": 11.7,
    "PM2n5": 10.53,
    "Pressure": 1004,
    "Temperature": 5,
    "AirQualityIndex": 153.05,
    "localId": 130
  },
  {
    "id": "SAVEDNIPRO_1568",
    "cityName": "Perechyn",
    "stationName": "ploshcha Narodna, 16",
    "localName": "",
    "latitude": "48.735167",
    "longitude": "22.477306",
    "humidity": 71.99,
    "PM10": 70.24,
    "PM2n5": 2.55,
    "Pressure": 985,
    "Temperature": 8,
    "AirQualityIndex": 107.41,
    "localId": 131
  },
  {
    "id": "SAVEDNIPRO_1569",
    "cityName": "Kozova",
    "stationName": "Street Mykhaila Hrushevskoho, 32",
    "localName": "",
    "latitude": "49.432754",
    "longitude": "25.144195",
    "humidity": 70.06,
    "PM10": 47.69,
    "PM2n5": 19.69,
    "Pressure": 1008,
    "Temperature": 10,
    "AirQualityIndex": 147.25,
    "localId": 132
  },
  {
    "id": "SAVEDNIPRO_1570",
    "cityName": "Novopskov",
    "stationName": "Street Shkilna, 15B",
    "localName": "",
    "latitude": "49.537144",
    "longitude": "39.114868",
    "humidity": 32.73,
    "PM10": 67.18,
    "PM2n5": 2.35,
    "Pressure": 997,
    "Temperature": 9,
    "AirQualityIndex": 36.88,
    "localId": 133
  },
  {
    "id": "SAVEDNIPRO_1571",
    "cityName": "Bilokurakyne",
    "stationName": "ploshcha Tarasa Shevchenka, 4",
    "localName": "",
    "latitude": "49.525283",
    "longitude": "38.731923",
    "humidity": 63.37,
    "PM10": 48.47,
    "PM2n5": 12.57,
    "Pressure": 1001,
    "Temperature": 11,
    "AirQualityIndex": 68.9,
    "localId": 134
  },
  {
    "id": "SAVEDNIPRO_1572",
    "cityName": "Pechenizhyn",
    "stationName": "Street Nezalezhnosti, 15",
    "localName": "",
    "latitude": "48.516707",
    "longitude": "24.883313",
    "humidity": 38.18,
    "PM10": 63.57,
    "PM2n5": 4.42,
    "Pressure": 1004,
    "Temperature": 10,
    "AirQualityIndex": 18.27,
    "localId": 135
  },
  {
    "id": "SAVEDNIPRO_1573",
    "cityName": "Petropil",
    "stationName": "Street Molodizhna, 1",
    "localName": "",
    "latitude": "48.014856",
    "longitude": "34.950205",
    "humidity": 32.54,
    "PM10": 45.01,
    "PM2n5": 2.74,
    "Pressure": 1017,
    "Temperature": 6,
    "AirQualityIndex": 194.36,
    "localId": 136
  },
  {
    "id": "SAVEDNIPRO_1576",
    "cityName": "Vyshniv",
    "stationName": "Street Nezalezhnosti, 80A",
    "localName": "",
    "latitude": "51.197866",
    "longitude": "24.030688",
    "humidity": 25.71,
    "PM10": 65.34,
    "PM2n5": 17.72,
    "Pressure": 997,
    "Temperature": 10,
    "AirQualityIndex": 124.46,
    "localId": 137
  },
  {
    "id": "SAVEDNIPRO_1577",
    "cityName": "Drohobych",
    "stationName": "Street Hrushevskoho, 170",
    "localName": "",
    "latitude": "49.354152",
    "longitude": "23.540407",
    "humidity": 36.1,
    "PM10": 68.24,
    "PM2n5": 3.91,
    "Pressure": 1011,
    "Temperature": 10,
    "AirQualityIndex": 147.99,
    "localId": 138
  },
  {
    "id": "SAVEDNIPRO_1579",
    "cityName": "Koriukivka",
    "stationName": "Street Bulvarna, 6",
    "localName": "",
    "latitude": "51.772445",
    "longitude": "32.258389",
    "humidity": 53.7,
    "PM10": 38.51,
    "PM2n5": 15.85,
    "Pressure": 1013,
    "Temperature": 11,
    "AirQualityIndex": 195.13,
    "localId": 139
  },
  {
    "id": "SAVEDNIPRO_1580",
    "cityName": "Semenivka",
    "stationName": "3-y Tsentralnyi provulok, 2",
    "localName": "",
    "latitude": "52.173104",
    "longitude": "32.591975",
    "humidity": 33.38,
    "PM10": 65.44,
    "PM2n5": 16.56,
    "Pressure": 1001,
    "Temperature": 5,
    "AirQualityIndex": 81.16,
    "localId": 140
  },
  {
    "id": "SAVEDNIPRO_1581",
    "cityName": "Khmilnyk",
    "stationName": "Street Stoliarchuka, 10",
    "localName": "",
    "latitude": "49.558073",
    "longitude": "27.956940",
    "humidity": 48.54,
    "PM10": 1.59,
    "PM2n5": 10.17,
    "Pressure": 1016,
    "Temperature": 7,
    "AirQualityIndex": 128.12,
    "localId": 141
  },
  {
    "id": "SAVEDNIPRO_1582",
    "cityName": "Khorostkiv",
    "stationName": "Street Bohdana Lepkoho, 1",
    "localName": "",
    "latitude": "49.212406",
    "longitude": "25.923519",
    "humidity": 46.92,
    "PM10": 54.75,
    "PM2n5": 6.87,
    "Pressure": 996,
    "Temperature": 9,
    "AirQualityIndex": 12.41,
    "localId": 142
  },
  {
    "id": "SAVEDNIPRO_1583",
    "cityName": "Sambir",
    "stationName": "ploshcha Rynok, 1",
    "localName": "",
    "latitude": "49.518117",
    "longitude": "23.196529",
    "humidity": 52.18,
    "PM10": 5.25,
    "PM2n5": 13.7,
    "Pressure": 1015,
    "Temperature": 5,
    "AirQualityIndex": 109.09,
    "localId": 143
  },
  {
    "id": "SAVEDNIPRO_1585",
    "cityName": "Chernihivka",
    "stationName": "Street Ukrainska, 57",
    "localName": "",
    "latitude": "47.194468",
    "longitude": "36.216471",
    "humidity": 40.39,
    "PM10": 52.99,
    "PM2n5": 14.72,
    "Pressure": 988,
    "Temperature": 7,
    "AirQualityIndex": 2.42,
    "localId": 144
  },
  {
    "id": "SAVEDNIPRO_1586",
    "cityName": "Tetiiv",
    "stationName": "Street Yanusha Ostrozkoho, 5",
    "localName": "",
    "latitude": "49.371778",
    "longitude": "29.679528",
    "humidity": 64.23,
    "PM10": 70.02,
    "PM2n5": 15.83,
    "Pressure": 981,
    "Temperature": 7,
    "AirQualityIndex": 120.09,
    "localId": 145
  },
  {
    "id": "SAVEDNIPRO_1587",
    "cityName": "Snovsk",
    "stationName": "Street Nezalezhnosti, 19",
    "localName": "",
    "latitude": "51.819637",
    "longitude": "31.942129",
    "humidity": 26.75,
    "PM10": 49.38,
    "PM2n5": 14.96,
    "Pressure": 1013,
    "Temperature": 6,
    "AirQualityIndex": 129.72,
    "localId": 146
  },
  {
    "id": "SAVEDNIPRO_1588",
    "cityName": "Sosnytsia",
    "stationName": "Street Osvity, 21A",
    "localName": "",
    "latitude": "51.524997",
    "longitude": "32.510375",
    "humidity": 39.64,
    "PM10": 2.54,
    "PM2n5": 14.73,
    "Pressure": 981,
    "Temperature": 11,
    "AirQualityIndex": 155.22,
    "localId": 147
  },
  {
    "id": "SAVEDNIPRO_1589",
    "cityName": "Kiliia",
    "stationName": "Street Dunaiska, 92",
    "localName": "",
    "latitude": "45.452392",
    "longitude": "29.261819",
    "humidity": 51.14,
    "PM10": 33.74,
    "PM2n5": 5.98,
    "Pressure": 1014,
    "Temperature": 5,
    "AirQualityIndex": 78.63,
    "localId": 148
  },
  {
    "id": "SAVEDNIPRO_1590",
    "cityName": "Yuzhne",
    "stationName": "prospekt Hryhorivskoho Desanta, 18",
    "localName": "",
    "latitude": "46.621765",
    "longitude": "31.101823",
    "humidity": 55.19,
    "PM10": 33.47,
    "PM2n5": 3.41,
    "Pressure": 1018,
    "Temperature": 10,
    "AirQualityIndex": 164.59,
    "localId": 149
  },
  {
    "id": "SAVEDNIPRO_1592",
    "cityName": "Novoukrainka",
    "stationName": "Street Pokrovska, 70",
    "localName": "",
    "latitude": "48.316617",
    "longitude": "31.523581",
    "humidity": 39.84,
    "PM10": 24.8,
    "PM2n5": 8.93,
    "Pressure": 1003,
    "Temperature": 5,
    "AirQualityIndex": 194.24,
    "localId": 150
  },
  {
    "id": "SAVEDNIPRO_1593",
    "cityName": "Vasylkivka",
    "stationName": "Vasylkivka",
    "localName": "",
    "latitude": "48.217358",
    "longitude": "36.011523",
    "humidity": 51.93,
    "PM10": 15.54,
    "PM2n5": 13.98,
    "Pressure": 990,
    "Temperature": 8,
    "AirQualityIndex": 70.03,
    "localId": 151
  },
  {
    "id": "SAVEDNIPRO_1595",
    "cityName": "Kulykivka",
    "stationName": "Street Myru, 67",
    "localName": "",
    "latitude": "51.373776",
    "longitude": "31.645106",
    "humidity": 66.01,
    "PM10": 63.46,
    "PM2n5": 14.83,
    "Pressure": 981,
    "Temperature": 6,
    "AirQualityIndex": 109.83,
    "localId": 152
  },
  {
    "id": "SAVEDNIPRO_1596",
    "cityName": "Mykhailivka",
    "stationName": "Street Shevchenka, 31",
    "localName": "",
    "latitude": "46.585535",
    "longitude": "34.562095",
    "humidity": 74.06,
    "PM10": 12.64,
    "PM2n5": 16.89,
    "Pressure": 992,
    "Temperature": 6,
    "AirQualityIndex": 73.28,
    "localId": 153
  },
  {
    "id": "SAVEDNIPRO_1597",
    "cityName": "Fastiv",
    "stationName": "Street Trudova, 32",
    "localName": "",
    "latitude": "50.062178",
    "longitude": "29.918784",
    "humidity": 61.79,
    "PM10": 75.07,
    "PM2n5": 14.48,
    "Pressure": 1008,
    "Temperature": 10,
    "AirQualityIndex": 92.37,
    "localId": 154
  },
  {
    "id": "SAVEDNIPRO_1601",
    "cityName": "Bilhorod-Dnistrovskyi",
    "stationName": "Street Peremohy, 25",
    "localName": "",
    "latitude": "46.181611",
    "longitude": "30.362611",
    "humidity": 25.45,
    "PM10": 51.65,
    "PM2n5": 12.85,
    "Pressure": 1016,
    "Temperature": 8,
    "AirQualityIndex": 170.86,
    "localId": 155
  },
  {
    "id": "SAVEDNIPRO_1602",
    "cityName": "Zatoka",
    "stationName": "Street Prymorska, 20",
    "localName": "",
    "latitude": "46.067602",
    "longitude": "30.457430",
    "humidity": 41.83,
    "PM10": 15.33,
    "PM2n5": 10.55,
    "Pressure": 995,
    "Temperature": 5,
    "AirQualityIndex": 184.16,
    "localId": 156
  },
  {
    "id": "SAVEDNIPRO_1603",
    "cityName": "Verkhovyna",
    "stationName": "Street Ivana Franka, 3",
    "localName": "",
    "latitude": "48.155409",
    "longitude": "24.829758",
    "humidity": 46.7,
    "PM10": 72.06,
    "PM2n5": 6.05,
    "Pressure": 1003,
    "Temperature": 10,
    "AirQualityIndex": 120.5,
    "localId": 157
  },
  {
    "id": "SAVEDNIPRO_1604",
    "cityName": "Vorokhta",
    "stationName": "Street Danyla Halytsoho, 41",
    "localName": "",
    "latitude": "48.292875",
    "longitude": "24.563048",
    "humidity": 73.86,
    "PM10": 41.8,
    "PM2n5": 9.63,
    "Pressure": 1010,
    "Temperature": 9,
    "AirQualityIndex": 170.25,
    "localId": 158
  },
  {
    "id": "SAVEDNIPRO_1605",
    "cityName": "Yasinia",
    "stationName": "Street Myru, 6",
    "localName": "",
    "latitude": "48.271480",
    "longitude": "24.360622",
    "humidity": 44.96,
    "PM10": 2.95,
    "PM2n5": 7.09,
    "Pressure": 988,
    "Temperature": 6,
    "AirQualityIndex": 85.88,
    "localId": 159
  },
  {
    "id": "SAVEDNIPRO_1606",
    "cityName": "Kosiv",
    "stationName": "maidan Nezalezhnosti, 11",
    "localName": "",
    "latitude": "48.320237",
    "longitude": "25.091142",
    "humidity": 45.42,
    "PM10": 41.31,
    "PM2n5": 5.96,
    "Pressure": 1007,
    "Temperature": 8,
    "AirQualityIndex": 66.06,
    "localId": 160
  },
  {
    "id": "SAVEDNIPRO_1607",
    "cityName": "Yaremche",
    "stationName": "Street Svobody, 265",
    "localName": "",
    "latitude": "48.448912",
    "longitude": "24.553462",
    "humidity": 46.79,
    "PM10": 19.92,
    "PM2n5": 2.86,
    "Pressure": 1005,
    "Temperature": 7,
    "AirQualityIndex": 31.11,
    "localId": 161
  },
  {
    "id": "SAVEDNIPRO_1637",
    "cityName": "Maniava",
    "stationName": "Street Nezalezhnosti, 20",
    "localName": "",
    "latitude": "48.653396",
    "longitude": "24.374891",
    "humidity": 43.87,
    "PM10": 63.24,
    "PM2n5": 5.67,
    "Pressure": 998,
    "Temperature": 11,
    "AirQualityIndex": 30.91,
    "localId": 162
  },
  {
    "id": "SAVEDNIPRO_1638",
    "cityName": "Cherkasy",
    "stationName": "provulok Krainii, 24",
    "localName": "",
    "latitude": "49.4058272",
    "longitude": "32.0392034",
    "humidity": 57.84,
    "PM10": 63.04,
    "PM2n5": 5.78,
    "Pressure": 980,
    "Temperature": 9,
    "AirQualityIndex": 130.03,
    "localId": 163
  },
  {
    "id": "SAVEDNIPRO_1639",
    "cityName": "Tomashpil",
    "stationName": "ploshcha Tarasa Shevchenka, 1",
    "localName": "",
    "latitude": "48.536566",
    "longitude": "28.513644",
    "humidity": 42.14,
    "PM10": 39.72,
    "PM2n5": 3.84,
    "Pressure": 1013,
    "Temperature": 9,
    "AirQualityIndex": 119.34,
    "localId": 164
  },
  {
    "id": "SAVEDNIPRO_1645",
    "cityName": "Bilshivtsi",
    "stationName": "Street Striletska, 5",
    "localName": "",
    "latitude": "49.182508",
    "longitude": "24.743334",
    "humidity": 46.43,
    "PM10": 68.06,
    "PM2n5": 10.23,
    "Pressure": 1005,
    "Temperature": 8,
    "AirQualityIndex": 172.97,
    "localId": 165
  },
  {
    "id": "SAVEDNIPRO_1646",
    "cityName": "Zaozerne",
    "stationName": "Street Shkilna, 59",
    "localName": "",
    "latitude": "48.690250",
    "longitude": "29.155364",
    "humidity": 45.86,
    "PM10": 19.72,
    "PM2n5": 10.95,
    "Pressure": 1004,
    "Temperature": 8,
    "AirQualityIndex": 178.5,
    "localId": 166
  },
  {
    "id": "SAVEDNIPRO_2738",
    "cityName": "Zaporizhzhia",
    "stationName": "Street Sviatoho Mykolaia 67",
    "localName": "",
    "latitude": "47.8159538",
    "longitude": "35.1734128",
    "humidity": 66.79,
    "PM10": 65.88,
    "PM2n5": 19.98,
    "Pressure": 1000,
    "Temperature": 10,
    "AirQualityIndex": 12.98,
    "localId": 167
  },
  {
    "id": "SAVEDNIPRO_2923",
    "cityName": "Petropavlivska Borshchahivka",
    "stationName": "Street Lvivska, 1A, k.4-2",
    "localName": "",
    "latitude": "50.433252",
    "longitude": "30.319928",
    "humidity": 72.66,
    "PM10": 68.37,
    "PM2n5": 17.99,
    "Pressure": 1005,
    "Temperature": 7,
    "AirQualityIndex": 108.84,
    "localId": 168
  },
  {
    "id": "SAVEDNIPRO_2924",
    "cityName": "Kyiv",
    "stationName": "Street Heroiv Oborony, 13",
    "localName": "",
    "latitude": "50.383883",
    "longitude": "30.496689",
    "humidity": 34.68,
    "PM10": 44.43,
    "PM2n5": 10.87,
    "Pressure": 1006,
    "Temperature": 10,
    "AirQualityIndex": 77.56,
    "localId": 169
  },
  {
    "id": "SAVEDNIPRO_2925",
    "cityName": "Kyiv",
    "stationName": "Street Tykhoritska, 30/7",
    "localName": "",
    "latitude": "50.4003378",
    "longitude": "30.4966682",
    "humidity": 52.11,
    "PM10": 53.52,
    "PM2n5": 14.33,
    "Pressure": 1010,
    "Temperature": 5,
    "AirQualityIndex": 98.91,
    "localId": 170
  },
  {
    "id": "SAVEDNIPRO_2944",
    "cityName": "Nadvirna",
    "stationName": "Street Soborna, 120",
    "localName": "",
    "latitude": "48.613466",
    "longitude": "24.575289",
    "humidity": 66.99,
    "PM10": 44.62,
    "PM2n5": 1.09,
    "Pressure": 996,
    "Temperature": 8,
    "AirQualityIndex": 85.86,
    "localId": 171
  },
  {
    "id": "SAVEDNIPRO_2946",
    "cityName": "Verkhovyna",
    "stationName": "Street Kryvets",
    "localName": "",
    "latitude": "48.147531",
    "longitude": "24.785409",
    "humidity": 43.53,
    "PM10": 26.06,
    "PM2n5": 9.86,
    "Pressure": 990,
    "Temperature": 6,
    "AirQualityIndex": 124.35,
    "localId": 172
  },
  {
    "id": "SAVEDNIPRO_2947",
    "cityName": "Kyiv",
    "stationName": "Street Desiatynna, 13",
    "localName": "",
    "latitude": "50.382794",
    "longitude": "30.457889",
    "humidity": 68.48,
    "PM10": 13.13,
    "PM2n5": 14.1,
    "Pressure": 1011,
    "Temperature": 5,
    "AirQualityIndex": 26.77,
    "localId": 173
  },
  {
    "id": "SAVEDNIPRO_2948",
    "cityName": "Dachne",
    "stationName": "provulok Aptechnyi, 5",
    "localName": "",
    "latitude": "46.582371",
    "longitude": "30.550164",
    "humidity": 37.73,
    "PM10": 68.69,
    "PM2n5": 8.31,
    "Pressure": 993,
    "Temperature": 7,
    "AirQualityIndex": 181.22,
    "localId": 174
  },
  {
    "id": "SAVEDNIPRO_2971",
    "cityName": "Nadvirna",
    "stationName": "Street Danyla Halytskoho",
    "localName": "",
    "latitude": "48.637791",
    "longitude": "24.589826",
    "humidity": 55.14,
    "PM10": 75.79,
    "PM2n5": 14.39,
    "Pressure": 992,
    "Temperature": 11,
    "AirQualityIndex": 159.53,
    "localId": 175
  },
  {
    "id": "SAVEDNIPRO_2972",
    "cityName": "Tatariv",
    "stationName": "urochyshche Pihy, 660",
    "localName": "",
    "latitude": "48.334527",
    "longitude": "24.581930",
    "humidity": 40.9,
    "PM10": 78.81,
    "PM2n5": 15.11,
    "Pressure": 980,
    "Temperature": 5,
    "AirQualityIndex": 62.7,
    "localId": 176
  },
  {
    "id": "SAVEDNIPRO_2973",
    "cityName": "Kyiv",
    "stationName": "2-y Tupykovyi provulok, 18",
    "localName": "",
    "latitude": "50.3683248",
    "longitude": "30.6842978",
    "humidity": 54.15,
    "PM10": 43.83,
    "PM2n5": 15.49,
    "Pressure": 1020,
    "Temperature": 8,
    "AirQualityIndex": 95.31,
    "localId": 177
  },
  {
    "id": "SAVEDNIPRO_2974",
    "cityName": "Dnipro",
    "stationName": "prospekt Bohdana Khmelnytskoho, 156",
    "localName": "",
    "latitude": "48.389709",
    "longitude": "34.999168",
    "humidity": 45.05,
    "PM10": 15.24,
    "PM2n5": 6.62,
    "Pressure": 1001,
    "Temperature": 8,
    "AirQualityIndex": 165.36,
    "localId": 178
  },
  {
    "id": "SAVEDNIPRO_3014",
    "cityName": "Brovary",
    "stationName": "Street Haidamatska, 33",
    "localName": "",
    "latitude": "50.496656",
    "longitude": "30.744022",
    "humidity": 47.96,
    "PM10": 11.87,
    "PM2n5": 4.76,
    "Pressure": 992,
    "Temperature": 5,
    "AirQualityIndex": 140.47,
    "localId": 179
  },
  {
    "id": "SAVEDNIPRO_3015",
    "cityName": "Peremoha",
    "stationName": "Street Korolova, 10",
    "localName": "",
    "latitude": "50.542000",
    "longitude": "30.825502",
    "humidity": 50.65,
    "PM10": 7.01,
    "PM2n5": 1.34,
    "Pressure": 982,
    "Temperature": 6,
    "AirQualityIndex": 78.27,
    "localId": 180
  },
  {
    "id": "SAVEDNIPRO_3016",
    "cityName": "Kyiv",
    "stationName": "Street Budindustrii, 4",
    "localName": "",
    "latitude": "50.402528",
    "longitude": "30.568056",
    "humidity": 38.28,
    "PM10": 1.11,
    "PM2n5": 15.92,
    "Pressure": 987,
    "Temperature": 7,
    "AirQualityIndex": 101.27,
    "localId": 181
  },
  {
    "id": "SAVEDNIPRO_3017",
    "cityName": "Illinivka",
    "stationName": "Street Krynychna, 32",
    "localName": "",
    "latitude": "48.491370",
    "longitude": "37.673650",
    "humidity": 39.84,
    "PM10": 61.06,
    "PM2n5": 14.42,
    "Pressure": 1008,
    "Temperature": 8,
    "AirQualityIndex": 124.61,
    "localId": 182
  },
  {
    "id": "SAVEDNIPRO_3018",
    "cityName": "Kyiv",
    "stationName": "Street Zhylianska, 30A",
    "localName": "",
    "latitude": "50.434808",
    "longitude": "30.510823",
    "humidity": 74.73,
    "PM10": 69.65,
    "PM2n5": 15.01,
    "Pressure": 1002,
    "Temperature": 6,
    "AirQualityIndex": 13.5,
    "localId": 183
  },
  {
    "id": "SAVEDNIPRO_3021",
    "cityName": "Mykolaiv",
    "stationName": "Street Metalurhiv 8",
    "localName": "",
    "latitude": "46.868088",
    "longitude": "32.009947",
    "humidity": 36.31,
    "PM10": 46.24,
    "PM2n5": 14.72,
    "Pressure": 1014,
    "Temperature": 10,
    "AirQualityIndex": 22.81,
    "localId": 184
  },
  {
    "id": "SAVEDNIPRO_3022",
    "cityName": "Dnipro",
    "stationName": "Street Nakhimova 41",
    "localName": "",
    "latitude": "48.4464278",
    "longitude": "35.0151460",
    "humidity": 55.59,
    "PM10": 46.29,
    "PM2n5": 15,
    "Pressure": 1013,
    "Temperature": 7,
    "AirQualityIndex": 63.67,
    "localId": 185
  },
  {
    "id": "SAVEDNIPRO_3144",
    "cityName": "Svydivok",
    "stationName": "Street Sydorchuka, 37",
    "localName": "",
    "latitude": "49.512636",
    "longitude": "31.906911",
    "humidity": 32.12,
    "PM10": 42.7,
    "PM2n5": 8.21,
    "Pressure": 1020,
    "Temperature": 10,
    "AirQualityIndex": 140.72,
    "localId": 186
  },
  {
    "id": "SAVEDNIPRO_3210",
    "cityName": "Vyshneve",
    "stationName": "Street Pershotravneva, 21",
    "localName": "Luftdaten #40723",
    "latitude": "50.382",
    "longitude": "30.38",
    "humidity": 64.42,
    "PM10": 56.14,
    "PM2n5": 18.51,
    "Pressure": 984,
    "Temperature": 7,
    "AirQualityIndex": 48.25,
    "localId": 187
  },
  {
    "id": "SAVEDNIPRO_3260",
    "cityName": "Cherkasy",
    "stationName": "Street 30-richchia Peremohy, 38",
    "localName": "",
    "latitude": "49.4255539915765",
    "longitude": "32.01328954180976",
    "humidity": 63.46,
    "PM10": 61.66,
    "PM2n5": 13.5,
    "Pressure": 1014,
    "Temperature": 11,
    "AirQualityIndex": 2.13,
    "localId": 188
  },
  {
    "id": "SAVEDNIPRO_3262",
    "cityName": "Cherkasy",
    "stationName": "bulvar Shevchenko, 460",
    "localName": "",
    "latitude": "49.422005",
    "longitude": "32.096475",
    "humidity": 28.88,
    "PM10": 34.85,
    "PM2n5": 17.14,
    "Pressure": 982,
    "Temperature": 8,
    "AirQualityIndex": 158.35,
    "localId": 189
  },
  {
    "id": "SAVEDNIPRO_3263",
    "cityName": "Cherkasy",
    "stationName": "Street Baidy Vyshnevetskoho, 49",
    "localName": "",
    "latitude": "49.442538",
    "longitude": "32.056531",
    "humidity": 26.26,
    "PM10": 32.83,
    "PM2n5": 11,
    "Pressure": 1003,
    "Temperature": 7,
    "AirQualityIndex": 152.71,
    "localId": 190
  },
  {
    "id": "SAVEDNIPRO_3264",
    "cityName": "Cherkasy",
    "stationName": "Street Pakhariv Khutir, 29",
    "localName": "",
    "latitude": "49.456974",
    "longitude": "32.007218",
    "humidity": 50.65,
    "PM10": 4,
    "PM2n5": 8.7,
    "Pressure": 994,
    "Temperature": 10,
    "AirQualityIndex": 8.64,
    "localId": 191
  },
  {
    "id": "SAVEDNIPRO_3306",
    "cityName": "Kyiv",
    "stationName": "Street Lavrska, 8",
    "localName": "",
    "latitude": "50.436484",
    "longitude": "30.552905",
    "humidity": 36.99,
    "PM10": 2.84,
    "PM2n5": 10.99,
    "Pressure": 1014,
    "Temperature": 10,
    "AirQualityIndex": 168.83,
    "localId": 192
  },
  {
    "id": "SAVEDNIPRO_3398",
    "cityName": "Kyiv",
    "stationName": "Street Vasylia Tiutiunnyka, 53",
    "localName": "",
    "latitude": "50.417128",
    "longitude": "30.528690",
    "humidity": 63.92,
    "PM10": 7.82,
    "PM2n5": 1.95,
    "Pressure": 1008,
    "Temperature": 10,
    "AirQualityIndex": 139.11,
    "localId": 193
  },
  {
    "id": "SAVEDNIPRO_3401",
    "cityName": "Kyiv",
    "stationName": "Street Yelyzavety Chavdar, 6",
    "localName": "",
    "latitude": "50.3915128",
    "longitude": "30.6237862",
    "humidity": 60.63,
    "PM10": 8.73,
    "PM2n5": 19.77,
    "Pressure": 995,
    "Temperature": 8,
    "AirQualityIndex": 30.33,
    "localId": 194
  },
  {
    "id": "SAVEDNIPRO_3418",
    "cityName": "Kremenets",
    "stationName": "Street Slovatskoho",
    "localName": "",
    "latitude": "50.095595",
    "longitude": "25.722824",
    "humidity": 49.39,
    "PM10": 20.88,
    "PM2n5": 15.85,
    "Pressure": 985,
    "Temperature": 11,
    "AirQualityIndex": 181.55,
    "localId": 195
  },
  {
    "id": "SAVEDNIPRO_3419",
    "cityName": "Petropavlivska Borshchahivka",
    "stationName": "Street Dnipropetrovska",
    "localName": "",
    "latitude": "50.4218146",
    "longitude": "30.3273005",
    "humidity": 61.15,
    "PM10": 38.92,
    "PM2n5": 10.24,
    "Pressure": 990,
    "Temperature": 6,
    "AirQualityIndex": 98.42,
    "localId": 196
  },
  {
    "id": "SAVEDNIPRO_3420",
    "cityName": "Lviv",
    "stationName": "Street Zelena, 27",
    "localName": "",
    "latitude": "49.833325",
    "longitude": "24.039184",
    "humidity": 62.2,
    "PM10": 67.5,
    "PM2n5": 11.88,
    "Pressure": 1005,
    "Temperature": 8,
    "AirQualityIndex": 28.3,
    "localId": 197
  },
  {
    "id": "SAVEDNIPRO_3422",
    "cityName": "Kyiv",
    "stationName": "bulvar Perova, 10A",
    "localName": "",
    "latitude": "50.471205",
    "longitude": "30.598600",
    "humidity": 36.2,
    "PM10": 42.18,
    "PM2n5": 4.49,
    "Pressure": 1001,
    "Temperature": 7,
    "AirQualityIndex": 193.73,
    "localId": 198
  },
  {
    "id": "SAVEDNIPRO_3423",
    "cityName": "Kozyn",
    "stationName": "Street Zarichna, 4",
    "localName": "",
    "latitude": "50.234897",
    "longitude": "30.663275",
    "humidity": 36.18,
    "PM10": 36.84,
    "PM2n5": 2.32,
    "Pressure": 991,
    "Temperature": 11,
    "AirQualityIndex": 21.91,
    "localId": 199
  },
  {
    "id": "SAVEDNIPRO_3424",
    "cityName": "Vyshenky",
    "stationName": "Street Velyka Naberezhna",
    "localName": "",
    "latitude": "50.2850885",
    "longitude": "30.6995002",
    "humidity": 67.09,
    "PM10": 2.36,
    "PM2n5": 18.53,
    "Pressure": 1007,
    "Temperature": 9,
    "AirQualityIndex": 72.71,
    "localId": 200
  },
  {
    "id": "SAVEDNIPRO_3535",
    "cityName": "Kyiv",
    "stationName": "Street Sovska, 23",
    "localName": "",
    "latitude": "50.397128",
    "longitude": "30.455709",
    "humidity": 61.6,
    "PM10": 27.28,
    "PM2n5": 14.1,
    "Pressure": 1012,
    "Temperature": 8,
    "AirQualityIndex": 55.78,
    "localId": 201
  },
  {
    "id": "SAVEDNIPRO_3572",
    "cityName": "Kyiv",
    "stationName": "Street Mykhaila Drahomanova, 17",
    "localName": "",
    "latitude": "50.409345",
    "longitude": "30.639613",
    "humidity": 55.69,
    "PM10": 55.49,
    "PM2n5": 13.71,
    "Pressure": 1004,
    "Temperature": 7,
    "AirQualityIndex": 123.59,
    "localId": 202
  },
  {
    "id": "SAVEDNIPRO_3594",
    "cityName": "Baranivka",
    "stationName": "Street Ivana Franka, 1A",
    "localName": "",
    "latitude": "50.287114",
    "longitude": "27.648709",
    "humidity": 37.83,
    "PM10": 4.8,
    "PM2n5": 3.2,
    "Pressure": 1012,
    "Temperature": 11,
    "AirQualityIndex": 150.61,
    "localId": 203
  },
  {
    "id": "SAVEDNIPRO_3595",
    "cityName": "Dnipro",
    "stationName": "Street Vysokovoltna, 14m",
    "localName": "",
    "latitude": "48.423869",
    "longitude": "35.031133",
    "humidity": 39.41,
    "PM10": 60.35,
    "PM2n5": 18.89,
    "Pressure": 1012,
    "Temperature": 8,
    "AirQualityIndex": 132.63,
    "localId": 204
  },
  {
    "id": "SAVEDNIPRO_3596",
    "cityName": "Horishni Plavni",
    "stationName": "Street Horkoho, 195",
    "localName": "",
    "latitude": "49.034799",
    "longitude": "33.564750",
    "humidity": 26.49,
    "PM10": 35.75,
    "PM2n5": 11.57,
    "Pressure": 1018,
    "Temperature": 10,
    "AirQualityIndex": 138.52,
    "localId": 205
  },
  {
    "id": "SAVEDNIPRO_3597",
    "cityName": "Khotiv",
    "stationName": "Street Lisova, 34",
    "localName": "",
    "latitude": "50.3328803",
    "longitude": "30.4440768",
    "humidity": 39.52,
    "PM10": 52.83,
    "PM2n5": 16.7,
    "Pressure": 987,
    "Temperature": 8,
    "AirQualityIndex": 89.9,
    "localId": 206
  },
  {
    "id": "SAVEDNIPRO_3605",
    "cityName": "Dnipro",
    "stationName": "Street Molodohvardiiska, 18",
    "localName": "",
    "latitude": "48.476547",
    "longitude": "35.117154",
    "humidity": 49.44,
    "PM10": 27.71,
    "PM2n5": 2.75,
    "Pressure": 998,
    "Temperature": 11,
    "AirQualityIndex": 58.2,
    "localId": 207
  },
  {
    "id": "SAVEDNIPRO_3608",
    "cityName": "Dnipro",
    "stationName": "Street 20-richchia Peremohy, 43",
    "localName": "",
    "latitude": "48.416020",
    "longitude": "35.132420",
    "humidity": 67.57,
    "PM10": 20.88,
    "PM2n5": 19.93,
    "Pressure": 1000,
    "Temperature": 10,
    "AirQualityIndex": 153.09,
    "localId": 208
  },
  {
    "id": "SAVEDNIPRO_3616",
    "cityName": "Dnipro",
    "stationName": "Street Topolyna, 35",
    "localName": "",
    "latitude": "48.391809",
    "longitude": "35.021741",
    "humidity": 27.29,
    "PM10": 18.7,
    "PM2n5": 5.2,
    "Pressure": 981,
    "Temperature": 6,
    "AirQualityIndex": 141.79,
    "localId": 209
  },
  {
    "id": "SAVEDNIPRO_3617",
    "cityName": "Dnipro",
    "stationName": "Street Chernyshevskoho, 24A",
    "localName": "",
    "latitude": "48.453418",
    "longitude": "35.053162",
    "humidity": 36.88,
    "PM10": 3.3,
    "PM2n5": 9.01,
    "Pressure": 1017,
    "Temperature": 6,
    "AirQualityIndex": 6.37,
    "localId": 210
  },
  {
    "id": "SAVEDNIPRO_3683",
    "cityName": "Krekhaiv",
    "stationName": "Sadove tovarystvo Khimik",
    "localName": "",
    "latitude": "50.783955",
    "longitude": "30.769977",
    "humidity": 62.12,
    "PM10": 60.42,
    "PM2n5": 18.58,
    "Pressure": 1003,
    "Temperature": 5,
    "AirQualityIndex": 11.45,
    "localId": 211
  },
  {
    "id": "SAVEDNIPRO_4061",
    "cityName": "Dnipro",
    "stationName": "Donetske shose, 1",
    "localName": "",
    "latitude": "48.5104497",
    "longitude": "34.9874743",
    "humidity": 46.55,
    "PM10": 59.15,
    "PM2n5": 17.16,
    "Pressure": 1019,
    "Temperature": 9,
    "AirQualityIndex": 174.54,
    "localId": 212
  },
  {
    "id": "SAVEDNIPRO_4185",
    "cityName": "Rozhivka",
    "stationName": "Street Slavy, 17",
    "localName": "",
    "latitude": "50.600621",
    "longitude": "30.761064",
    "humidity": 71.44,
    "PM10": 70.38,
    "PM2n5": 10.97,
    "Pressure": 1014,
    "Temperature": 11,
    "AirQualityIndex": 182.57,
    "localId": 213
  },
  {
    "id": "SAVEDNIPRO_4186",
    "cityName": "Ukrainka",
    "stationName": "Street Sosnova",
    "localName": "",
    "latitude": "50.155032",
    "longitude": "30.746305",
    "humidity": 37.03,
    "PM10": 73.4,
    "PM2n5": 3.61,
    "Pressure": 996,
    "Temperature": 7,
    "AirQualityIndex": 12.31,
    "localId": 214
  },
  {
    "id": "SAVEDNIPRO_4187",
    "cityName": "Brovary",
    "stationName": "Street Oleksiia Bolshechenka, 7",
    "localName": "",
    "latitude": "50.519816",
    "longitude": "30.774017",
    "humidity": 27.04,
    "PM10": 23.44,
    "PM2n5": 2.32,
    "Pressure": 982,
    "Temperature": 11,
    "AirQualityIndex": 61.76,
    "localId": 215
  },
  {
    "id": "SAVEDNIPRO_4189",
    "cityName": "Kharkiv",
    "stationName": "prospekt Nauky, 43",
    "localName": "",
    "latitude": "50.033602",
    "longitude": "36.220648",
    "humidity": 61.23,
    "PM10": 79.8,
    "PM2n5": 10.28,
    "Pressure": 982,
    "Temperature": 6,
    "AirQualityIndex": 123.34,
    "localId": 216
  },
  {
    "id": "SAVEDNIPRO_4190",
    "cityName": "Vita-Poshtova",
    "stationName": "Street Ozerna",
    "localName": "",
    "latitude": "50.307679",
    "longitude": "30.363271",
    "humidity": 67.36,
    "PM10": 51.13,
    "PM2n5": 8.65,
    "Pressure": 1019,
    "Temperature": 6,
    "AirQualityIndex": 99.19,
    "localId": 217
  },
  {
    "id": "SAVEDNIPRO_4200",
    "cityName": "Dnipro",
    "stationName": "Street Hidroparkova, 9",
    "localName": "",
    "latitude": "48.478241",
    "longitude": "34.903792",
    "humidity": 59.91,
    "PM10": 77.24,
    "PM2n5": 14.16,
    "Pressure": 1004,
    "Temperature": 7,
    "AirQualityIndex": 125.8,
    "localId": 218
  },
  {
    "id": "SAVEDNIPRO_4201",
    "cityName": "Kyiv",
    "stationName": "Street Pavla Pototskoho",
    "localName": "",
    "latitude": "50.3963897",
    "longitude": "30.4485849",
    "humidity": 40.49,
    "PM10": 74.28,
    "PM2n5": 4.56,
    "Pressure": 984,
    "Temperature": 8,
    "AirQualityIndex": 104.22,
    "localId": 219
  },
  {
    "id": "SAVEDNIPRO_4202",
    "cityName": "Nova Kakhovka",
    "stationName": "Street Paryzkoi komuny",
    "localName": "",
    "latitude": "46.757534",
    "longitude": "33.369862",
    "humidity": 63.86,
    "PM10": 43.28,
    "PM2n5": 2.26,
    "Pressure": 993,
    "Temperature": 8,
    "AirQualityIndex": 90.45,
    "localId": 220
  },
  {
    "id": "SAVEDNIPRO_4208",
    "cityName": "Dnipro",
    "stationName": "Street Berdianska, 1",
    "localName": "",
    "latitude": "48.487060",
    "longitude": "35.066893",
    "humidity": 64.57,
    "PM10": 30.41,
    "PM2n5": 1.73,
    "Pressure": 1009,
    "Temperature": 8,
    "AirQualityIndex": 17.26,
    "localId": 221
  },
  {
    "id": "SAVEDNIPRO_4210",
    "cityName": "Dnipro",
    "stationName": "prospekt Bohdana Khmelnytskoho, 229",
    "localName": "",
    "latitude": "48.373500",
    "longitude": "34.995097",
    "humidity": 31.41,
    "PM10": 9.13,
    "PM2n5": 15.87,
    "Pressure": 993,
    "Temperature": 7,
    "AirQualityIndex": 122.07,
    "localId": 222
  },
  {
    "id": "SAVEDNIPRO_4232",
    "cityName": "Kyiv",
    "stationName": "Street Desiatynna, 13",
    "localName": "",
    "latitude": "50.457508",
    "longitude": "30.519401",
    "humidity": 42.02,
    "PM10": 62.83,
    "PM2n5": 3.65,
    "Pressure": 997,
    "Temperature": 11,
    "AirQualityIndex": 16.17,
    "localId": 223
  },
  {
    "id": "SAVEDNIPRO_13405",
    "cityName": "Roslavychi",
    "stationName": "KH Berezovaia roshcha",
    "localName": "",
    "latitude": "50.266944",
    "longitude": "30.443000",
    "humidity": 25.41,
    "PM10": 63.14,
    "PM2n5": 1.17,
    "Pressure": 1012,
    "Temperature": 9,
    "AirQualityIndex": 172.19,
    "localId": 224
  },
  {
    "id": "SAVEDNIPRO_13406",
    "cityName": "Hatne",
    "stationName": "vulytsa Barvinkova, 11a",
    "localName": "",
    "latitude": "50.371506",
    "longitude": "30.422791",
    "humidity": 25.1,
    "PM10": 40.24,
    "PM2n5": 5.24,
    "Pressure": 1008,
    "Temperature": 11,
    "AirQualityIndex": 84.74,
    "localId": 225
  },
  {
    "id": "SAVEDNIPRO_13407",
    "cityName": "Kyiv",
    "stationName": "bulvar Darnytskyi, 10",
    "localName": "",
    "latitude": "50.464790",
    "longitude": "30.611383",
    "humidity": 59.26,
    "PM10": 5.01,
    "PM2n5": 8.25,
    "Pressure": 986,
    "Temperature": 5,
    "AirQualityIndex": 136.01,
    "localId": 226
  },
  {
    "id": "SAVEDNIPRO_13409",
    "cityName": "Severynivka",
    "stationName": "Street Pavla Skoropadskoho",
    "localName": "",
    "latitude": "50.395791",
    "longitude": "29.978961",
    "humidity": 36.94,
    "PM10": 75.07,
    "PM2n5": 8.16,
    "Pressure": 1019,
    "Temperature": 11,
    "AirQualityIndex": 181.26,
    "localId": 227
  },
  {
    "id": "SAVEDNIPRO_13411",
    "cityName": "Kozyn",
    "stationName": "Street Starokyivska",
    "localName": "",
    "latitude": "50.257856",
    "longitude": "30.653474",
    "humidity": 73.04,
    "PM10": 41.84,
    "PM2n5": 15.04,
    "Pressure": 1010,
    "Temperature": 5,
    "AirQualityIndex": 6.74,
    "localId": 228
  },
  {
    "id": "SAVEDNIPRO_13413",
    "cityName": "Kyiv",
    "stationName": "Street Hertsena, 35",
    "localName": "",
    "latitude": "50.472750",
    "longitude": "30.463750",
    "humidity": 34.28,
    "PM10": 79.16,
    "PM2n5": 1.93,
    "Pressure": 1006,
    "Temperature": 8,
    "AirQualityIndex": 32.86,
    "localId": 229
  },
  {
    "id": "SAVEDNIPRO_13414",
    "cityName": "Bohuslav",
    "stationName": "Street Ivana Franka, 22/1",
    "localName": "",
    "latitude": "49.537806",
    "longitude": "30.864059",
    "humidity": 39.29,
    "PM10": 22.59,
    "PM2n5": 15.75,
    "Pressure": 989,
    "Temperature": 8,
    "AirQualityIndex": 63.38,
    "localId": 230
  },
  {
    "id": "SAVEDNIPRO_13419",
    "cityName": "Shevchenkove",
    "stationName": "provulok Yuvileinyi, 7",
    "localName": "",
    "latitude": "50.416389",
    "longitude": "30.241333",
    "humidity": 30,
    "PM10": 4.23,
    "PM2n5": 11.7,
    "Pressure": 1014,
    "Temperature": 8,
    "AirQualityIndex": 36.84,
    "localId": 231
  },
  {
    "id": "SAVEDNIPRO_13533",
    "cityName": "Vyshenky",
    "stationName": "Zoloche-Provans, 2",
    "localName": "",
    "latitude": "50.298605",
    "longitude": "30.703356",
    "humidity": 60.17,
    "PM10": 19.07,
    "PM2n5": 15.22,
    "Pressure": 1005,
    "Temperature": 11,
    "AirQualityIndex": 151.94,
    "localId": 232
  },
  {
    "id": "SAVEDNIPRO_13536",
    "cityName": "Lviv",
    "stationName": "Street Sumska, 10",
    "localName": "",
    "latitude": "49.812327",
    "longitude": "24.036764",
    "humidity": 52.2,
    "PM10": 56.93,
    "PM2n5": 3.4,
    "Pressure": 991,
    "Temperature": 5,
    "AirQualityIndex": 147.12,
    "localId": 233
  },
  {
    "id": "SAVEDNIPRO_13537",
    "cityName": "Kyiv",
    "stationName": "prospekt Beresteiskyi, 67",
    "localName": "",
    "latitude": "50.458610",
    "longitude": "30.410043",
    "humidity": 50.01,
    "PM10": 46.08,
    "PM2n5": 10.52,
    "Pressure": 998,
    "Temperature": 7,
    "AirQualityIndex": 158.43,
    "localId": 234
  },
  {
    "id": "SAVEDNIPRO_13538",
    "cityName": "Dnipro",
    "stationName": "Street Zooparkova",
    "localName": "",
    "latitude": "48.473475",
    "longitude": "35.195720",
    "humidity": 60.13,
    "PM10": 45.34,
    "PM2n5": 1.74,
    "Pressure": 1015,
    "Temperature": 8,
    "AirQualityIndex": 94.15,
    "localId": 235
  },
  {
    "id": "SAVEDNIPRO_13539",
    "cityName": "Zhovkva",
    "stationName": "Street Kyivska",
    "localName": "",
    "latitude": "50.054100",
    "longitude": "23.956800",
    "humidity": 60.93,
    "PM10": 19.13,
    "PM2n5": 9.58,
    "Pressure": 1012,
    "Temperature": 6,
    "AirQualityIndex": 57.01,
    "localId": 236
  },
  {
    "id": "SAVEDNIPRO_13540",
    "cityName": "Kyiv",
    "stationName": "Street Levitana, 3",
    "localName": "",
    "latitude": "50.375516",
    "longitude": "30.541971",
    "humidity": 38.91,
    "PM10": 8.34,
    "PM2n5": 17.78,
    "Pressure": 981,
    "Temperature": 7,
    "AirQualityIndex": 170.94,
    "localId": 237
  },
  {
    "id": "SAVEDNIPRO_13710",
    "cityName": "Vyshenky",
    "stationName": "Zoloche-Provans, 1",
    "localName": "",
    "latitude": "50.299113",
    "longitude": "30.703047",
    "humidity": 40.59,
    "PM10": 77.27,
    "PM2n5": 4.09,
    "Pressure": 980,
    "Temperature": 7,
    "AirQualityIndex": 168.1,
    "localId": 238
  },
  {
    "id": "SAVEDNIPRO_13711",
    "cityName": "Petrushky",
    "stationName": "Sadivnytske Tovarystvo \"Yuryst\"",
    "localName": "",
    "latitude": "50.4073682",
    "longitude": "30.1595883",
    "humidity": 34.91,
    "PM10": 41.86,
    "PM2n5": 16.5,
    "Pressure": 1000,
    "Temperature": 5,
    "AirQualityIndex": 168.02,
    "localId": 239
  },
  {
    "id": "SAVEDNIPRO_13715",
    "cityName": "Zvenyhorodka",
    "stationName": "Street Viacheslava Chornovola, 40",
    "localName": "",
    "latitude": "49.0768671",
    "longitude": "30.9639523",
    "humidity": 42.9,
    "PM10": 18.08,
    "PM2n5": 19.6,
    "Pressure": 980,
    "Temperature": 5,
    "AirQualityIndex": 105.19,
    "localId": 240
  },
  {
    "id": "SAVEDNIPRO_13965",
    "cityName": "Kyiv",
    "stationName": "prospekt Akademika Hlushkova, 1P30",
    "localName": "",
    "latitude": "50.3774076",
    "longitude": "30.4815071",
    "humidity": 57.26,
    "PM10": 27.79,
    "PM2n5": 11.16,
    "Pressure": 1018,
    "Temperature": 11,
    "AirQualityIndex": 132.83,
    "localId": 241
  },
  {
    "id": "SAVEDNIPRO_14712",
    "cityName": "Mykolaivka",
    "stationName": "Street Henerala Pushkina, 45",
    "localName": "",
    "latitude": "48.362656",
    "longitude": "34.703311",
    "humidity": 62.43,
    "PM10": 62.39,
    "PM2n5": 19.58,
    "Pressure": 996,
    "Temperature": 5,
    "AirQualityIndex": 190.07,
    "localId": 242
  },
  {
    "id": "SAVEDNIPRO_14713",
    "cityName": "Cherkasy",
    "stationName": "provulok Sichovyi, 17",
    "localName": "",
    "latitude": "49.428755",
    "longitude": "32.066555",
    "humidity": 37.31,
    "PM10": 34.37,
    "PM2n5": 11.86,
    "Pressure": 996,
    "Temperature": 10,
    "AirQualityIndex": 194.81,
    "localId": 243
  },
  {
    "id": "SAVEDNIPRO_14714",
    "cityName": "Dnipro",
    "stationName": "Street Naberezhna Zavodska, 44",
    "localName": "",
    "latitude": "48.490444",
    "longitude": "34.985071",
    "humidity": 54.68,
    "PM10": 77.46,
    "PM2n5": 4.03,
    "Pressure": 983,
    "Temperature": 5,
    "AirQualityIndex": 132.27,
    "localId": 244
  },
  {
    "id": "SAVEDNIPRO_14758",
    "cityName": "Zaporizhzhia",
    "stationName": "Street Nezalezhnoi Ukrainy, 68A",
    "localName": "",
    "latitude": "47.847054111908996",
    "longitude": "35.12933723683439",
    "humidity": 34.47,
    "PM10": 34.38,
    "PM2n5": 13.68,
    "Pressure": 988,
    "Temperature": 8,
    "AirQualityIndex": 53.78,
    "localId": 245
  },
  {
    "id": "SAVEDNIPRO_15702",
    "cityName": "Kluziv",
    "stationName": "Street Spilna",
    "localName": "",
    "latitude": "48.954444",
    "longitude": "24.715858",
    "humidity": 73.51,
    "PM10": 20.42,
    "PM2n5": 12.49,
    "Pressure": 1009,
    "Temperature": 6,
    "AirQualityIndex": 8.72,
    "localId": 246
  },
  {
    "id": "SAVEDNIPRO_15703",
    "cityName": "Kruhlyk",
    "stationName": "Street Teremkivska, 10",
    "localName": "",
    "latitude": "50.306289",
    "longitude": "30.420185",
    "humidity": 59.77,
    "PM10": 28.42,
    "PM2n5": 11.95,
    "Pressure": 1002,
    "Temperature": 10,
    "AirQualityIndex": 110.42,
    "localId": 247
  },
  {
    "id": "SAVEDNIPRO_15705",
    "cityName": "Kharkiv",
    "stationName": "Street Valentynivska, 24A",
    "localName": "",
    "latitude": "50.012753",
    "longitude": "36.334998",
    "humidity": 39.91,
    "PM10": 6.5,
    "PM2n5": 5.94,
    "Pressure": 999,
    "Temperature": 9,
    "AirQualityIndex": 111.56,
    "localId": 248
  },
  {
    "id": "SAVEDNIPRO_15712",
    "cityName": "Stari Petrivtsi",
    "stationName": "vul. Dachna",
    "localName": "",
    "latitude": "50.642541",
    "longitude": "30.432218",
    "humidity": 64.64,
    "PM10": 65.47,
    "PM2n5": 2.62,
    "Pressure": 1000,
    "Temperature": 6,
    "AirQualityIndex": 13.56,
    "localId": 249
  },
  {
    "id": "SAVEDNIPRO_16860",
    "cityName": "Sievierodonetsk",
    "stationName": "75-y mykroraion",
    "localName": "",
    "latitude": "48.946746",
    "longitude": "38.524948",
    "humidity": 54.1,
    "PM10": 8.32,
    "PM2n5": 13.21,
    "Pressure": 1017,
    "Temperature": 10,
    "AirQualityIndex": 97.24,
    "localId": 250
  },
  {
    "id": "SAVEDNIPRO_16862",
    "cityName": "Khotiv",
    "stationName": "vul. Partyzanska, 1A",
    "localName": "",
    "latitude": "50.326409",
    "longitude": "30.470360",
    "humidity": 72.46,
    "PM10": 12.95,
    "PM2n5": 9.23,
    "Pressure": 991,
    "Temperature": 9,
    "AirQualityIndex": 93.97,
    "localId": 251
  },
  {
    "id": "SAVEDNIPRO_17448",
    "cityName": "Dnipro",
    "stationName": "Street Vykonkomivska, 24B",
    "localName": "",
    "latitude": "48.456973",
    "longitude": "35.047031",
    "humidity": 70.66,
    "PM10": 65.08,
    "PM2n5": 2.88,
    "Pressure": 1017,
    "Temperature": 7,
    "AirQualityIndex": 193.95,
    "localId": 252
  },
  {
    "id": "SAVEDNIPRO_17802",
    "cityName": "Nikopol",
    "stationName": "Street Dovhalivska",
    "localName": "",
    "latitude": "47.576907",
    "longitude": "34.459222",
    "humidity": 35.52,
    "PM10": 35.49,
    "PM2n5": 18.05,
    "Pressure": 997,
    "Temperature": 10,
    "AirQualityIndex": 158.46,
    "localId": 253
  },
  {
    "id": "SAVEDNIPRO_17817",
    "cityName": "Nizhyn",
    "stationName": "Street Syniakivska, 96",
    "localName": "",
    "latitude": "51.037223",
    "longitude": "31.876354",
    "humidity": 58.51,
    "PM10": 11.15,
    "PM2n5": 16.98,
    "Pressure": 982,
    "Temperature": 7,
    "AirQualityIndex": 85.02,
    "localId": 254
  },
  {
    "id": "SAVEDNIPRO_17865",
    "cityName": "Kolomyia",
    "stationName": "Street Hnata Kovtsuniaka, 2",
    "localName": "",
    "latitude": "48.535159",
    "longitude": "25.034321",
    "humidity": 46,
    "PM10": 2.66,
    "PM2n5": 13.83,
    "Pressure": 1002,
    "Temperature": 8,
    "AirQualityIndex": 163.81,
    "localId": 255
  },
  {
    "id": "SAVEDNIPRO_17895",
    "cityName": "Odesa",
    "stationName": "Street Akademika Korolova, 81",
    "localName": "",
    "latitude": "46.387139",
    "longitude": "30.723278",
    "humidity": 73.69,
    "PM10": 32.02,
    "PM2n5": 6.74,
    "Pressure": 1013,
    "Temperature": 11,
    "AirQualityIndex": 29.19,
    "localId": 256
  },
  {
    "id": "SAVEDNIPRO_17896",
    "cityName": "Vyshhorod",
    "stationName": "Street Sholudenka, 24",
    "localName": "",
    "latitude": "50.597002",
    "longitude": "30.465978",
    "humidity": 61.59,
    "PM10": 14.48,
    "PM2n5": 9.32,
    "Pressure": 1014,
    "Temperature": 9,
    "AirQualityIndex": 70.2,
    "localId": 257
  },
  {
    "id": "SAVEDNIPRO_18420",
    "cityName": "Berezhany",
    "stationName": "ploshcha Rynok",
    "localName": "",
    "latitude": "49.445221",
    "longitude": "24.938534",
    "humidity": 63.69,
    "PM10": 63.23,
    "PM2n5": 12.68,
    "Pressure": 1003,
    "Temperature": 9,
    "AirQualityIndex": 21.9,
    "localId": 258
  },
  {
    "id": "SAVEDNIPRO_18511",
    "cityName": "Kherson",
    "stationName": "Beryslavske shose, 12A",
    "localName": "",
    "latitude": "46.665987",
    "longitude": "32.635329",
    "humidity": 35.94,
    "PM10": 41.56,
    "PM2n5": 9.03,
    "Pressure": 999,
    "Temperature": 10,
    "AirQualityIndex": 175.13,
    "localId": 259
  },
  {
    "id": "SAVEDNIPRO_18729",
    "cityName": "Mala Oleksandrivka",
    "stationName": "Street Molodizhna, 12",
    "localName": "",
    "latitude": "47.2973894",
    "longitude": "33.2816014",
    "humidity": 66.21,
    "PM10": 36.38,
    "PM2n5": 6.24,
    "Pressure": 992,
    "Temperature": 10,
    "AirQualityIndex": 186.83,
    "localId": 260
  },
  {
    "id": "SAVEDNIPRO_18736",
    "cityName": "Mykolaivka",
    "stationName": "Sadivnytske Tovarystvo \"Mekhanik\"",
    "localName": "",
    "latitude": "50.449945",
    "longitude": "30.016305",
    "humidity": 31.57,
    "PM10": 66.55,
    "PM2n5": 10.28,
    "Pressure": 981,
    "Temperature": 8,
    "AirQualityIndex": 89.61,
    "localId": 261
  },
  {
    "id": "SAVEDNIPRO_18802",
    "cityName": "Kyiv",
    "stationName": "prospekt Beresteiskyi, 30",
    "localName": "",
    "latitude": "50.452248",
    "longitude": "30.464829",
    "humidity": 49.5,
    "PM10": 37.48,
    "PM2n5": 4.89,
    "Pressure": 992,
    "Temperature": 9,
    "AirQualityIndex": 86.03,
    "localId": 262
  },
  {
    "id": "SAVEDNIPRO_18986",
    "cityName": "Dolishnii Luzhok",
    "stationName": "Dolishnoluzhetska SZSh Drohobytskoi miskoi rady",
    "localName": "",
    "latitude": "49.455202",
    "longitude": "23.377091",
    "humidity": 56.04,
    "PM10": 42.46,
    "PM2n5": 15.92,
    "Pressure": 1000,
    "Temperature": 6,
    "AirQualityIndex": 37.08,
    "localId": 263
  },
  {
    "id": "SAVEDNIPRO_19014",
    "cityName": "Dniprorudne",
    "stationName": "Street Heroiv pratsi, 7",
    "localName": "",
    "latitude": "47.385610",
    "longitude": "35.000290",
    "humidity": 62.57,
    "PM10": 2.42,
    "PM2n5": 15.88,
    "Pressure": 1016,
    "Temperature": 8,
    "AirQualityIndex": 156.94,
    "localId": 264
  },
  {
    "id": "SAVEDNIPRO_19101",
    "cityName": "Novyi Buh",
    "stationName": "Street Shepelia",
    "localName": "",
    "latitude": "47.6801522",
    "longitude": "32.5082539",
    "humidity": 55.44,
    "PM10": 7.46,
    "PM2n5": 6.76,
    "Pressure": 986,
    "Temperature": 8,
    "AirQualityIndex": 167.64,
    "localId": 265
  },
  {
    "id": "SAVEDNIPRO_19104",
    "cityName": "Kyiv",
    "stationName": "prospekt Peremohy, 30",
    "localName": "",
    "latitude": "50.452174",
    "longitude": "30.464789",
    "humidity": 29.13,
    "PM10": 71.38,
    "PM2n5": 19.47,
    "Pressure": 980,
    "Temperature": 9,
    "AirQualityIndex": 48.28,
    "localId": 266
  },
  {
    "id": "SAVEDNIPRO_19108",
    "cityName": "Vita-Poshtova",
    "stationName": "Britannica School",
    "localName": "",
    "latitude": "50.333593",
    "longitude": "30.351063",
    "humidity": 68.8,
    "PM10": 78.92,
    "PM2n5": 14.78,
    "Pressure": 990,
    "Temperature": 5,
    "AirQualityIndex": 155.82,
    "localId": 267
  },
  {
    "id": "SAVEDNIPRO_19116",
    "cityName": "Kyiv",
    "stationName": "Street Lysychanska, 35",
    "localName": "",
    "latitude": "50.411976",
    "longitude": "30.496778",
    "humidity": 47.42,
    "PM10": 52.98,
    "PM2n5": 16.1,
    "Pressure": 1018,
    "Temperature": 11,
    "AirQualityIndex": 158.38,
    "localId": 268
  },
  {
    "id": "SAVEDNIPRO_19117",
    "cityName": "Zaporizhzhia",
    "stationName": "Street Patorzhynskoho",
    "localName": "",
    "latitude": "47.8689649",
    "longitude": "35.2297073",
    "humidity": 64.08,
    "PM10": 48,
    "PM2n5": 9.95,
    "Pressure": 998,
    "Temperature": 6,
    "AirQualityIndex": 130.61,
    "localId": 269
  },
  {
    "id": "SAVEDNIPRO_19179",
    "cityName": "Mariupol",
    "stationName": "Street Novorosiisiiska, 12",
    "localName": "",
    "latitude": "47.067450",
    "longitude": "37.485584",
    "humidity": 74.17,
    "PM10": 18.74,
    "PM2n5": 12.28,
    "Pressure": 980,
    "Temperature": 10,
    "AirQualityIndex": 1.78,
    "localId": 270
  },
  {
    "id": "SAVEDNIPRO_19246",
    "cityName": "Hrushkivtsi",
    "stationName": "Street Peremohy, 32",
    "localName": "",
    "latitude": "49.51477",
    "longitude": "28.44255",
    "humidity": 29.6,
    "PM10": 19.55,
    "PM2n5": 14.07,
    "Pressure": 1001,
    "Temperature": 5,
    "AirQualityIndex": 33.83,
    "localId": 271
  },
  {
    "id": "SAVEDNIPRO_19298",
    "cityName": "Chornobai",
    "stationName": "provulok Slynka, 4",
    "localName": "",
    "latitude": "49.666631",
    "longitude": "32.325405",
    "humidity": 33.26,
    "PM10": 66.07,
    "PM2n5": 17.17,
    "Pressure": 1012,
    "Temperature": 5,
    "AirQualityIndex": 162.64,
    "localId": 272
  },
  {
    "id": "SAVEDNIPRO_19301",
    "cityName": "Klavdiievo-Tarasove",
    "stationName": "Street Shevchenko, 99",
    "localName": "",
    "latitude": "50.583284162702796",
    "longitude": "29.991048352270333",
    "humidity": 41.6,
    "PM10": 29.36,
    "PM2n5": 16.25,
    "Pressure": 999,
    "Temperature": 9,
    "AirQualityIndex": 131.77,
    "localId": 273
  },
  {
    "id": "SAVEDNIPRO_19306",
    "cityName": "Katerynivka",
    "stationName": "Street Tsentralna, 32A",
    "localName": "",
    "latitude": "47.876249",
    "longitude": "37.344970",
    "humidity": 27.22,
    "PM10": 79.07,
    "PM2n5": 18.79,
    "Pressure": 980,
    "Temperature": 10,
    "AirQualityIndex": 102.22,
    "localId": 274
  },
  {
    "id": "SAVEDNIPRO_19320",
    "cityName": "Novohrodivka",
    "stationName": "Street Parkova, 30",
    "localName": "",
    "latitude": "48.202876",
    "longitude": "37.341606",
    "humidity": 39.09,
    "PM10": 15.13,
    "PM2n5": 18.63,
    "Pressure": 1010,
    "Temperature": 5,
    "AirQualityIndex": 168.89,
    "localId": 275
  },
  {
    "id": "SAVEDNIPRO_19387",
    "cityName": "Bereznehuvatske",
    "stationName": "Street Shkolna, 34",
    "localName": "",
    "latitude": "47.747778",
    "longitude": "32.279167",
    "humidity": 30.85,
    "PM10": 42.57,
    "PM2n5": 7.28,
    "Pressure": 1003,
    "Temperature": 6,
    "AirQualityIndex": 9.4,
    "localId": 276
  },
  {
    "id": "SAVEDNIPRO_19454",
    "cityName": "Pavlohrad",
    "stationName": "Street Ozerna, 87",
    "localName": "",
    "latitude": "48.536410",
    "longitude": "35.866605",
    "humidity": 50.64,
    "PM10": 46.1,
    "PM2n5": 6.79,
    "Pressure": 1002,
    "Temperature": 11,
    "AirQualityIndex": 187.26,
    "localId": 277
  },
  {
    "id": "SAVEDNIPRO_19476",
    "cityName": "Zymne",
    "stationName": "Street Myru",
    "localName": "",
    "latitude": "50.799637",
    "longitude": "24.327239",
    "humidity": 66.26,
    "PM10": 16.43,
    "PM2n5": 6.46,
    "Pressure": 985,
    "Temperature": 11,
    "AirQualityIndex": 1.87,
    "localId": 278
  },
  {
    "id": "SAVEDNIPRO_19477",
    "cityName": "Novopokrovka",
    "stationName": "Street Molodizhna, 1",
    "localName": "",
    "latitude": "48.057804",
    "longitude": "34.606344",
    "humidity": 26.71,
    "PM10": 59.7,
    "PM2n5": 12.38,
    "Pressure": 1001,
    "Temperature": 11,
    "AirQualityIndex": 8,
    "localId": 279
  },
  {
    "id": "SAVEDNIPRO_19684",
    "cityName": "Rakiv Lis",
    "stationName": "Street Shkilna, 4",
    "localName": "",
    "latitude": "51.621694",
    "longitude": "24.921318",
    "humidity": 56,
    "PM10": 71.04,
    "PM2n5": 1.9,
    "Pressure": 997,
    "Temperature": 6,
    "AirQualityIndex": 16.57,
    "localId": 280
  },
  {
    "id": "SAVEDNIPRO_19708",
    "cityName": "Sumy",
    "stationName": "Street Berezova, 28",
    "localName": "",
    "latitude": "50.940911",
    "longitude": "34.746837",
    "humidity": 54.43,
    "PM10": 17.08,
    "PM2n5": 6.4,
    "Pressure": 1007,
    "Temperature": 11,
    "AirQualityIndex": 79.4,
    "localId": 281
  },
  {
    "id": "SAVEDNIPRO_19810",
    "cityName": "Sumy",
    "stationName": "Street Zasumska, 3",
    "localName": "",
    "latitude": "50.9119348",
    "longitude": "34.7949552",
    "humidity": 63.97,
    "PM10": 52.04,
    "PM2n5": 13.79,
    "Pressure": 1009,
    "Temperature": 11,
    "AirQualityIndex": 129.93,
    "localId": 282
  },
  {
    "id": "SAVEDNIPRO_19997",
    "cityName": "Velyki Viknyny",
    "stationName": "Velykoviknynska zahalnoosvitnia shkola I-IIIstupeniv",
    "localName": "",
    "latitude": "49.929920",
    "longitude": "25.868925",
    "humidity": 63.08,
    "PM10": 39.66,
    "PM2n5": 11.63,
    "Pressure": 991,
    "Temperature": 6,
    "AirQualityIndex": 154.73,
    "localId": 283
  },
  {
    "id": "SAVEDNIPRO_20013",
    "cityName": "Pustomyty",
    "stationName": "Street Darii Diachenko, 17",
    "localName": "",
    "latitude": "49.718539",
    "longitude": "23.912361",
    "humidity": 53.95,
    "PM10": 69.9,
    "PM2n5": 18.14,
    "Pressure": 1009,
    "Temperature": 5,
    "AirQualityIndex": 32.75,
    "localId": 284
  },
  {
    "id": "SAVEDNIPRO_20060",
    "cityName": "Korosten",
    "stationName": "Street Mykhaila Hrushevskoho, 22/1",
    "localName": "",
    "latitude": "50.949312",
    "longitude": "28.642018",
    "humidity": 70.62,
    "PM10": 1.71,
    "PM2n5": 12.5,
    "Pressure": 1014,
    "Temperature": 8,
    "AirQualityIndex": 140.6,
    "localId": 285
  },
  {
    "id": "SAVEDNIPRO_20061",
    "cityName": "Kazanka",
    "stationName": "Street Myru, 208",
    "localName": "",
    "latitude": "47.831669",
    "longitude": "32.830301",
    "humidity": 41.63,
    "PM10": 37.02,
    "PM2n5": 18.22,
    "Pressure": 990,
    "Temperature": 9,
    "AirQualityIndex": 33.61,
    "localId": 286
  },