[
  {
    "id": "SAVEDNIPRO_001",
    "cityName": "Dnipro",
    "stationName": "Geroev Avenue, 40",
    "localName": "Save Dnipro #1",
    "latitude": "48.408944",
    "longitude": "35.072505",
    "humidity": 71.16,
    "PM10": 79.87,
    "PM2n5": 5.21,
    "Pressure": 999,
    "Temperature": 3,
    "AirQualityIndex": 150.88
  },
  {
    "id": "SAVEDNIPRO_002",
    "cityName": "Dnipro",
    "stationName": "Pershogo Travnya Street, 7",
    "localName": "Save Dnipro #5",
    "latitude": "48.418962",
    "longitude": "35.009254",
    "humidity": 40.86,
    "PM10": 59.3,
    "PM2n5": 7.05,
    "Pressure": 996,
    "Temperature": 1,
    "AirQualityIndex": 151.6
  },
  {
    "id": "SAVEDNIPRO_003",
    "cityName": "Dnipro",
    "stationName": "Ulyanova Street, 26",
    "localName": "Save Dnipro #3",
    "latitude": "48.46179",
    "longitude": "35.022893",
    "humidity": 60.72,
    "PM10": 61.47,
    "PM2n5": 7.47,
    "Pressure": 981,
    "Temperature": 2,
    "AirQualityIndex": 111.53
  },
  {
    "id": "SAVEDNIPRO_004",
    "cityName": "Dnipro",
    "stationName": "Novokrymskaya Street, 1",
    "localName": "Save Dnipro #2",
    "latitude": "48.428476",
    "longitude": "35.010238",
    "humidity": 27.26,
    "PM10": 7.12,
    "PM2n5": 13.37,
    "Pressure": 991,
    "Temperature": 0,
    "AirQualityIndex": 25.97
  },
  {
    "id": "SAVEDNIPRO_006",
    "cityName": "Dnipro",
    "stationName": "Pryberezhna Street, 49",
    "localName": "Save Dnipro #4",
    "latitude": "48.405856",
    "longitude": "35.145451",
    "humidity": 27.14,
    "PM10": 64.45,
    "PM2n5": 19.58,
    "Pressure": 989,
    "Temperature": -6,
    "AirQualityIndex": 198.36
  },
  {
    "id": "SAVEDNIPRO_007",
    "cityName": "Dnipro",
    "stationName": "Dmytra Yavornytskoho Avenue, 60",
    "localName": "Save Dnipro #9",
    "latitude": "48.467467",
    "longitude": "35.041472",
    "humidity": 63.8,
    "PM10": 44.78,
    "PM2n5": 14.68,
    "Pressure": 997,
    "Temperature": 1,
    "AirQualityIndex": 153.85
  },
  {
    "id": "SAVEDNIPRO_008",
    "cityName": "Dnipro",
    "stationName": "Haharina Avenue, 43",
    "localName": "Save Dnipro #10",
    "latitude": "48.448030",
    "longitude": "35.058606",
    "humidity": 46.95,
    "PM10": 13.04,
    "PM2n5": 3.93,
    "Pressure": 988,
    "Temperature": 1,
    "AirQualityIndex": 150.86
  },
  {
    "id": "SAVEDNIPRO_009",
    "cityName": "Dnipro",
    "stationName": "Kalynova Street, 49",
    "localName": "Save Dnipro #11",
    "latitude": "48.513536",
    "longitude": "35.062787",
    "humidity": 58.25,
    "PM10": 63.85,
    "PM2n5": 16.29,
    "Pressure": 989,
    "Temperature": -6,
    "AirQualityIndex": 124.05
  },
  {
    "id": "SAVEDNIPRO_014",
    "cityName": "Dnipro",
    "stationName": "Vokzalna Square, 2",
    "localName": "Save Dnipro #19",
    "latitude": "48.475959",
    "longitude": "35.016979",
    "humidity": 63.94,
    "PM10": 35.25,
    "PM2n5": 12.91,
    "Pressure": 997,
    "Temperature": -5,
    "AirQualityIndex": 176.33
  },
  {
    "id": "SAVEDNIPRO_015",
    "cityName": "Dnipro",
    "stationName": "Pavla Nirinberha Street, 4-6",
    "localName": "Save Dnipro #30",
    "latitude": "48.467926",
    "longitude": "35.055617",
    "humidity": 25.91,
    "PM10": 34.1,
    "PM2n5": 9.89,
    "Pressure": 994,
    "Temperature": 3,
    "AirQualityIndex": 120.13
  },
  {
    "id": "SAVEDNIPRO_016",
    "cityName": "Dnipro",
    "stationName": "Street Shoduarivska, 5",
    "localName": "Save Dnipro #25",
    "latitude": "48.484034",
    "longitude": "34.936086",
    "humidity": 42.44,
    "PM10": 47.41,
    "PM2n5": 6.49,
    "Pressure": 990,
    "Temperature": -3,
    "AirQualityIndex": 93.37
  },
  {
    "id": "SAVEDNIPRO_018",
    "cityName": "Dnipro",
    "stationName": "Beregova Street, 29",
    "localName": "Save Dnipro #26",
    "latitude": "48.501095",
    "longitude": "34.990169",
    "humidity": 58.53,
    "PM10": 36.41,
    "PM2n5": 12.73,
    "Pressure": 980,
    "Temperature": -3,
    "AirQualityIndex": 87.01
  },
  {
    "id": "SAVEDNIPRO_023",
    "cityName": "Dnipro",
    "stationName": "Shyroka Street, 173",
    "localName": "Save Dnipro #32",
    "latitude": "48.518050",
    "longitude": "34.964451",
    "humidity": 49.83,
    "PM10": 43.94,
    "PM2n5": 11.27,
    "Pressure": 1012,
    "Temperature": -5,
    "AirQualityIndex": 68.26
  },
  {
    "id": "SAVEDNIPRO_024",
    "cityName": "Sursko-Lytovske",
    "stationName": "50 Rokiv Peremogy Street",
    "localName": "Save Dnipro #28",
    "latitude": "48.350994",
    "longitude": "34.946876",
    "humidity": 25.75,
    "PM10": 36.95,
    "PM2n5": 15.06,
    "Pressure": 999,
    "Temperature": -1,
    "AirQualityIndex": 11.41
  },
  {
    "id": "SAVEDNIPRO_025",
    "cityName": "Dnipro",
    "stationName": "Street Barykadna, 21",
    "localName": "",
    "latitude": "48.463293",
    "longitude": "35.056401",
    "humidity": 53.46,
    "PM10": 16.38,
    "PM2n5": 3.51,
    "Pressure": 993,
    "Temperature": 0,
    "AirQualityIndex": 196.4
  },
  {
    "id": "SAVEDNIPRO_032",
    "cityName": "Dnipro",
    "stationName": "Slavy Boulevard, 11",
    "localName": "Save Dnipro #22",
    "latitude": "48.4119490",
    "longitude": "35.0697377",
    "humidity": 52.15,
    "PM10": 75.58,
    "PM2n5": 3.73,
    "Pressure": 1012,
    "Temperature": -6,
    "AirQualityIndex": 27.81
  },
  {
    "id": "SAVEDNIPRO_035",
    "cityName": "Novooleksandrivka",
    "stationName": "Televiziyna \r\n Street / Arendnyy Lane",
    "localName": "Save Dnipro #17",
    "latitude": "48.343889",
    "longitude": "35.015000",
    "humidity": 49.25,
    "PM10": 46.5,
    "PM2n5": 13.16,
    "Pressure": 1006,
    "Temperature": 0,
    "AirQualityIndex": 166.29
  },
  {
    "id": "SAVEDNIPRO_075",
    "cityName": "Dnipro",
    "stationName": "Pavla Nirinberha Street, 10",
    "localName": "Save Dnipro #14",
    "latitude": "48.466150",
    "longitude": "35.055459",
    "humidity": 70.24,
    "PM10": 34.45,
    "PM2n5": 13.06,
    "Pressure": 1006,
    "Temperature": -2,
    "AirQualityIndex": 170.68
  },
  {
    "id": "SAVEDNIPRO_090",
    "cityName": "Obukhivka",
    "stationName": "Dniprovs'ko-Oril's'kyy pryrodnyy zapovidnyk",
    "localName": "Save Dnipro #34",
    "latitude": "48.5339822",
    "longitude": "34.7914877",
    "humidity": 46.7,
    "PM10": 10.09,
    "PM2n5": 19.39,
    "Pressure": 1008,
    "Temperature": -7,
    "AirQualityIndex": 67.37
  },
  {
    "id": "SAVEDNIPRO_094",
    "cityName": "Kam'ianske",
    "stationName": "Heroiv Boulevard, 38",
    "localName": "Save Dnipro #34",
    "latitude": "48.607373",
    "longitude": "34.570512",
    "humidity": 74.49,
    "PM10": 66.87,
    "PM2n5": 17.32,
    "Pressure": 981,
    "Temperature": -1,
    "AirQualityIndex": 46.15
  },
  {
    "id": "SAVEDNIPRO_095",
    "cityName": "Dnipro",
    "stationName": "Velyka Diivska Street, 4",
    "localName": "Save Dnipro #53",
    "latitude": "48.480519",
    "longitude": "34.934133",
    "humidity": 33.9,
    "PM10": 53.29,
    "PM2n5": 17.81,
    "Pressure": 1006,
    "Temperature": 0,
    "AirQualityIndex": 173.98
  },
  {
    "id": "SAVEDNIPRO_096",
    "cityName": "Dnipro",
    "stationName": "Hoholya Street, 10",
    "localName": "Save Dnipro #36",
    "latitude": "48.458139",
    "longitude": "35.052214",
    "humidity": 57.15,
    "PM10": 61.74,
    "PM2n5": 15.22,
    "Pressure": 1016,
    "Temperature": -3,
    "AirQualityIndex": 84.53
  },
  {
    "id": "SAVEDNIPRO_097",
    "cityName": "Halych",
    "stationName": "Karaimska Street, 3",
    "localName": "Save Dnipro #39",
    "latitude": "49.125336",
    "longitude": "24.730753",
    "humidity": 40.04,
    "PM10": 70.01,
    "PM2n5": 11.5,
    "Pressure": 981,
    "Temperature": -6,
    "AirQualityIndex": 44.89
  },
  {
    "id": "SAVEDNIPRO_101",
    "cityName": "Dnipro",
    "stationName": "Samarkandskyi provulok, 1",
    "localName": "Save Dnipro #40",
    "latitude": "48.4538103",
    "longitude": "35.0185786",
    "humidity": 34.65,
    "PM10": 3.08,
    "PM2n5": 4.49,
    "Pressure": 986,
    "Temperature": -4,
    "AirQualityIndex": 69.47
  },
  {
    "id": "SAVEDNIPRO_102",
    "cityName": "Vilnohirsk",
    "stationName": "Molodizhna Street, 28",
    "localName": "Save Dnipro #49",
    "latitude": "48.480857",
    "longitude": "34.018492",
    "humidity": 44.95,
    "PM10": 12.23,
    "PM2n5": 11.15,
    "Pressure": 998,
    "Temperature": -1,
    "AirQualityIndex": 62.27
  },
  {
    "id": "SAVEDNIPRO_103",
    "cityName": "Dnipro",
    "stationName": "Topolia-2, 23",
    "localName": "Save Dnipro #38",
    "latitude": "48.391810",
    "longitude": "35.028813",
    "humidity": 30.74,
    "PM10": 11.32,
    "PM2n5": 18.93,
    "Pressure": 1016,
    "Temperature": -5,
    "AirQualityIndex": 54.21
  },
  {
    "id": "SAVEDNIPRO_132",
    "cityName": "Dnipro",
    "stationName": "prospekt Serhiia Nihoiana, 57",
    "localName": "",
    "latitude": "48.476276",
    "longitude": "34.984768",
    "humidity": 31.11,
    "PM10": 59.65,
    "PM2n5": 17.5,
    "Pressure": 1007,
    "Temperature": 0,
    "AirQualityIndex": 156.99
  },
  {
    "id": "SAVEDNIPRO_136",
    "cityName": "Dnipro",
    "stationName": "Forest Park of Friendship of Peoples",
    "localName": "Save Dnipro #42",
    "latitude": "48.540300",
    "longitude": "35.092615",
    "humidity": 38.35,
    "PM10": 70.75,
    "PM2n5": 9.72,
    "Pressure": 995,
    "Temperature": 3,
    "AirQualityIndex": 24.22
  },
  {
    "id": "SAVEDNIPRO_897",
    "cityName": "Novooleksandrivka",
    "stationName": "Surska Street, 74",
    "localName": "Save Dnipro #51",
    "latitude": "48.341841",
    "longitude": "35.005390",
    "humidity": 25.23,
    "PM10": 16.65,
    "PM2n5": 12.84,
    "Pressure": 1002,
    "Temperature": -1,
    "AirQualityIndex": 52.97
  },
  {
    "id": "SAVEDNIPRO_949",
    "cityName": "Zaporizhzhia",
    "stationName": "Street Haharina, 3",
    "localName": "Save Dnipro #48",
    "latitude": "47.8352753",
    "longitude": "35.1446249",
    "humidity": 69.2,
    "PM10": 25.43,
    "PM2n5": 14.25,
    "Pressure": 1014,
    "Temperature": -7,
    "AirQualityIndex": 185.61
  },
  {
    "id": "SAVEDNIPRO_997",
    "cityName": "Dnipro",
    "stationName": "Street Darnytska, 9",
    "localName": "",
    "latitude": "48.5052009",
    "longitude": "35.0718389",
    "humidity": 36.63,
    "PM10": 41.2,
    "PM2n5": 14.68,
    "Pressure": 1017,
    "Temperature": 1,
    "AirQualityIndex": 24.39
  },
  {
    "id": "SAVEDNIPRO_1000",
    "cityName": "Dnipro",
    "stationName": "Street Ivana Akinfiieva, 10",
    "localName": "Save Dnipro #55",
    "latitude": "48.460155",
    "longitude": "35.066821",
    "humidity": 56.43,
    "PM10": 48.97,
    "PM2n5": 4.59,
    "Pressure": 1011,
    "Temperature": 0,
    "AirQualityIndex": 21.56
  },
  {
    "id": "SAVEDNIPRO_1001",
    "cityName": "Dnipro",
    "stationName": "Street Hladkova, 6",
    "localName": "",
    "latitude": "48.400802",
    "longitude": "35.001839",
    "humidity": 27.83,
    "PM10": 54.75,
    "PM2n5": 4.74,
    "Pressure": 1014,
    "Temperature": -5,
    "AirQualityIndex": 58.53
  },
  {
    "id": "SAVEDNIPRO_1002",
    "cityName": "Sursko-Klevtseve",
    "stationName": "",
    "localName": "Save Dnipro #56",
    "latitude": "48.312916",
    "longitude": "34.880235",
    "humidity": 37.75,
    "PM10": 39.47,
    "PM2n5": 6.76,
    "Pressure": 980,
    "Temperature": -4,
    "AirQualityIndex": 104.37
  },
  {
    "id": "SAVEDNIPRO_1004",
    "cityName": "Kyiv",
    "stationName": "Street Henerala Zhmachenka, 4",
    "localName": "Save Dnipro #58",
    "latitude": "50.458479",
    "longitude": "30.6079481",
    "humidity": 56.7,
    "PM10": 49.99,
    "PM2n5": 19.76,
    "Pressure": 1007,
    "Temperature": -5,
    "AirQualityIndex": 58.68
  },
  {
    "id": "SAVEDNIPRO_1005",
    "cityName": "Dnipro",
    "stationName": "Street Serhiia Yefremova, 3A",
    "localName": "Save Dnipro #59",
    "latitude": "48.459042",
    "longitude": "35.058479",
    "humidity": 35.72,
    "PM10": 78,
    "PM2n5": 15.82,
    "Pressure": 981,
    "Temperature": 0,
    "AirQualityIndex": 141.32
  },
  {
    "id": "SAVEDNIPRO_1006",
    "cityName": "Kam'ianske",
    "stationName": "Street Yuriia Volkova, 10A",
    "localName": "Save Dnipro #60",
    "latitude": "48.509524",
    "longitude": "34.61578",
    "humidity": 54.97,
    "PM10": 15.79,
    "PM2n5": 16.54,
    "Pressure": 1010,
    "Temperature": -2,
    "AirQualityIndex": 94.87
  },
  {
    "id": "SAVEDNIPRO_1007",
    "cityName": "Dnipro",
    "stationName": "prospekt Slobozhanskyi, 127A",
    "localName": "Save Dnipro #64",
    "latitude": "48.523936",
    "longitude": "35.0811455",
    "humidity": 34.47,
    "PM10": 63.07,
    "PM2n5": 19.34,
    "Pressure": 981,
    "Temperature": -1,
    "AirQualityIndex": 91.69
  },
  {
    "id": "SAVEDNIPRO_1008",
    "cityName": "Vinnytsia",
    "stationName": "Street Stetsenka, 75",
    "localName": "Save Dnipro #63",
    "latitude": "49.239341",
    "longitude": "28.479885",
    "humidity": 71.39,
    "PM10": 11.17,
    "PM2n5": 4.97,
    "Pressure": 983,
    "Temperature": 2,
    "AirQualityIndex": 116.16
  },
  {
    "id": "SAVEDNIPRO_1009",
    "cityName": "Dnipro",
    "stationName": "Donetske shose, 121",
    "localName": "Save Dnipro #62",
    "latitude": "48.523444",
    "longitude": "35.023331",
    "humidity": 50.93,
    "PM10": 47.39,
    "PM2n5": 7.28,
    "Pressure": 1015,
    "Temperature": -1,
    "AirQualityIndex": 44.47
  },
  {
    "id": "SAVEDNIPRO_1021",
    "cityName": "Dnipro",
    "stationName": "Street Semaforna, 30A",
    "localName": "Save Dnipro #61",
    "latitude": "48.489936",
    "longitude": "35.1337483",
    "humidity": 54.79,
    "PM10": 57.48,
    "PM2n5": 9.78,
    "Pressure": 1003,
    "Temperature": -3,
    "AirQualityIndex": 44.77
  },
  {
    "id": "SAVEDNIPRO_1053",
    "cityName": "Dnipro",
    "stationName": "Yaroslavska Street, 12",
    "localName": "Save Dnipro #24",
    "latitude": "48.433796",
    "longitude": "35.030484",
    "humidity": 31.77,
    "PM10": 78.41,
    "PM2n5": 17.06,
    "Pressure": 1020,
    "Temperature": -3,
    "AirQualityIndex": 193.56
  },
  {
    "id": "SAVEDNIPRO_1102",
    "cityName": "Sumy",
    "stationName": "",
    "localName": "Save Dnipro #73",
    "latitude": "50.896400",
    "longitude": "34.830288",
    "humidity": 46.79,
    "PM10": 1.68,
    "PM2n5": 19.77,
    "Pressure": 1005,
    "Temperature": 3,
    "AirQualityIndex": 146.77
  },
  {
    "id": "SAVEDNIPRO_1131",
    "cityName": "Zaporizhzhia",
    "stationName": "Tbiliska Street, 27A",
    "localName": "",
    "latitude": "47.83602089075",
    "longitude": "35.10648322033",
    "humidity": 47.91,
    "PM10": 45.64,
    "PM2n5": 3.27,
    "Pressure": 1004,
    "Temperature": 3,
    "AirQualityIndex": 152.14
  },
  {
    "id": "SAVEDNIPRO_1143",
    "cityName": "Dobropillia",
    "stationName": "Street Zapovitna",
    "localName": "Save Dnipro #75",
    "latitude": "48.477333",
    "longitude": "37.092000",
    "humidity": 72.15,
    "PM10": 50.89,
    "PM2n5": 17.06,
    "Pressure": 996,
    "Temperature": 0,
    "AirQualityIndex": 127.8
  },
  {
    "id": "SAVEDNIPRO_1168",
    "cityName": "Mariupol",
    "stationName": "Street Lomizova, 11",
    "localName": "",
    "latitude": "47.101121",
    "longitude": "37.627157",
    "humidity": 36.06,
    "PM10": 24.93,
    "PM2n5": 1.86,
    "Pressure": 999,
    "Temperature": -5,
    "AirQualityIndex": 102.94
  },
  {
    "id": "SAVEDNIPRO_1169",
    "cityName": "Mariupol",
    "stationName": "prospekt Metalurhiv, 206-A",
    "localName": "",
    "latitude": "47.137890",
    "longitude": "37.565452",
    "humidity": 37.35,
    "PM10": 67.35,
    "PM2n5": 10.11,
    "Pressure": 1018,
    "Temperature": -4,
    "AirQualityIndex": 103.22
  },
  {
    "id": "SAVEDNIPRO_1174",
    "cityName": "Kam'ianske",
    "stationName": "prospekt Svobody, 49",
    "localName": "",
    "latitude": "48.516430",
    "longitude": "34.614322",
    "humidity": 27.11,
    "PM10": 74.08,
    "PM2n5": 18.96,
    "Pressure": 1005,
    "Temperature": 3,
    "AirQualityIndex": 96.06
  },
  {
    "id": "SAVEDNIPRO_1175",
    "cityName": "Kam'ianske",
    "stationName": "Street Voiniv-afhantsiv, 5D",
    "localName": "",
    "latitude": "48.608365",
    "longitude": "34.558746",
    "humidity": 53.52,
    "PM10": 51.09,
    "PM2n5": 1.04,
    "Pressure": 1002,
    "Temperature": 1,
    "AirQualityIndex": 123.87
  },
  {
    "id": "SAVEDNIPRO_1176",
    "cityName": "Kam'ianske",
    "stationName": "prospekt Svobody, 56",
    "localName": "",
    "latitude": "48.507758",
    "longitude": "34.609865",
    "humidity": 71.78,
    "PM10": 48.86,
    "PM2n5": 14.19,
    "Pressure": 995,
    "Temperature": 1,
    "AirQualityIndex": 182.7
  },
  {
    "id": "SAVEDNIPRO_1178",
    "cityName": "Pisochyn",
    "stationName": "Street Zelena, 19",
    "localName": "",
    "latitude": "49.964888",
    "longitude": "36.122653",
    "humidity": 69.73,
    "PM10": 30.51,
    "PM2n5": 2.09,
    "Pressure": 1016,
    "Temperature": -4,
    "AirQualityIndex": 26.37
  },
  {
    "id": "SAVEDNIPRO_1179",
    "cityName": "Kam'ianske",
    "stationName": "Street Vorobiova, 15",
    "localName": "",
    "latitude": "48.503785",
    "longitude": "34.614396",
    "humidity": 54.62,
    "PM10": 59.45,
    "PM2n5": 5.21,
    "Pressure": 984,
    "Temperature": -4,
    "AirQualityIndex": 178.05
  },
  {
    "id": "SAVEDNIPRO_1180",
    "cityName": "Kam'ianske",
    "stationName": "prospekt Anoshkina, 58A",
    "localName": "",
    "latitude": "48.509854",
    "longitude": "34.595553",
    "humidity": 74.99,
    "PM10": 61.28,
    "PM2n5": 5.08,
    "Pressure": 1012,
    "Temperature": 1,
    "AirQualityIndex": 53.96
  },
  {
    "id": "SAVEDNIPRO_1182",
    "cityName": "Kam'ianske",
    "stationName": "Street Sportyvna, 19",
    "localName": "",
    "latitude": "48.517399",
    "longitude": "34.599969",
    "humidity": 73.13,
    "PM10": 70.25,
    "PM2n5": 10.7,
    "Pressure": 982,
    "Temperature": 2,
    "AirQualityIndex": 94.51
  },
  {
    "id": "SAVEDNIPRO_1183",
    "cityName": "Kam'ianske",
    "stationName": "Yuvileinyi prospekt, 57",
    "localName": "",
    "latitude": "48.489721",
    "longitude": "34.621939",
    "humidity": 31.41,
    "PM10": 65.31,
    "PM2n5": 9.22,
    "Pressure": 1002,
    "Temperature": 1,
    "AirQualityIndex": 166.61
  },
  {
    "id": "SAVEDNIPRO_1212",
    "cityName": "Zaporizhzhia",
    "stationName": "Street Shkilna, 50",
    "localName": "",
    "latitude": "47.816804",
    "longitude": "35.169158",
    "humidity": 71.19,
    "PM10": 22.22,
    "PM2n5": 5.86,
    "Pressure": 1007,
    "Temperature": -6,
    "AirQualityIndex": 195.07
  },
  {
    "id": "SAVEDNIPRO_1260",
    "cityName": "Zaporizhzhia",
    "stationName": "Street Mykoly Koryshchenka, 26",
    "localName": "",
    "latitude": "47.82919027096",
    "longitude": "35.23301213980",
    "humidity": 41.06,
    "PM10": 38.89,
    "PM2n5": 11.25,
    "Pressure": 991,
    "Temperature": -7,
    "AirQualityIndex": 46.26
  },
  {
    "id": "SAVEDNIPRO_1266",
    "cityName": "Kyiv",
    "stationName": "Street Kostiantynivska, 73",
    "localName": "",
    "latitude": "50.473860",
    "longitude": "30.497474",
    "humidity": 34.81,
    "PM10": 16.65,
    "PM2n5": 3.6,
    "Pressure": 1017,
    "Temperature": 0,
    "AirQualityIndex": 134.53
  },
  {
    "id": "SAVEDNIPRO_1268",
    "cityName": "Bobrovytsia",
    "stationName": "Street Nezalezhnosti, 46",
    "localName": "",
    "latitude": "50.741761",
    "longitude": "31.384359",
    "humidity": 27.29,
    "PM10": 60.26,
    "PM2n5": 16.23,
    "Pressure": 1015,
    "Temperature": -2,
    "AirQualityIndex": 83.89
  },
  {
    "id": "SAVEDNIPRO_1269",
    "cityName": "Poltava",
    "stationName": "Street Pidmonastyrska, 41",
    "localName": "",
    "latitude": "49.592648",
    "longitude": "34.570985",
    "humidity": 29.74,
    "PM10": 78.79,
    "PM2n5": 14.45,
    "Pressure": 1008,
    "Temperature": -6,
    "AirQualityIndex": 123.19
  },
  {
    "id": "SAVEDNIPRO_1270",
    "cityName": "Dnipro",
    "stationName": "Street Mykhaila Hrushevskoho, 34",
    "localName": "Save Dnipro #104",
    "latitude": "48.454988",
    "longitude": "35.036721",
    "humidity": 66.7,
    "PM10": 29.39,
    "PM2n5": 11.75,
    "Pressure": 1009,
    "Temperature": 2,
    "AirQualityIndex": 153.84
  },
  {
    "id": "SAVEDNIPRO_1271",
    "cityName": "Dnipro",
    "stationName": "prospekt Myru, 5",
    "localName": "",
    "latitude": "48.525274",
    "longitude": "35.019689",
    "humidity": 48.35,
    "PM10": 33.02,
    "PM2n5": 10.98,
    "Pressure": 1015,
    "Temperature": -2,
    "AirQualityIndex": 12.06
  },
  {
    "id": "SAVEDNIPRO_1272",
    "cityName": "Kam'ianske",
    "stationName": "Street Kazanska, 35",
    "localName": "",
    "latitude": "48.494670",
    "longitude": "34.602290",
    "humidity": 34.21,
    "PM10": 5.81,
    "PM2n5": 11.38,
    "Pressure": 992,
    "Temperature": -1,
    "AirQualityIndex": 113.69
  },
  {
    "id": "SAVEDNIPRO_1274",
    "cityName": "Kyiv",
    "stationName": "prospekt Heroiv Stalinhrada, 6K8",
    "localName": "",
    "latitude": "50.494958",
    "longitude": "30.522702",
    "humidity": 53.41,
    "PM10": 24.17,
    "PM2n5": 8.94,
    "Pressure": 1005,
    "Temperature": -3,
    "AirQualityIndex": 156.32
  },
  {
    "id": "SAVEDNIPRO_1275",
    "cityName": "Kam'ianske",
    "stationName": "prospekt Konstytutsii 19",
    "localName": "",
    "latitude": "48.475955",
    "longitude": "34.667161",
    "humidity": 60.77,
    "PM10": 36.14,
    "PM2n5": 20,
    "Pressure": 998,
    "Temperature": 3,
    "AirQualityIndex": 130.27
  },
  {
    "id": "SAVEDNIPRO_1276",
    "cityName": "Poltava",
    "stationName": "Street Radyshcheva, 46",
    "localName": "",
    "latitude": "49.577176",
    "longitude": "34.607160",
    "humidity": 46,
    "PM10": 70.41,
    "PM2n5": 13.34,
    "Pressure": 987,
    "Temperature": -7,
    "AirQualityIndex": 167.4
  },
  {
    "id": "SAVEDNIPRO_1278",
    "cityName": "Kyiv",
    "stationName": "Street Saperno-Slobidska, 25/4",
    "localName": "",
    "latitude": "50.404417",
    "longitude": "30.534111",
    "humidity": 31.09,
    "PM10": 19.32,
    "PM2n5": 13.37,
    "Pressure": 1020,
    "Temperature": -7,
    "AirQualityIndex": 146.34
  },
  {
    "id": "SAVEDNIPRO_1279",
    "cityName": "Dnipro",
    "stationName": "Street Maiachka, 14",
    "localName": "",
    "latitude": "48.4934802",
    "longitude": "35.1992773",
    "humidity": 59.24,
    "PM10": 37.25,
    "PM2n5": 19.63,
    "Pressure": 1011,
    "Temperature": -2,
    "AirQualityIndex": 128.86
  },
  {
    "id": "SAVEDNIPRO_1293",
    "cityName": "Kushuhum",
    "stationName": "Street Partyzanska",
    "localName": "",
    "latitude": "47.723589",
    "longitude": "35.206665",
    "humidity": 66.57,
    "PM10": 33.39,
    "PM2n5": 5.76,
    "Pressure": 986,
    "Temperature": -4,
    "AirQualityIndex": 54.43
  },
  {
    "id": "SAVEDNIPRO_1294",
    "cityName": "Kyiv",
    "stationName": "Street 8-a Sadova",
    "localName": "",
    "latitude": "50.4682878",
    "longitude": "30.5729412",
    "humidity": 72.83,
    "PM10": 49.26,
    "PM2n5": 17.9,
    "Pressure": 990,
    "Temperature": 2,
    "AirQualityIndex": 25.96
  },
  {
    "id": "SAVEDNIPRO_1295",
    "cityName": "Brovary",
    "stationName": "Sadove tovarystvo Khimik",
    "localName": "",
    "latitude": "50.514441",
    "longitude": "30.797268",
    "humidity": 65.14,
    "PM10": 68.1,
    "PM2n5": 6.72,
    "Pressure": 1016,
    "Temperature": -6,
    "AirQualityIndex": 145.3
  },
  {
    "id": "SAVEDNIPRO_1297",
    "cityName": "Zaporizhzhia",
    "stationName": "Street Charivna, 157",
    "localName": "",
    "latitude": "47.844147",
    "longitude": "35.230268",
    "humidity": 74,
    "PM10": 63,
    "PM2n5": 6.7,
    "Pressure": 999,
    "Temperature": -3,
    "AirQualityIndex": 123.75
  },
  {
    "id": "SAVEDNIPRO_1298",
    "cityName": "Zaporizhzhia",
    "stationName": "Street Leonida Zhabotynskoho, 63",
    "localName": "",
    "latitude": "47.8382123",
    "longitude": "35.1351085",
    "humidity": 48.27,
    "PM10": 61.8,
    "PM2n5": 6.23,
    "Pressure": 987,
    "Temperature": 2,
    "AirQualityIndex": 111.51
  },
  {
    "id": "SAVEDNIPRO_1300",
    "cityName": "Cherkaske",
    "stationName": "Street Yasna, 3",
    "localName": "",
    "latitude": "48.835490",
    "longitude": "37.392544",
    "humidity": 45.03,
    "PM10": 76.87,
    "PM2n5": 8.1,
    "Pressure": 988,
    "Temperature": -3,
    "AirQualityIndex": 159.33
  },
  {
    "id": "SAVEDNIPRO_1301",
    "cityName": "Zaporizhzhia",
    "stationName": "Street Vesnina, 1A",
    "localName": "",
    "latitude": "47.865793",
    "longitude": "35.058838",
    "humidity": 59.45,
    "PM10": 22.05,
    "PM2n5": 13.78,
    "Pressure": 985,
    "Temperature": -3,
    "AirQualityIndex": 189.42
  },
  {
    "id": "SAVEDNIPRO_1302",
    "cityName": "Yurivka",
    "stationName": "Street Naberezhna, 3",
    "localName": "",
    "latitude": "50.317396",
    "longitude": "30.390961",
    "humidity": 58.18,
    "PM10": 11.96,
    "PM2n5": 18.7,
    "Pressure": 999,
    "Temperature": 3,
    "AirQualityIndex": 152.66
  },
  {
    "id": "SAVEDNIPRO_1303",
    "cityName": "Chornomorsk",
    "stationName": "Street Vitaliia Shuma, 2H",
    "localName": "",
    "latitude": "46.297067",
    "longitude": "30.639265",
    "humidity": 62.48,
    "PM10": 75.72,
    "PM2n5": 13.48,
    "Pressure": 1003,
    "Temperature": 1,
    "AirQualityIndex": 104.6
  },
  {
    "id": "SAVEDNIPRO_1306",
    "cityName": "Kyiv",
    "stationName": "Street Marshala Malynovskoho, 4V",
    "localName": "",
    "latitude": "50.505132",
    "longitude": "30.489238",
    "humidity": 31.49,
    "PM10": 70.86,
    "PM2n5": 18.37,
    "Pressure": 985,
    "Temperature": -7,
    "AirQualityIndex": 186.68
  },
  {
    "id": "SAVEDNIPRO_1308",
    "cityName": "Zaporizhzhia",
    "stationName": "Avtobusna Street, 13",
    "localName": "",
    "latitude": "47.8630359",
    "longitude": "35.1845460",
    "humidity": 50.11,
    "PM10": 11.21,
    "PM2n5": 12.87,
    "Pressure": 989,
    "Temperature": 0,
    "AirQualityIndex": 115.82
  },
  {
    "id": "SAVEDNIPRO_1309",
    "cityName": "Zaporizhzhia",
    "stationName": "Tsentralnyi bulvar, 22A",
    "localName": "",
    "latitude": "47.835703",
    "longitude": "35.134718",
    "humidity": 25.92,
    "PM10": 65.62,
    "PM2n5": 5.07,
    "Pressure": 990,
    "Temperature": -5,
    "AirQualityIndex": 21.96
  },
  {
    "id": "SAVEDNIPRO_1311",
    "cityName": "Vita-Poshtova",
    "stationName": "Street Zvenyhorodska",
    "localName": "",
    "latitude": "50.312514",
    "longitude": "30.375136",
    "humidity": 70.93,
    "PM10": 21.58,
    "PM2n5": 17.18,
    "Pressure": 981,
    "Temperature": -7,
    "AirQualityIndex": 104.17
  },
  {
    "id": "SAVEDNIPRO_1313",
    "cityName": "Yurivka",
    "stationName": "Street Naberezhna, 12",
    "localName": "",
    "latitude": "50.326257",
    "longitude": "30.375458",
    "humidity": 69.5,
    "PM10": 47.17,
    "PM2n5": 4.13,
    "Pressure": 989,
    "Temperature": -7,
    "AirQualityIndex": 2.63
  },
  {
    "id": "SAVEDNIPRO_1315",
    "cityName": "Zaporizhzhia",
    "stationName": "Street Svitla, 16",
    "localName": "",
    "latitude": "47.815380",
    "longitude": "35.053843",
    "humidity": 68.15,
    "PM10": 25.48,
    "PM2n5": 8.81,
    "Pressure": 985,
    "Temperature": -1,
    "AirQualityIndex": 118.54
  },
  {
    "id": "SAVEDNIPRO_1316",
    "cityName": "Zaporizhzhia",
    "stationName": "prospekt Sobornyi, 228",
    "localName": "",
    "latitude": "47.8606913",
    "longitude": "35.1002317",
    "humidity": 32.66,
    "PM10": 41.8,
    "PM2n5": 14.98,
    "Pressure": 1019,
    "Temperature": -5,
    "AirQualityIndex": 101.2
  },
  {
    "id": "SAVEDNIPRO_1354",
    "cityName": "Velyka Severynka",
    "stationName": "Street Myru, 2A",
    "localName": "",
    "latitude": "48.608155",
    "longitude": "32.231918",
    "humidity": 34.39,
    "PM10": 50.32,
    "PM2n5": 1.64,
    "Pressure": 995,
    "Temperature": -1,
    "AirQualityIndex": 29.23
  },
  {
    "id": "SAVEDNIPRO_1372",
    "cityName": "Kyiv",
    "stationName": "Street Verkhovynna, 37",
    "localName": "",
    "latitude": "50.452314",
    "longitude": "30.371420",
    "humidity": 30.12,
    "PM10": 22.73,
    "PM2n5": 15.97,
    "Pressure": 998,
    "Temperature": -5,
    "AirQualityIndex": 176.44
  },
  {
    "id": "SAVEDNIPRO_1373",
    "cityName": "Kyiv",
    "stationName": "Street Marshala Malynovskoho, 13B",
    "localName": "",
    "latitude": "50.502855",
    "longitude": "30.495153",
    "humidity": 63.22,
    "PM10": 71.97,
    "PM2n5": 6.56,
    "Pressure": 1018,
    "Temperature": -3,
    "AirQualityIndex": 51.09
  },
  {
    "id": "SAVEDNIPRO_1376",
    "cityName": "Kyiv",
    "stationName": "Street Volodymyro-Lybidska 25",
    "localName": "",
    "latitude": "50.421359",
    "longitude": "30.514859",
    "humidity": 55.46,
    "PM10": 62.69,
    "PM2n5": 4.84,
    "Pressure": 999,
    "Temperature": 1,
    "AirQualityIndex": 187.93
  },
  {
    "id": "SAVEDNIPRO_1377",
    "cityName": "Chornomorsk",
    "stationName": "Street Transportna, 14A",
    "localName": "Save Dnipro #159",
    "latitude": "46.311634",
    "longitude": "30.654892",
    "humidity": 59.22,
    "PM10": 77.22,
    "PM2n5": 17.84,
    "Pressure": 995,
    "Temperature": -5,
    "AirQualityIndex": 187.74
  },
  {
    "id": "SAVEDNIPRO_1378",
    "cityName": "Hatne",
    "stationName": "Street Yaroslava Mudroho, 6",
    "localName": "",
    "latitude": "50.359801",
    "longitude": "30.424000",
    "humidity": 74.52,
    "PM10": 62.1,
    "PM2n5": 6.65,
    "Pressure": 988,
    "Temperature": 1,
    "AirQualityIndex": 147.21
  },
  {
    "id": "SAVEDNIPRO_1380",
    "cityName": "Odesa",
    "stationName": "Street Armiiska, 19",
    "localName": "Save Dnipro #162",
    "latitude": "46.452237",
    "longitude": "30.748921",
    "humidity": 30.61,
    "PM10": 1.93,
    "PM2n5": 2.23,
    "Pressure": 1002,
    "Temperature": -1,
    "AirQualityIndex": 73.5
  },
  {
    "id": "SAVEDNIPRO_1381",
    "cityName": "Reshetylivka",
    "stationName": "Street Pokrovska, 14",
    "localName": "",
    "latitude": "49.562487",
    "longitude": "34.078514",
    "humidity": 60.85,
    "PM10": 46.79,
    "PM2n5": 7.32,
    "Pressure": 1012,
    "Temperature": -1,
    "AirQualityIndex": 195.38
  },
  {
    "id": "SAVEDNIPRO_1382",
    "cityName": "Zaporizhzhia",
    "stationName": "Street Nezalezhnoi Ukrainy, 68A",
    "localName": "",
    "latitude": "47.827955",
    "longitude": "35.204411",
    "humidity": 55.5,
    "PM10": 5.99,
    "PM2n5": 6.09,
    "Pressure": 1007,
    "Temperature": -1,
    "AirQualityIndex": 78.98
  },
  {
    "id": "SAVEDNIPRO_1384",
    "cityName": "Hnidyn",
    "stationName": "Street Nova, 1",
    "localName": "",
    "latitude": "50.33948",
    "longitude": "30.70528",
    "humidity": 50.49,
    "PM10": 13.3,
    "PM2n5": 19.4,
    "Pressure": 1001,
    "Temperature": 3,
    "AirQualityIndex": 162.25
  },
  {
    "id": "SAVEDNIPRO_1385",
    "cityName": "Hnidyn",
    "stationName": "Street Kuzbasova, 22",
    "localName": "",
    "latitude": "50.327707",
    "longitude": "30.696919",
    "humidity": 62.43,
    "PM10": 67.74,
    "PM2n5": 11.43,
    "Pressure": 1005,
    "Temperature": 3,
    "AirQualityIndex": 27.81
  },
  {
    "id": "SAVEDNIPRO_1386",
    "cityName": "Odesa",
    "stationName": "Street Balkivska, 40A",
    "localName": "",
    "latitude": "46.486764",
    "longitude": "30.707282",
    "humidity": 45.56,
    "PM10": 10.15,
    "PM2n5": 4.93,
    "Pressure": 983,
    "Temperature": 3,
    "AirQualityIndex": 24.48
  },
  {
    "id": "SAVEDNIPRO_1387",
    "cityName": "Kyiv",
    "stationName": "Street Reitarska, 17",
    "localName": "",
    "latitude": "50.4515820",
    "longitude": "30.5115602",
    "humidity": 67.76,
    "PM10": 21.24,
    "PM2n5": 3.92,
    "Pressure": 980,
    "Temperature": 2,
    "AirQualityIndex": 190.6
  },
  {
    "id": "SAVEDNIPRO_1388",
    "cityName": "Brovary",
    "stationName": "Street Symona Petliury, 36",
    "localName": "",
    "latitude": "50.5245",
    "longitude": "30.798465",
    "humidity": 61.31,
    "PM10": 16.48,
    "PM2n5": 13.08,
    "Pressure": 996,
    "Temperature": -4,
    "AirQualityIndex": 42.23
  },
  {
    "id": "SAVEDNIPRO_1392",
    "cityName": "Brovary",
    "stationName": "bulvar Nezalezhnosti, 4A",
    "localName": "",
    "latitude": "50.512282",
    "longitude": "30.796358",
    "humidity": 49.17,
    "PM10": 30.96,
    "PM2n5": 14.57,
    "Pressure": 1013,
    "Temperature": -5,
    "AirQualityIndex": 35.3
  },
  {
    "id": "SAVEDNIPRO_1394",
    "cityName": "Kyiv",
    "stationName": "Street Kyrylivska 64",
    "localName": "",
    "latitude": "50.4742163",
    "longitude": "30.4942892",
    "humidity": 70.12,
    "PM10": 16.07,
    "PM2n5": 12.03,
    "Pressure": 986,
    "Temperature": 3,
    "AirQualityIndex": 87.06
  },
  {
    "id": "SAVEDNIPRO_1395",
    "cityName": "Rivne",
    "stationName": "Street Kostromska, 73",
    "localName": "",
    "latitude": "50.6331689",
    "longitude": "26.2856835",
    "humidity": 41.61,
    "PM10": 63.24,
    "PM2n5": 12.97,
    "Pressure": 987,
    "Temperature": -4,
    "AirQualityIndex": 18.78
  },
  {
    "id": "SAVEDNIPRO_1396",
    "cityName": "Khrystanivka",
    "stationName": "Street Shevchenka, 23",
    "localName": "",
    "latitude": "50.297342",
    "longitude": "33.376383",
    "humidity": 54.17,
    "PM10": 52.07,
    "PM2n5": 14.11,
    "Pressure": 1004,
    "Temperature": -6,
    "AirQualityIndex": 68.34
  },
  {
    "id": "SAVEDNIPRO_1397",
    "cityName": "Baranivka",
    "stationName": "Street Soborna, 6",
    "localName": "",
    "latitude": "50.293875",
    "longitude": "27.669171",
    "humidity": 54.6,
    "PM10": 75.31,
    "PM2n5": 14.53,
    "Pressure": 1003,
    "Temperature": 1,
    "AirQualityIndex": 158.39
  },
  {
    "id": "SAVEDNIPRO_1411",
    "cityName": "Chornomorsk",
    "stationName": "Street Parkova, 22",
    "localName": "",
    "latitude": "46.2997433",
    "longitude": "30.6593683",
    "humidity": 67.01,
    "PM10": 21.63,
    "PM2n5": 1.6,
    "Pressure": 1014,
    "Temperature": -6,
    "AirQualityIndex": 91.94
  },
  {
    "id": "SAVEDNIPRO_1412",
    "cityName": "Nadvirna",
    "stationName": "maidan Shevchenka, 33",
    "localName": "",
    "latitude": "48.633951",
    "longitude": "24.567418",
    "humidity": 45.78,
    "PM10": 1.31,
    "PM2n5": 11.1,
    "Pressure": 993,
    "Temperature": -7,
    "AirQualityIndex": 111.89
  },
  {
    "id": "SAVEDNIPRO_1424",
    "cityName": "Kyiv",
    "stationName": "Street Yuriia Popravky, 4",
    "localName": "",
    "latitude": "50.455080",
    "longitude": "30.629557",
    "humidity": 30.88,
    "PM10": 7.4,
    "PM2n5": 9.32,
    "Pressure": 1009,
    "Temperature": 1,
    "AirQualityIndex": 61.15
  },
  {
    "id": "SAVEDNIPRO_1425",
    "cityName": "Kyiv",
    "stationName": "prospekt Heroiv Stalinhrada 28",
    "localName": "",
    "latitude": "50.513766",
    "longitude": "30.508991",
    "humidity": 30.98,
    "PM10": 42.87,
    "PM2n5": 11.14,
    "Pressure": 1014,
    "Temperature": 2,
    "AirQualityIndex": 143.36
  },
  {
    "id": "SAVEDNIPRO_1426",
    "cityName": "Zaporizhzhia",
    "stationName": "prospekt Yuvileinyi, 19",
    "localName": "",
    "latitude": "47.817382",
    "longitude": "35.054906",
    "humidity": 68.95,
    "PM10": 56.94,
    "PM2n5": 15.33,
    "Pressure": 1009,
    "Temperature": -4,
    "AirQualityIndex": 84.85
  },
  {
    "id": "SAVEDNIPRO_1427",
    "cityName": "Chornomorsk",
    "stationName": "Street Vitaliia Shuma, 9",
    "localName": "",
    "latitude": "46.302583",
    "longitude": "30.642833",
    "humidity": 65.95,
    "PM10": 77.2,
    "PM2n5": 11.93,
    "Pressure": 1004,
    "Temperature": -3,
    "AirQualityIndex": 35.69
  },
  {
    "id": "SAVEDNIPRO_1428",
    "cityName": "Dobropillia",
    "stationName": "mikroraion Molodizhnyi, 36",
    "localName": "",
    "latitude": "48.469470",
    "longitude": "37.079867",
    "humidity": 51.34,
    "PM10": 40.82,
    "PM2n5": 2.19,
    "Pressure": 1016,
    "Temperature": -6,
    "AirQualityIndex": 71.14
  },
  {
    "id": "SAVEDNIPRO_1448",
    "cityName": "Rusaniv",
    "stationName": "Street Partyzanska",
    "localName": "",
    "latitude": "50.503785",
    "longitude": "31.149722",
    "humidity": 45.15,
    "PM10": 10.64,
    "PM2n5": 19.72,
    "Pressure": 1009,
    "Temperature": -2,
    "AirQualityIndex": 72.5
  },
  {
    "id": "SAVEDNIPRO_1507",
    "cityName": "Irpin",
    "stationName": "Street Varshavska, 114",
    "localName": "",
    "latitude": "50.537636",
    "longitude": "30.266628",
    "humidity": 32.88,
    "PM10": 78.82,
    "PM2n5": 12.12,
    "Pressure": 983,
    "Temperature": 1,
    "AirQualityIndex": 174.24
  },
  {
    "id": "SAVEDNIPRO_1510",
    "cityName": "Kharkiv",
    "stationName": "Street Tobolska, 41A",
    "localName": "",
    "latitude": "50.027901",
    "longitude": "36.215151",
    "humidity": 73.01,
    "PM10": 2.36,
    "PM2n5": 13.7,
    "Pressure": 1003,
    "Temperature": -3,
    "AirQualityIndex": 199.6
  },
  {
    "id": "SAVEDNIPRO_1511",
    "cityName": "Voropaiv",
    "stationName": "Street Kyivska, 100",
    "localName": "",
    "latitude": "50.785232",
    "longitude": "30.683176",
    "humidity": 28.48,
    "PM10": 43.67,
    "PM2n5": 7.88,
    "Pressure": 998,
    "Temperature": -7,
    "AirQualityIndex": 85.75
  },
  {
    "id": "SAVEDNIPRO_1513",
    "cityName": "Chaiky",
    "stationName": "Street Leontovycha, 16",
    "localName": "",
    "latitude": "50.432666",
    "longitude": "30.279492",
    "humidity": 45.25,
    "PM10": 75.01,
    "PM2n5": 13.16,
    "Pressure": 1015,
    "Temperature": -3,
    "AirQualityIndex": 97.33
  },
  {
    "id": "SAVEDNIPRO_1514",
    "cityName": "Radomyshl",
    "stationName": "Street Shevchenka, 25",
    "localName": "",
    "latitude": "50.501932",
    "longitude": "29.229013",
    "humidity": 36.42,
    "PM10": 47.77,
    "PM2n5": 14.53,
    "Pressure": 1018,
    "Temperature": 2,
    "AirQualityIndex": 175.55
  },
  {
    "id": "SAVEDNIPRO_1538",
    "cityName": "Hnidyn",
    "stationName": "Street Luhova",
    "localName": "",
    "latitude": "50.3290625",
    "longitude": "30.6978125",
    "humidity": 34.27,
    "PM10": 5.57,
    "PM2n5": 19.11,
    "Pressure": 986,
    "Temperature": -7,
    "AirQualityIndex": 65.05
  },
  {
    "id": "SAVEDNIPRO_1540",
    "cityName": "Kyiv",
    "stationName": "Street Borshchahivska, 16",
    "localName": "",
    "latitude": "50.447179",
    "longitude": "30.468070",
    "humidity": 72.5,
    "PM10": 45.21,
    "PM2n5": 18.49,
    "Pressure": 1002,
    "Temperature": -3,
    "AirQualityIndex": 7.91
  },
  {
    "id": "SAVEDNIPRO_1542",
    "cityName": "Liubar",
    "stationName": "Street Nezalezhnosti, 39",
    "localName": "",
    "latitude": "49.924459",
    "longitude": "27.746386",
    "humidity": 41.43,
    "PM10": 70.97,
    "PM2n5": 10.63,
    "Pressure": 1012,
    "Temperature": -7,
    "AirQualityIndex": 132.23
  },
  {
    "id": "SAVEDNIPRO_1543",
    "cityName": "Kharkiv",
    "stationName": "Hryhorivske shose, 57",
    "localName": "",
    "latitude": "49.979663",
    "longitude": "36.184030",
    "humidity": 58.38,
    "PM10": 71.94,
    "PM2n5": 9.19,
    "Pressure": 997,
    "Temperature": -6,
    "AirQualityIndex": 148.41
  },
  {
    "id": "SAVEDNIPRO_1544",
    "cityName": "Kyiv",
    "stationName": "Street Anny Akhmatovoi, 47",
    "localName": "",
    "latitude": "50.404406",
    "longitude": "30.615846",
    "humidity": 34.72,
    "PM10": 30.51,
    "PM2n5": 18.25,
    "Pressure": 985,
    "Temperature": -2,
    "AirQualityIndex": 13.07
  },
  {
    "id": "SAVEDNIPRO_1555",
    "cityName": "Raihorodok",
    "stationName": "Street Skhidna, 4",
    "localName": "",
    "latitude": "48.905655",
    "longitude": "37.724880",
    "humidity": 29.01,
    "PM10": 34.97,
    "PM2n5": 1.81,
    "Pressure": 995,
    "Temperature": 0,
    "AirQualityIndex": 16
  },
  {
    "id": "SAVEDNIPRO_1557",
    "cityName": "Sloviansk",
    "stationName": "ploshcha Soborna, 2",
    "localName": "",
    "latitude": "48.851999",
    "longitude": "37.606324",
    "humidity": 72.24,
    "PM10": 50.58,
    "PM2n5": 9.94,
    "Pressure": 1008,
    "Temperature": 1,
    "AirQualityIndex": 86.87
  },
  {
    "id": "SAVEDNIPRO_1558",
    "cityName": "Bakhmut",
    "stationName": "Street Myru, 44",
    "localName": "",
    "latitude": "48.589113",
    "longitude": "38.000524",
    "humidity": 46.01,
    "PM10": 58.48,
    "PM2n5": 11.27,
    "Pressure": 1010,
    "Temperature": -3,
    "AirQualityIndex": 186.22
  },
  {
    "id": "SAVEDNIPRO_1560",
    "cityName": "Mykolaivka",
    "stationName": "Street Mykhaila Petrenka, 7",
    "localName": "",
    "latitude": "48.855326",
    "longitude": "37.774202",
    "humidity": 33.91,
    "PM10": 59.85,
    "PM2n5": 13.66,
    "Pressure": 1004,
    "Temperature": -4,
    "AirQualityIndex": 38.35
  },
  {
    "id": "SAVEDNIPRO_1561",
    "cityName": "Izmail",
    "stationName": "Street Riepina, 12",
    "localName": "",
    "latitude": "45.360426",
    "longitude": "28.818493",
    "humidity": 26.93,
    "PM10": 68.3,
    "PM2n5": 5.96,
    "Pressure": 992,
    "Temperature": 2,
    "AirQualityIndex": 179.94
  },
  {
    "id": "SAVEDNIPRO_1562",
    "cityName": "Toretsk",
    "stationName": "Street Maiakovskoho, 10",
    "localName": "",
    "latitude": "48.397121",
    "longitude": "37.843989",
    "humidity": 34.91,
    "PM10": 6.58,
    "PM2n5": 3.53,
    "Pressure": 992,
    "Temperature": 0,
    "AirQualityIndex": 181.1
  },
  {
    "id": "SAVEDNIPRO_1563",
    "cityName": "Druzhkivka",
    "stationName": "Street Minska, 12",
    "localName": "",
    "latitude": "48.613735",
    "longitude": "37.486107",
    "humidity": 37.53,
    "PM10": 78.89,
    "PM2n5": 13.21,
    "Pressure": 988,
    "Temperature": 0,
    "AirQualityIndex": 154.28
  },
  {
    "id": "SAVEDNIPRO_1564",
    "cityName": "Teplodar",
    "stationName": "Street Biliayivska, 3",
    "localName": "",
    "latitude": "46.5228989",
    "longitude": "30.3185014",
    "humidity": 67.15,
    "PM10": 51.03,
    "PM2n5": 4.73,
    "Pressure": 1005,
    "Temperature": -7,
    "AirQualityIndex": 174.7
  },
  {
    "id": "SAVEDNIPRO_1565",
    "cityName": "Serhiivka",
    "stationName": "Street Haharina, 1A",
    "localName": "",
    "latitude": "46.024188",
    "longitude": "30.362985",
    "humidity": 57.18,
    "PM10": 43.73,
    "PM2n5": 7.86,
    "Pressure": 1018,
    "Temperature": 2,
    "AirQualityIndex": 21.52
  },
  {
    "id": "SAVEDNIPRO_1566",
    "cityName": "Tsarychanka",
    "stationName": "Street 14 Hvardiiskoi Dyvizii, 10",
    "localName": "",
    "latitude": "48.941752",
    "longitude": "34.486318",
    "humidity": 25.87,
    "PM10": 32.37,
    "PM2n5": 4.05,
    "Pressure": 995,
    "Temperature": -2,
    "AirQualityIndex": 120.49
  },
  {
    "id": "SAVEDNIPRO_1568",
    "cityName": "Perechyn",
    "stationName": "ploshcha Narodna, 16",
    "localName": "",
    "latitude": "48.735167",
    "longitude": "22.477306",
    "humidity": 64.41,
    "PM10": 42.62,
    "PM2n5": 15.56,
    "Pressure": 1004,
    "Temperature": 1,
    "AirQualityIndex": 149.83
  },
  {
    "id": "SAVEDNIPRO_1569",
    "cityName": "Kozova",
    "stationName": "Street Mykhaila Hrushevskoho, 32",
    "localName": "",
    "latitude": "49.432754",
    "longitude": "25.144195",
    "humidity": 34.95,
    "PM10": 78.58,
    "PM2n5": 3.24,
    "Pressure": 989,
    "Temperature": -7,
    "AirQualityIndex": 93.56
  },
  {
    "id": "SAVEDNIPRO_1570",
    "cityName": "Novopskov",
    "stationName": "Street Shkilna, 15B",
    "localName": "",
    "latitude": "49.537144",
    "longitude": "39.114868",
    "humidity": 41.66,
    "PM10": 17.74,
    "PM2n5": 4.23,
    "Pressure": 1016,
    "Temperature": -3,
    "AirQualityIndex": 102.39
  },
  {
    "id": "SAVEDNIPRO_1571",
    "cityName": "Bilokurakyne",
    "stationName": "ploshcha Tarasa Shevchenka, 4",
    "localName": "",
    "latitude": "49.525283",
    "longitude": "38.731923",
    "humidity": 61.77,
    "PM10": 3.06,
    "PM2n5": 4.96,
    "Pressure": 996,
    "Temperature": -1,
    "AirQualityIndex": 193.18
  },
  {
    "id": "SAVEDNIPRO_1572",
    "cityName": "Pechenizhyn",
    "stationName": "Street Nezalezhnosti, 15",
    "localName": "",
    "latitude": "48.516707",
    "longitude": "24.883313",
    "humidity": 52.28,
    "PM10": 55.73,
    "PM2n5": 16.77,
    "Pressure": 982,
    "Temperature": 1,
    "AirQualityIndex": 1.97
  },
  {
    "id": "SAVEDNIPRO_1573",
    "cityName": "Petropil",
    "stationName": "Street Molodizhna, 1",
    "localName": "",
    "latitude": "48.014856",
    "longitude": "34.950205",
    "humidity": 52.02,
    "PM10": 24.93,
    "PM2n5": 3,
    "Pressure": 1018,
    "Temperature": 3,
    "AirQualityIndex": 112.89
  },
  {
    "id": "SAVEDNIPRO_1576",
    "cityName": "Vyshniv",
    "stationName": "Street Nezalezhnosti, 80A",
    "localName": "",
    "latitude": "51.197866",
    "longitude": "24.030688",
    "humidity": 74.94,
    "PM10": 17.27,
    "PM2n5": 4.96,
    "Pressure": 983,
    "Temperature": -2,
    "AirQualityIndex": 38.04
  },
  {
    "id": "SAVEDNIPRO_1577",
    "cityName": "Drohobych",
    "stationName": "Street Hrushevskoho, 170",
    "localName": "",
    "latitude": "49.354152",
    "longitude": "23.540407",
    "humidity": 59.7,
    "PM10": 24.21,
    "PM2n5": 4.44,
    "Pressure": 992,
    "Temperature": -3,
    "AirQualityIndex": 135.74
  },
  {
    "id": "SAVEDNIPRO_1579",
    "cityName": "Koriukivka",
    "stationName": "Street Bulvarna, 6",
    "localName": "",
    "latitude": "51.772445",
    "longitude": "32.258389",
    "humidity": 29.83,
    "PM10": 65.43,
    "PM2n5": 9.83,
    "Pressure": 1007,
    "Temperature": -6,
    "AirQualityIndex": 78.15
  },
  {
    "id": "SAVEDNIPRO_1580",
    "cityName": "Semenivka",
    "stationName": "3-y Tsentralnyi provulok, 2",
    "localName": "",
    "latitude": "52.173104",
    "longitude": "32.591975",
    "humidity": 42.95,
    "PM10": 78.39,
    "PM2n5": 13.26,
    "Pressure": 1020,
    "Temperature": -1,
    "AirQualityIndex": 28.8
  },
  {
    "id": "SAVEDNIPRO_1581",
    "cityName": "Khmilnyk",
    "stationName": "Street Stoliarchuka, 10",
    "localName": "",
    "latitude": "49.558073",
    "longitude": "27.956940",
    "humidity": 35.99,
    "PM10": 20.23,
    "PM2n5": 7.57,
    "Pressure": 1018,
    "Temperature": 0,
    "AirQualityIndex": 125.1
  },
  {
    "id": "SAVEDNIPRO_1582",
    "cityName": "Khorostkiv",
    "stationName": "Street Bohdana Lepkoho, 1",
    "localName": "",
    "latitude": "49.212406",
    "longitude": "25.923519",
    "humidity": 42.98,
    "PM10": 66.25,
    "PM2n5": 19.39,
    "Pressure": 989,
    "Temperature": -2,
    "AirQualityIndex": 69.37
  },
  {
    "id": "SAVEDNIPRO_1583",
    "cityName": "Sambir",
    "stationName": "ploshcha Rynok, 1",
    "localName": "",
    "latitude": "49.518117",
    "longitude": "23.196529",
    "humidity": 44.5,
    "PM10": 74.79,
    "PM2n5": 2.37,
    "Pressure": 1018,
    "Temperature": -1,
    "AirQualityIndex": 104.99
  },
  {
    "id": "SAVEDNIPRO_1585",
    "cityName": "Chernihivka",
    "stationName": "Street Ukrainska, 57",
    "localName": "",
    "latitude": "47.194468",
    "longitude": "36.216471",
    "humidity": 32.41,
    "PM10": 28.6,
    "PM2n5": 15.36,
    "Pressure": 1011,
    "Temperature": 2,
    "AirQualityIndex": 129.84
  },
  {
    "id": "SAVEDNIPRO_1586",
    "cityName": "Tetiiv",
    "stationName": "Street Yanusha Ostrozkoho, 5",
    "localName": "",
    "latitude": "49.371778",
    "longitude": "29.679528",
    "humidity": 64.88,
    "PM10": 55.15,
    "PM2n5": 11.28,
    "Pressure": 987,
    "Temperature": 1,
    "AirQualityIndex": 33.4
  },
  {
    "id": "SAVEDNIPRO_1587",
    "cityName": "Snovsk",
    "stationName": "Street Nezalezhnosti, 19",
    "localName": "",
    "latitude": "51.819637",
    "longitude": "31.942129",
    "humidity": 71.59,
    "PM10": 51.51,
    "PM2n5": 16.84,
    "Pressure": 1009,
    "Temperature": -7,
    "AirQualityIndex": 153.03
  },
  {
    "id": "SAVEDNIPRO_1588",
    "cityName": "Sosnytsia",
    "stationName": "Street Osvity, 21A",
    "localName": "",
    "latitude": "51.524997",
    "longitude": "32.510375",
    "humidity": 64.21,
    "PM10": 37.82,
    "PM2n5": 8.28,
    "Pressure": 1009,
    "Temperature": 1,
    "AirQualityIndex": 116.09
  },
  {
    "id": "SAVEDNIPRO_1589",
    "cityName": "Kiliia",
    "stationName": "Street Dunaiska, 92",
    "localName": "",
    "latitude": "45.452392",
    "longitude": "29.261819",
    "humidity": 35.33,
    "PM10": 20.27,
    "PM2n5": 4.47,
    "Pressure": 992,
    "Temperature": -4,
    "AirQualityIndex": 75.02
  },
  {
    "id": "SAVEDNIPRO_1590",
    "cityName": "Yuzhne",
    "stationName": "prospekt Hryhorivskoho Desanta, 18",
    "localName": "",
    "latitude": "46.621765",
    "longitude": "31.101823",
    "humidity": 67.82,
    "PM10": 62.63,
    "PM2n5": 14.88,
    "Pressure": 985,
    "Temperature": -5,
    "AirQualityIndex": 163.5
  },
  {
    "id": "SAVEDNIPRO_1592",
    "cityName": "Novoukrainka",
    "stationName": "Street Pokrovska, 70",
    "localName": "",
    "latitude": "48.316617",
    "longitude": "31.523581",
    "humidity": 51.75,
    "PM10": 5.3,
    "PM2n5": 13.54,
    "Pressure": 987,
    "Temperature": 0,
    "AirQualityIndex": 114.81
  },
  {
    "id": "SAVEDNIPRO_1593",
    "cityName": "Vasylkivka",
    "stationName": "Vasylkivka",
    "localName": "",
    "latitude": "48.217358",
    "longitude": "36.011523",
    "humidity": 66.51,
    "PM10": 66.43,
    "PM2n5": 12.64,
    "Pressure": 993,
    "Temperature": 2,
    "AirQualityIndex": 40.19
  },
  {
    "id": "SAVEDNIPRO_1595",
    "cityName": "Kulykivka",
    "stationName": "Street Myru, 67",
    "localName": "",
    "latitude": "51.373776",
    "longitude": "31.645106",
    "humidity": 73.41,
    "PM10": 65.73,
    "PM2n5": 10.54,
    "Pressure": 1010,
    "Temperature": 0,
    "AirQualityIndex": 18.99
  },
  {
    "id": "SAVEDNIPRO_1596",
    "cityName": "Mykhailivka",
    "stationName": "Street Shevchenka, 31",
    "localName": "",
    "latitude": "46.585535",
    "longitude": "34.562095",
    "humidity": 59.37,
    "PM10": 31.61,
    "PM2n5": 6.29,
    "Pressure": 983,
    "Temperature": 3,
    "AirQualityIndex": 140.9
  },
  {
    "id": "SAVEDNIPRO_1597",
    "cityName": "Fastiv",
    "stationName": "Street Trudova, 32",
    "localName": "",
    "latitude": "50.062178",
    "longitude": "29.918784",
    "humidity": 26.33,
    "PM10": 49.6,
    "PM2n5": 13.45,
    "Pressure": 1014,
    "Temperature": -1,
    "AirQualityIndex": 127.1
  },
  {
    "id": "SAVEDNIPRO_1601",
    "cityName": "Bilhorod-Dnistrovskyi",
    "stationName": "Street Peremohy, 25",
    "localName": "",
    "latitude": "46.181611",
    "longitude": "30.362611",
    "humidity": 52.52,
    "PM10": 32.79,
    "PM2n5": 6.12,
    "Pressure": 1015,
    "Temperature": -5,
    "AirQualityIndex": 38.3
  },
  {
    "id": "SAVEDNIPRO_1602",
    "cityName": "Zatoka",
    "stationName": "Street Prymorska, 20",
    "localName": "",
    "latitude": "46.067602",
    "longitude": "30.457430",
    "humidity": 70.06,
    "PM10": 30.9,
    "PM2n5": 2.61,
    "Pressure": 1017,
    "Temperature": -6,
    "AirQualityIndex": 53.61
  },
  {
    "id": "SAVEDNIPRO_1603",
    "cityName": "Verkhovyna",
    "stationName": "Street Ivana Franka, 3",
    "localName": "",
    "latitude": "48.155409",
    "longitude": "24.829758",
    "humidity": 63.66,
    "PM10": 73.38,
    "PM2n5": 7.95,
    "Pressure": 985,
    "Temperature": -7,
    "AirQualityIndex": 135.31
  },
  {
    "id": "SAVEDNIPRO_1604",
    "cityName": "Vorokhta",
    "stationName": "Street Danyla Halytsoho, 41",
    "localName": "",
    "latitude": "48.292875",
    "longitude": "24.563048",
    "humidity": 74.39,
    "PM10": 39.2,
    "PM2n5": 4.84,
    "Pressure": 1005,
    "Temperature": -5,
    "AirQualityIndex": 167.66
  },
  {
    "id": "SAVEDNIPRO_1605",
    "cityName": "Yasinia",
    "stationName": "Street Myru, 6",
    "localName": "",
    "latitude": "48.271480",
    "longitude": "24.360622",
    "humidity": 61.8,
    "PM10": 51.3,
    "PM2n5": 1.2,
    "Pressure": 991,
    "Temperature": 3,
    "AirQualityIndex": 63.32
  },
  {
    "id": "SAVEDNIPRO_1606",
    "cityName": "Kosiv",
    "stationName": "maidan Nezalezhnosti, 11",
    "localName": "",
    "latitude": "48.320237",
    "longitude": "25.091142",
    "humidity": 26.02,
    "PM10": 42.49,
    "PM2n5": 13.52,
    "Pressure": 991,
    "Temperature": 2,
    "AirQualityIndex": 11.35
  },
  {
    "id": "SAVEDNIPRO_1607",
    "cityName": "Yaremche",
    "stationName": "Street Svobody, 265",
    "localName": "",
    "latitude": "48.448912",
    "longitude": "24.553462",
    "humidity": 46.18,
    "PM10": 48.35,
    "PM2n5": 17.63,
    "Pressure": 980,
    "Temperature": -5,
    "AirQualityIndex": 103.43
  },
  {
    "id": "SAVEDNIPRO_1637",
    "cityName": "Maniava",
    "stationName": "Street Nezalezhnosti, 20",
    "localName": "",
    "latitude": "48.653396",
    "longitude": "24.374891",
    "humidity": 31.17,
    "PM10": 28.59,
    "PM2n5": 11.58,
    "Pressure": 1015,
    "Temperature": 2,
    "AirQualityIndex": 55.38
  },
  {
    "id": "SAVEDNIPRO_1638",
    "cityName": "Cherkasy",
    "stationName": "provulok Krainii, 24",
    "localName": "",
    "latitude": "49.4058272",
    "longitude": "32.0392034",
    "humidity": 50.17,
    "PM10": 28.63,
    "PM2n5": 12.35,
    "Pressure": 994,
    "Temperature": -1,
    "AirQualityIndex": 154.56
  },
  {
    "id": "SAVEDNIPRO_1639",
    "cityName": "Tomashpil",
    "stationName": "ploshcha Tarasa Shevchenka, 1",
    "localName": "",
    "latitude": "48.536566",
    "longitude": "28.513644",
    "humidity": 34.65,
    "PM10": 5.35,
    "PM2n5": 11.5,
    "Pressure": 1007,
    "Temperature": 1,
    "AirQualityIndex": 98.21
  },
  {
    "id": "SAVEDNIPRO_1645",
    "cityName": "Bilshivtsi",
    "stationName": "Street Striletska, 5",
    "localName": "",
    "latitude": "49.182508",
    "longitude": "24.743334",
    "humidity": 32.83,
    "PM10": 18.18,
    "PM2n5": 4.94,
    "Pressure": 984,
    "Temperature": -7,
    "AirQualityIndex": 167.9
  },
  {
    "id": "SAVEDNIPRO_1646",
    "cityName": "Zaozerne",
    "stationName": "Street Shkilna, 59",
    "localName": "",
    "latitude": "48.690250",
    "longitude": "29.155364",
    "humidity": 66.93,
    "PM10": 76.08,
    "PM2n5": 19.76,
    "Pressure": 999,
    "Temperature": 0,
    "AirQualityIndex": 149
  },
  {
    "id": "SAVEDNIPRO_2738",
    "cityName": "Zaporizhzhia",
    "stationName": "Street Sviatoho Mykolaia 67",
    "localName": "",
    "latitude": "47.8159538",
    "longitude": "35.1734128",
    "humidity": 60.18,
    "PM10": 53.13,
    "PM2n5": 6.89,
    "Pressure": 989,
    "Temperature": -7,
    "AirQualityIndex": 30.28
  },
  {
    "id": "SAVEDNIPRO_2923",
    "cityName": "Petropavlivska Borshchahivka",
    "stationName": "Street Lvivska, 1A, k.4-2",
    "localName": "",
    "latitude": "50.433252",
    "longitude": "30.319928",
    "humidity": 38.86,
    "PM10": 72.14,
    "PM2n5": 18.92,
    "Pressure": 982,
    "Temperature": 3,
    "AirQualityIndex": 51.73
  },
  {
    "id": "SAVEDNIPRO_2924",
    "cityName": "Kyiv",
    "stationName": "Street Heroiv Oborony, 13",
    "localName": "",
    "latitude": "50.383883",
    "longitude": "30.496689",
    "humidity": 53.06,
    "PM10": 3.23,
    "PM2n5": 8.86,
    "Pressure": 984,
    "Temperature": -3,
    "AirQualityIndex": 173.97
  },
  {
    "id": "SAVEDNIPRO_2925",
    "cityName": "Kyiv",
    "stationName": "Street Tykhoritska, 30/7",
    "localName": "",
    "latitude": "50.4003378",
    "longitude": "30.4966682",
    "humidity": 31.35,
    "PM10": 61.4,
    "PM2n5": 5.79,
    "Pressure": 1005,
    "Temperature": -5,
    "AirQualityIndex": 24.09
  },
  {
    "id": "SAVEDNIPRO_2944",
    "cityName": "Nadvirna",
    "stationName": "Street Soborna, 120",
    "localName": "",
    "latitude": "48.613466",
    "longitude": "24.575289",
    "humidity": 43.84,
    "PM10": 79.17,
    "PM2n5": 8.86,
    "Pressure": 997,
    "Temperature": 3,
    "AirQualityIndex": 59.24
  },
  {
    "id": "SAVEDNIPRO_2946",
    "cityName": "Verkhovyna",
    "stationName": "Street Kryvets",
    "localName": "",
    "latitude": "48.147531",
    "longitude": "24.785409",
    "humidity": 27.1,
    "PM10": 19.14,
    "PM2n5": 1.54,
    "Pressure": 984,
    "Temperature": -5,
    "AirQualityIndex": 197.38
  },
  {
    "id": "SAVEDNIPRO_2947",
    "cityName": "Kyiv",
    "stationName": "Street Desiatynna, 13",
    "localName": "",
    "latitude": "50.382794",
    "longitude": "30.457889",
    "humidity": 31.37,
    "PM10": 4.14,
    "PM2n5": 3.34,
    "Pressure": 983,
    "Temperature": 0,
    "AirQualityIndex": 79.81
  },
  {
    "id": "SAVEDNIPRO_2948",
    "cityName": "Dachne",
    "stationName": "provulok Aptechnyi, 5",
    "localName": "",
    "latitude": "46.582371",
    "longitude": "30.550164",
    "humidity": 70.73,
    "PM10": 45.94,
    "PM2n5": 13.98,
    "Pressure": 998,
    "Temperature": 3,
    "AirQualityIndex": 114.76
  },
  {
    "id": "SAVEDNIPRO_2971",
    "cityName": "Nadvirna",
    "stationName": "Street Danyla Halytskoho",
    "localName": "",
    "latitude": "48.637791",
    "longitude": "24.589826",
    "humidity": 62.37,
    "PM10": 14.19,
    "PM2n5": 9.88,
    "Pressure": 1000,
    "Temperature": 0,
    "AirQualityIndex": 53.88
  },
  {
    "id": "SAVEDNIPRO_2972",
    "cityName": "Tatariv",
    "stationName": "urochyshche Pihy, 660",
    "localName": "",
    "latitude": "48.334527",
    "longitude": "24.581930",
    "humidity": 45.77,
    "PM10": 7.28,
    "PM2n5": 19.85,
    "Pressure": 1001,
    "Temperature": -2,
    "AirQualityIndex": 148.89
  },
  {
    "id": "SAVEDNIPRO_2973",
    "cityName": "Kyiv",
    "stationName": "2-y Tupykovyi provulok, 18",
    "localName": "",
    "latitude": "50.3683248",
    "longitude": "30.6842978",
    "humidity": 70.4,
    "PM10": 62.11,
    "PM2n5": 15.6,
    "Pressure": 983,
    "Temperature": -5,
    "AirQualityIndex": 48.3
  },
  {
    "id": "SAVEDNIPRO_2974",
    "cityName": "Dnipro",
    "stationName": "prospekt Bohdana Khmelnytskoho, 156",
    "localName": "",
    "latitude": "48.389709",
    "longitude": "34.999168",
    "humidity": 61.45,
    "PM10": 5.31,
    "PM2n5": 1.25,
    "Pressure": 1012,
    "Temperature": -3,
    "AirQualityIndex": 73.96
  },
  {
    "id": "SAVEDNIPRO_3014",
    "cityName": "Brovary",
    "stationName": "Street Haidamatska, 33",
    "localName": "",
    "latitude": "50.496656",
    "longitude": "30.744022",
    "humidity": 67.29,
    "PM10": 27.55,
    "PM2n5": 18.16,
    "Pressure": 1007,
    "Temperature": -7,
    "AirQualityIndex": 108.55
  },
  {
    "id": "SAVEDNIPRO_3015",
    "cityName": "Peremoha",
    "stationName": "Street Korolova, 10",
    "localName": "",
    "latitude": "50.542000",
    "longitude": "30.825502",
    "humidity": 35.92,
    "PM10": 72.29,
    "PM2n5": 11.65,
    "Pressure": 1012,
    "Temperature": 0,
    "AirQualityIndex": 59.4
  },
  {
    "id": "SAVEDNIPRO_3016",
    "cityName": "Kyiv",
    "stationName": "Street Budindustrii, 4",
    "localName": "",
    "latitude": "50.402528",
    "longitude": "30.568056",
    "humidity": 64.6,
    "PM10": 72.72,
    "PM2n5": 2.15,
    "Pressure": 1013,
    "Temperature": 0,
    "AirQualityIndex": 198.65
  },
  {
    "id": "SAVEDNIPRO_3017",
    "cityName": "Illinivka",
    "stationName": "Street Krynychna, 32",
    "localName": "",
    "latitude": "48.491370",
    "longitude": "37.673650",
    "humidity": 58.78,
    "PM10": 47.4,
    "PM2n5": 19.33,
    "Pressure": 986,
    "Temperature": 0,
    "AirQualityIndex": 57.67
  },
  {
    "id": "SAVEDNIPRO_3018",
    "cityName": "Kyiv",
    "stationName": "Street Zhylianska, 30A",
    "localName": "",
    "latitude": "50.434808",
    "longitude": "30.510823",
    "humidity": 38.01,
    "PM10": 50.71,
    "PM2n5": 9.59,
    "Pressure": 1009,
    "Temperature": -2,
    "AirQualityIndex": 53.15
  },
  {
    "id": "SAVEDNIPRO_3021",
    "cityName": "Mykolaiv",
    "stationName": "Street Metalurhiv 8",
    "localName": "",
    "latitude": "46.868088",
    "longitude": "32.009947",
    "humidity": 62.65,
    "PM10": 23.66,
    "PM2n5": 7.96,
    "Pressure": 999,
    "Temperature": -3,
    "AirQualityIndex": 42.52
  },
  {
    "id": "SAVEDNIPRO_3022",
    "cityName": "Dnipro",
    "stationName": "Street Nakhimova 41",
    "localName": "",
    "latitude": "48.4464278",
    "longitude": "35.0151460",
    "humidity": 63.74,
    "PM10": 34.04,
    "PM2n5": 8.13,
    "Pressure": 993,
    "Temperature": -6,
    "AirQualityIndex": 188.62
  },
  {
    "id": "SAVEDNIPRO_3144",
    "cityName": "Svydivok",
    "stationName": "Street Sydorchuka, 37",
    "localName": "",
    "latitude": "49.512636",
    "longitude": "31.906911",
    "humidity": 56.65,
    "PM10": 6.76,
    "PM2n5": 2.02,
    "Pressure": 999,
    "Temperature": -6,
    "AirQualityIndex": 137.82
  },
  {
    "id": "SAVEDNIPRO_3210",
    "cityName": "Vyshneve",
    "stationName": "Street Pershotravneva, 21",
    "localName": "Luftdaten #40723",
    "latitude": "50.382",
    "longitude": "30.38",
    "humidity": 67.34,
    "PM10": 77.52,
    "PM2n5": 15.8,
    "Pressure": 999,
    "Temperature": -7,
    "AirQualityIndex": 69.34
  },
  {
    "id": "SAVEDNIPRO_3260",
    "cityName": "Cherkasy",
    "stationName": "Street 30-richchia Peremohy, 38",
    "localName": "",
    "latitude": "49.4255539915765",
    "longitude": "32.01328954180976",
    "humidity": 68.25,
    "PM10": 59.44,
    "PM2n5": 1.29,
    "Pressure": 995,
    "Temperature": 3,
    "AirQualityIndex": 116.84
  },
  {
    "id": "SAVEDNIPRO_3262",
    "cityName": "Cherkasy",
    "stationName": "bulvar Shevchenko, 460",
    "localName": "",
    "latitude": "49.422005",
    "longitude": "32.096475",
    "humidity": 55.67,
    "PM10": 22.57,
    "PM2n5": 16.79,
    "Pressure": 1005,
    "Temperature": 3,
    "AirQualityIndex": 144.25
  },
  {
    "id": "SAVEDNIPRO_3263",
    "cityName": "Cherkasy",
    "stationName": "Street Baidy Vyshnevetskoho, 49",
    "localName": "",
    "latitude": "49.442538",
    "longitude": "32.056531",
    "humidity": 38.45,
    "PM10": 75.91,
    "PM2n5": 17.16,
    "Pressure": 999,
    "Temperature": -2,
    "AirQualityIndex": 129.05
  },
  {
    "id": "SAVEDNIPRO_3264",
    "cityName": "Cherkasy",
    "stationName": "Street Pakhariv Khutir, 29",
    "localName": "",
    "latitude": "49.456974",
    "longitude": "32.007218",
    "humidity": 31.66,
    "PM10": 36.86,
    "PM2n5": 19.74,
    "Pressure": 997,
    "Temperature": -7,
    "AirQualityIndex": 106.62
  },
  {
    "id": "SAVEDNIPRO_3306",
    "cityName": "Kyiv",
    "stationName": "Street Lavrska, 8",
    "localName": "",
    "latitude": "50.436484",
    "longitude": "30.552905",
    "humidity": 43,
    "PM10": 8.62,
    "PM2n5": 4.81,
    "Pressure": 1004,
    "Temperature": -4,
    "AirQualityIndex": 40.59
  },
  {
    "id": "SAVEDNIPRO_3398",
    "cityName": "Kyiv",
    "stationName": "Street Vasylia Tiutiunnyka, 53",
    "localName": "",
    "latitude": "50.417128",
    "longitude": "30.528690",
    "humidity": 56.99,
    "PM10": 25.92,
    "PM2n5": 11.25,
    "Pressure": 990,
    "Temperature": -7,
    "AirQualityIndex": 186.17
  },
  {
    "id": "SAVEDNIPRO_3401",
    "cityName": "Kyiv",
    "stationName": "Street Yelyzavety Chavdar, 6",
    "localName": "",
    "latitude": "50.3915128",
    "longitude": "30.6237862",
    "humidity": 72.99,
    "PM10": 1.98,
    "PM2n5": 5.67,
    "Pressure": 993,
    "Temperature": 1,
    "AirQualityIndex": 14.22
  },
  {
    "id": "SAVEDNIPRO_3418",
    "cityName": "Kremenets",
    "stationName": "Street Slovatskoho",
    "localName": "",
    "latitude": "50.095595",
    "longitude": "25.722824",
    "humidity": 36.74,
    "PM10": 3.34,
    "PM2n5": 19.85,
    "Pressure": 998,
    "Temperature": -6,
    "AirQualityIndex": 31.86
  },
  {
    "id": "SAVEDNIPRO_3419",
    "cityName": "Petropavlivska Borshchahivka",
    "stationName": "Street Dnipropetrovska",
    "localName": "",
    "latitude": "50.4218146",
    "longitude": "30.3273005",
    "humidity": 64.24,
    "PM10": 27.63,
    "PM2n5": 8.19,
    "Pressure": 1011,
    "Temperature": -4,
    "AirQualityIndex": 100.34
  },
  {
    "id": "SAVEDNIPRO_3420",
    "cityName": "Lviv",
    "stationName": "Street Zelena, 27",
    "localName": "",
    "latitude": "49.833325",
    "longitude": "24.039184",
    "humidity": 68.51,
    "PM10": 53.51,
    "PM2n5": 7.48,
    "Pressure": 1001,
    "Temperature": -6,
    "AirQualityIndex": 142.27
  },
  {
    "id": "SAVEDNIPRO_3422",
    "cityName": "Kyiv",
    "stationName": "bulvar Perova, 10A",
    "localName": "",
    "latitude": "50.471205",
    "longitude": "30.598600",
    "humidity": 73.99,
    "PM10": 20.13,
    "PM2n5": 10.74,
    "Pressure": 1001,
    "Temperature": -4,
    "AirQualityIndex": 28.66
  },
  {
    "id": "SAVEDNIPRO_3423",
    "cityName": "Kozyn",
    "stationName": "Street Zarichna, 4",
    "localName": "",
    "latitude": "50.234897",
    "longitude": "30.663275",
    "humidity": 74.51,
    "PM10": 47.16,
    "PM2n5": 12.36,
    "Pressure": 983,
    "Temperature": -2,
    "AirQualityIndex": 104.99
  },
  {
    "id": "SAVEDNIPRO_3424",
    "cityName": "Vyshenky",
    "stationName": "Street Velyka Naberezhna",
    "localName": "",
    "latitude": "50.2850885",
    "longitude": "30.6995002",
    "humidity": 51.43,
    "PM10": 8.45,
    "PM2n5": 2.99,
    "Pressure": 1007,
    "Temperature": -6,
    "AirQualityIndex": 150
  },
  {
    "id": "SAVEDNIPRO_3535",
    "cityName": "Kyiv",
    "stationName": "Street Sovska, 23",
    "localName": "",
    "latitude": "50.397128",
    "longitude": "30.455709",
    "humidity": 51.45,
    "PM10": 55.76,
    "PM2n5": 13.86,
    "Pressure": 1000,
    "Temperature": 1,
    "AirQualityIndex": 53.61
  },
  {
    "id": "SAVEDNIPRO_3572",
    "cityName": "Kyiv",
    "stationName": "Street Mykhaila Drahomanova, 17",
    "localName": "",
    "latitude": "50.409345",
    "longitude": "30.639613",
    "humidity": 69.63,
    "PM10": 28.92,
    "PM2n5": 2.45,
    "Pressure": 983,
    "Temperature": -6,
    "AirQualityIndex": 137.96
  },
  {
    "id": "SAVEDNIPRO_3594",
    "cityName": "Baranivka",
    "stationName": "Street Ivana Franka, 1A",
    "localName": "",
    "latitude": "50.287114",
    "longitude": "27.648709",
    "humidity": 73.19,
    "PM10": 77.56,
    "PM2n5": 16.82,
    "Pressure": 1004,
    "Temperature": 2,
    "AirQualityIndex": 123.21
  },
  {
    "id": "SAVEDNIPRO_3595",
    "cityName": "Dnipro",
    "stationName": "Street Vysokovoltna, 14m",
    "localName": "",
    "latitude": "48.423869",
    "longitude": "35.031133",
    "humidity": 58.37,
    "PM10": 28.71,
    "PM2n5": 4.4,
    "Pressure": 1016,
    "Temperature": 0,
    "AirQualityIndex": 133.47
  },
  {
    "id": "SAVEDNIPRO_3596",
    "cityName": "Horishni Plavni",
    "stationName": "Street Horkoho, 195",
    "localName": "",
    "latitude": "49.034799",
    "longitude": "33.564750",
    "humidity": 26.81,
    "PM10": 26.14,
    "PM2n5": 1.87,
    "Pressure": 983,
    "Temperature": -2,
    "AirQualityIndex": 161.23
  },
  {
    "id": "SAVEDNIPRO_3597",
    "cityName": "Khotiv",
    "stationName": "Street Lisova, 34",
    "localName": "",
    "latitude": "50.3328803",
    "longitude": "30.4440768",
    "humidity": 57.53,
    "PM10": 19.45,
    "PM2n5": 9.71,
    "Pressure": 1009,
    "Temperature": -4,
    "AirQualityIndex": 169.83
  },
  {
    "id": "SAVEDNIPRO_3605",
    "cityName": "Dnipro",
    "stationName": "Street Molodohvardiiska, 18",
    "localName": "",
    "latitude": "48.476547",
    "longitude": "35.117154",
    "humidity": 42.99,
    "PM10": 17.31,
    "PM2n5": 5.13,
    "Pressure": 995,
    "Temperature": -4,
    "AirQualityIndex": 131.05
  },
  {
    "id": "SAVEDNIPRO_3608",
    "cityName": "Dnipro",
    "stationName": "Street 20-richchia Peremohy, 43",
    "localName": "",
    "latitude": "48.416020",
    "longitude": "35.132420",
    "humidity": 65.36,
    "PM10": 63.66,
    "PM2n5": 6.38,
    "Pressure": 1006,
    "Temperature": -4,
    "AirQualityIndex": 109.18
  },
  {
    "id": "SAVEDNIPRO_3616",
    "cityName": "Dnipro",
    "stationName": "Street Topolyna, 35",
    "localName": "",
    "latitude": "48.391809",
    "longitude": "35.021741",
    "humidity": 70.5,
    "PM10": 38.78,
    "PM2n5": 19.35,
    "Pressure": 1018,
    "Temperature": 3,
    "AirQualityIndex": 127.19
  },
  {
    "id": "SAVEDNIPRO_3617",
    "cityName": "Dnipro",
    "stationName": "Street Chernyshevskoho, 24A",
    "localName": "",
    "latitude": "48.453418",
    "longitude": "35.053162",
    "humidity": 42.39,
    "PM10": 68.61,
    "PM2n5": 1.63,
    "Pressure": 985,
    "Temperature": 0,
    "AirQualityIndex": 23.43
  },
  {
    "id": "SAVEDNIPRO_3683",
    "cityName": "Krekhaiv",
    "stationName": "Sadove tovarystvo Khimik",
    "localName": "",
    "latitude": "50.783955",
    "longitude": "30.769977",
    "humidity": 50.76,
    "PM10": 56.91,
    "PM2n5": 7.32,
    "Pressure": 1001,
    "Temperature": -1,
    "AirQualityIndex": 165.51
  },
  {
    "id": "SAVEDNIPRO_4061",
    "cityName": "Dnipro",
    "stationName": "Donetske shose, 1",
    "localName": "",
    "latitude": "48.5104497",
    "longitude": "34.9874743",
    "humidity": 54.05,
    "PM10": 62.31,
    "PM2n5": 10.34,
    "Pressure": 1015,
    "Temperature": 0,
    "AirQualityIndex": 84.79
  },
  {
    "id": "SAVEDNIPRO_4185",
    "cityName": "Rozhivka",
    "stationName": "Street Slavy, 17",
    "localName": "",
    "latitude": "50.600621",
    "longitude": "30.761064",
    "humidity": 28.01,
    "PM10": 16.9,
    "PM2n5": 5.93,
    "Pressure": 986,
    "Temperature": -2,
    "AirQualityIndex": 193.35
  },
  {
    "id": "SAVEDNIPRO_4186",
    "cityName": "Ukrainka",
    "stationName": "Street Sosnova",
    "localName": "",
    "latitude": "50.155032",
    "longitude": "30.746305",
    "humidity": 70.49,
    "PM10": 73.3,
    "PM2n5": 17.89,
    "Pressure": 1000,
    "Temperature": -6,
    "AirQualityIndex": 196.12
  },
  {
    "id": "SAVEDNIPRO_4187",
    "cityName": "Brovary",
    "stationName": "Street Oleksiia Bolshechenka, 7",
    "localName": "",
    "latitude": "50.519816",
    "longitude": "30.774017",
    "humidity": 57.66,
    "PM10": 17.03,
    "PM2n5": 9.92,
    "Pressure": 1010,
    "Temperature": -3,
    "AirQualityIndex": 2.07
  },
  {
    "id": "SAVEDNIPRO_4189",
    "cityName": "Kharkiv",
    "stationName": "prospekt Nauky, 43",
    "localName": "",
    "latitude": "50.033602",
    "longitude": "36.220648",
    "humidity": 67.46,
    "PM10": 25.63,
    "PM2n5": 2.71,
    "Pressure": 1002,
    "Temperature": 3,
    "AirQualityIndex": 6.31
  },
  {
    "id": "SAVEDNIPRO_4190",
    "cityName": "Vita-Poshtova",
    "stationName": "Street Ozerna",
    "localName": "",
    "latitude": "50.307679",
    "longitude": "30.363271",
    "humidity": 65.28,
    "PM10": 7.24,
    "PM2n5": 18.06,
    "Pressure": 985,
    "Temperature": 1,
    "AirQualityIndex": 139.46
  },
  {
    "id": "SAVEDNIPRO_4200",
    "cityName": "Dnipro",
    "stationName": "Street Hidroparkova, 9",
    "localName": "",
    "latitude": "48.478241",
    "longitude": "34.903792",
    "humidity": 47.43,
    "PM10": 18.16,
    "PM2n5": 10.03,
    "Pressure": 1015,
    "Temperature": -2,
    "AirQualityIndex": 92.26
  },
  {
    "id": "SAVEDNIPRO_4201",
    "cityName": "Kyiv",
    "stationName": "Street Pavla Pototskoho",
    "localName": "",
    "latitude": "50.3963897",
    "longitude": "30.4485849",
    "humidity": 56.9,
    "PM10": 31.54,
    "PM2n5": 3.54,
    "Pressure": 988,
    "Temperature": -6,
    "AirQualityIndex": 136.89
  },
  {
    "id": "SAVEDNIPRO_4202",
    "cityName": "Nova Kakhovka",
    "stationName": "Street Paryzkoi komuny",
    "localName": "",
    "latitude": "46.757534",
    "longitude": "33.369862",
    "humidity": 41.89,
    "PM10": 52.72,
    "PM2n5": 12.97,
    "Pressure": 989,
    "Temperature": -5,
    "AirQualityIndex": 167.41
  },
  {
    "id": "SAVEDNIPRO_4208",
    "cityName": "Dnipro",
    "stationName": "Street Berdianska, 1",
    "localName": "",
    "latitude": "48.487060",
    "longitude": "35.066893",
    "humidity": 74.39,
    "PM10": 15.72,
    "PM2n5": 18.64,
    "Pressure": 1012,
    "Temperature": -1,
    "AirQualityIndex": 165.78
  },
  {
    "id": "SAVEDNIPRO_4210",
    "cityName": "Dnipro",
    "stationName": "prospekt Bohdana Khmelnytskoho, 229",
    "localName": "",
    "latitude": "48.373500",
    "longitude": "34.995097",
    "humidity": 73.7,
    "PM10": 28.54,
    "PM2n5": 8.52,
    "Pressure": 1018,
    "Temperature": 1,
    "AirQualityIndex": 44.45
  },
  {
    "id": "SAVEDNIPRO_4232",
    "cityName": "Kyiv",
    "stationName": "Street Desiatynna, 13",
    "localName": "",
    "latitude": "50.457508",
    "longitude": "30.519401",
    "humidity": 46,
    "PM10": 64.13,
    "PM2n5": 11.74,
    "Pressure": 1015,
    "Temperature": -6,
    "AirQualityIndex": 36.41
  },
  {
    "id": "SAVEDNIPRO_13405",
    "cityName": "Roslavychi",
    "stationName": "KH Berezovaia roshcha",
    "localName": "",
    "latitude": "50.266944",
    "longitude": "30.443000",
    "humidity": 46.12,
    "PM10": 3.81,
    "PM2n5": 1.03,
    "Pressure": 984,
    "Temperature": -5,
    "AirQualityIndex": 8.57
  },
  {
    "id": "SAVEDNIPRO_13406",
    "cityName": "Hatne",
    "stationName": "vulytsa Barvinkova, 11a",
    "localName": "",
    "latitude": "50.371506",
    "longitude": "30.422791",
    "humidity": 25.82,
    "PM10": 79.97,
    "PM2n5": 3.47,
    "Pressure": 1001,
    "Temperature": -2,
    "AirQualityIndex": 122.89
  },
  {
    "id": "SAVEDNIPRO_13407",
    "cityName": "Kyiv",
    "stationName": "bulvar Darnytskyi, 10",
    "localName": "",
    "latitude": "50.464790",
    "longitude": "30.611383",
    "humidity": 71.53,
    "PM10": 6.38,
    "PM2n5": 5.16,
    "Pressure": 993,
    "Temperature": 3,
    "AirQualityIndex": 114.31
  },
  {
    "id": "SAVEDNIPRO_13409",
    "cityName": "Severynivka",
    "stationName": "Street Pavla Skoropadskoho",
    "localName": "",
    "latitude": "50.395791",
    "longitude": "29.978961",
    "humidity": 36.85,
    "PM10": 43.47,
    "PM2n5": 12.04,
    "Pressure": 1000,
    "Temperature": 2,
    "AirQualityIndex": 187.3
  },
  {
    "id": "SAVEDNIPRO_13411",
    "cityName": "Kozyn",
    "stationName": "Street Starokyivska",
    "localName": "",
    "latitude": "50.257856",
    "longitude": "30.653474",
    "humidity": 71.21,
    "PM10": 48.53,
    "PM2n5": 14.66,
    "Pressure": 1007,
    "Temperature": 0,
    "AirQualityIndex": 127.11
  },
  {
    "id": "SAVEDNIPRO_13413",
    "cityName": "Kyiv",
    "stationName": "Street Hertsena, 35",
    "localName": "",
    "latitude": "50.472750",
    "longitude": "30.463750",
    "humidity": 33.69,
    "PM10": 3.18,
    "PM2n5": 17.95,
    "Pressure": 1000,
    "Temperature": -6,
    "AirQualityIndex": 22.37
  },
  {
    "id": "SAVEDNIPRO_13414",
    "cityName": "Bohuslav",
    "stationName": "Street Ivana Franka, 22/1",
    "localName": "",
    "latitude": "49.537806",
    "longitude": "30.864059",
    "humidity": 68.69,
    "PM10": 7.96,
    "PM2n5": 19.94,
    "Pressure": 994,
    "Temperature": -4,
    "AirQualityIndex": 27.49
  },
  {
    "id": "SAVEDNIPRO_13419",
    "cityName": "Shevchenkove",
    "stationName": "provulok Yuvileinyi, 7",
    "localName": "",
    "latitude": "50.416389",
    "longitude": "30.241333",
    "humidity": 37.44,
    "PM10": 56.11,
    "PM2n5": 11.42,
    "Pressure": 990,
    "Temperature": -7,
    "AirQualityIndex": 172.51
  },
  {
    "id": "SAVEDNIPRO_13533",
    "cityName": "Vyshenky",
    "stationName": "Zoloche-Provans, 2",
    "localName": "",
    "latitude": "50.298605",
    "longitude": "30.703356",
    "humidity": 58.6,
    "PM10": 47.91,
    "PM2n5": 15.12,
    "Pressure": 1015,
    "Temperature": 0,
    "AirQualityIndex": 161.8
  },
  {
    "id": "SAVEDNIPRO_13536",
    "cityName": "Lviv",
    "stationName": "Street Sumska, 10",
    "localName": "",
    "latitude": "49.812327",
    "longitude": "24.036764",
    "humidity": 69.99,
    "PM10": 79.77,
    "PM2n5": 12.38,
    "Pressure": 1009,
    "Temperature": 0,
    "AirQualityIndex": 8.88
  },
  {
    "id": "SAVEDNIPRO_13537",
    "cityName": "Kyiv",
    "stationName": "prospekt Beresteiskyi, 67",
    "localName": "",
    "latitude": "50.458610",
    "longitude": "30.410043",
    "humidity": 30.7,
    "PM10": 48.24,
    "PM2n5": 2.2,
    "Pressure": 997,
    "Temperature": -6,
    "AirQualityIndex": 21.29
  },
  {
    "id": "SAVEDNIPRO_13538",
    "cityName": "Dnipro",
    "stationName": "Street Zooparkova",
    "localName": "",
    "latitude": "48.473475",
    "longitude": "35.195720",
    "humidity": 26.13,
    "PM10": 15.2,
    "PM2n5": 8.45,
    "Pressure": 986,
    "Temperature": 1,
    "AirQualityIndex": 9.71
  },
  {
    "id": "SAVEDNIPRO_13539",
    "cityName": "Zhovkva",
    "stationName": "Street Kyivska",
    "localName": "",
    "latitude": "50.054100",
    "longitude": "23.956800",
    "humidity": 65.16,
    "PM10": 53.33,
    "PM2n5": 11.23,
    "Pressure": 989,
    "Temperature": -5,
    "AirQualityIndex": 152.51
  },
  {
    "id": "SAVEDNIPRO_13540",
    "cityName": "Kyiv",
    "stationName": "Street Levitana, 3",
    "localName": "",
    "latitude": "50.375516",
    "longitude": "30.541971",
    "humidity": 40.93,
    "PM10": 62.1,
    "PM2n5": 4.18,
    "Pressure": 999,
    "Temperature": 1,
    "AirQualityIndex": 185.09
  },
  {
    "id": "SAVEDNIPRO_13710",
    "cityName": "Vyshenky",
    "stationName": "Zoloche-Provans, 1",
    "localName": "",
    "latitude": "50.299113",
    "longitude": "30.703047",
    "humidity": 42.63,
    "PM10": 36.21,
    "PM2n5": 5.67,
    "Pressure": 998,
    "Temperature": -2,
    "AirQualityIndex": 178.84
  },
  {
    "id": "SAVEDNIPRO_13711",
    "cityName": "Petrushky",
    "stationName": "Sadivnytske Tovarystvo \"Yuryst\"",
    "localName": "",
    "latitude": "50.4073682",
    "longitude": "30.1595883",
    "humidity": 59.73,
    "PM10": 71.51,
    "PM2n5": 8.55,
    "Pressure": 1009,
    "Temperature": 2,
    "AirQualityIndex": 3.07
  },
  {
    "id": "SAVEDNIPRO_13715",
    "cityName": "Zvenyhorodka",
    "stationName": "Street Viacheslava Chornovola, 40",
    "localName": "",
    "latitude": "49.0768671",
    "longitude": "30.9639523",
    "humidity": 58.5,
    "PM10": 39.39,
    "PM2n5": 7.41,
    "Pressure": 1020,
    "Temperature": -4,
    "AirQualityIndex": 55.67
  },
  {
    "id": "SAVEDNIPRO_13965",
    "cityName": "Kyiv",
    "stationName": "prospekt Akademika Hlushkova, 1P30",
    "localName": "",
    "latitude": "50.3774076",
    "longitude": "30.4815071",
    "humidity": 61.41,
    "PM10": 20.45,
    "PM2n5": 4.73,
    "Pressure": 994,
    "Temperature": -4,
    "AirQualityIndex": 101.74
  },
  {
    "id": "SAVEDNIPRO_14712",
    "cityName": "Mykolaivka",
    "stationName": "Street Henerala Pushkina, 45",
    "localName": "",
    "latitude": "48.362656",
    "longitude": "34.703311",
    "humidity": 34.33,
    "PM10": 35.41,
    "PM2n5": 7.68,
    "Pressure": 981,
    "Temperature": 1,
    "AirQualityIndex": 198.05
  },
  {
    "id": "SAVEDNIPRO_14713",
    "cityName": "Cherkasy",
    "stationName": "provulok Sichovyi, 17",
    "localName": "",
    "latitude": "49.428755",
    "longitude": "32.066555",
    "humidity": 32.77,
    "PM10": 58.72,
    "PM2n5": 9.63,
    "Pressure": 997,
    "Temperature": -6,
    "AirQualityIndex": 159.06
  },
  {
    "id": "SAVEDNIPRO_14714",
    "cityName": "Dnipro",
    "stationName": "Street Naberezhna Zavodska, 44",
    "localName": "",
    "latitude": "48.490444",
    "longitude": "34.985071",
    "humidity": 26.79,
    "PM10": 6.5,
    "PM2n5": 9.72,
    "Pressure": 991,
    "Temperature": -1,
    "AirQualityIndex": 111.68
  },
  {
    "id": "SAVEDNIPRO_14758",
    "cityName": "Zaporizhzhia",
    "stationName": "Street Nezalezhnoi Ukrainy, 68A",
    "localName": "",
    "latitude": "47.847054111908996",
    "longitude": "35.12933723683439",
    "humidity": 45.68,
    "PM10": 3.33,
    "PM2n5": 8.22,
    "Pressure": 996,
    "Temperature": -2,
    "AirQualityIndex": 29.8
  },
  {
    "id": "SAVEDNIPRO_15702",
    "cityName": "Kluziv",
    "stationName": "Street Spilna",
    "localName": "",
    "latitude": "48.954444",
    "longitude": "24.715858",
    "humidity": 36.68,
    "PM10": 31.49,
    "PM2n5": 1.55,
    "Pressure": 980,
    "Temperature": -3,
    "AirQualityIndex": 94.3
  },
  {
    "id": "SAVEDNIPRO_15703",
    "cityName": "Kruhlyk",
    "stationName": "Street Teremkivska, 10",
    "localName": "",
    "latitude": "50.306289",
    "longitude": "30.420185",
    "humidity": 65.17,
    "PM10": 71.04,
    "PM2n5": 13.7,
    "Pressure": 1006,
    "Temperature": -5,
    "AirQualityIndex": 39.17
  },
  {
    "id": "SAVEDNIPRO_15705",
    "cityName": "Kharkiv",
    "stationName": "Street Valentynivska, 24A",
    "localName": "",
    "latitude": "50.012753",
    "longitude": "36.334998",
    "humidity": 28.25,
    "PM10": 70.66,
    "PM2n5": 7.04,
    "Pressure": 986,
    "Temperature": -3,
    "AirQualityIndex": 169.45
  },
  {
    "id": "SAVEDNIPRO_15712",
    "cityName": "Stari Petrivtsi",
    "stationName": "vul. Dachna",
    "localName": "",
    "latitude": "50.642541",
    "longitude": "30.432218",
    "humidity": 43.84,
    "PM10": 12.9,
    "PM2n5": 14.34,
    "Pressure": 1007,
    "Temperature": 0,
    "AirQualityIndex": 147.55
  },
  {
    "id": "SAVEDNIPRO_16860",
    "cityName": "Sievierodonetsk",
    "stationName": "75-y mykroraion",
    "localName": "",
    "latitude": "48.946746",
    "longitude": "38.524948",
    "humidity": 51.33,
    "PM10": 16.31,
    "PM2n5": 10.78,
    "Pressure": 991,
    "Temperature": -2,
    "AirQualityIndex": 108.61
  },
  {
    "id": "SAVEDNIPRO_16862",
    "cityName": "Khotiv",
    "stationName": "vul. Partyzanska, 1A",
    "localName": "",
    "latitude": "50.326409",
    "longitude": "30.470360",
    "humidity": 34.95,
    "PM10": 22.92,
    "PM2n5": 18.7,
    "Pressure": 1019,
    "Temperature": -4,
    "AirQualityIndex": 106.72
  },
  {
    "id": "SAVEDNIPRO_17448",
    "cityName": "Dnipro",
    "stationName": "Street Vykonkomivska, 24B",
    "localName": "",
    "latitude": "48.456973",
    "longitude": "35.047031",
    "humidity": 55.89,
    "PM10": 49.03,
    "PM2n5": 14.42,
    "Pressure": 1004,
    "Temperature": 3,
    "AirQualityIndex": 149.19
  },
  {
    "id": "SAVEDNIPRO_17802",
    "cityName": "Nikopol",
    "stationName": "Street Dovhalivska",
    "localName": "",
    "latitude": "47.576907",
    "longitude": "34.459222",
    "humidity": 35.87,
    "PM10": 22.75,
    "PM2n5": 2.24,
    "Pressure": 1011,
    "Temperature": 1,
    "AirQualityIndex": 131.07
  },
  {
    "id": "SAVEDNIPRO_17817",
    "cityName": "Nizhyn",
    "stationName": "Street Syniakivska, 96",
    "localName": "",
    "latitude": "51.037223",
    "longitude": "31.876354",
    "humidity": 45.92,
    "PM10": 33.76,
    "PM2n5": 2.4,
    "Pressure": 1008,
    "Temperature": -6,
    "AirQualityIndex": 125.44
  },
  {
    "id": "SAVEDNIPRO_17865",
    "cityName": "Kolomyia",
    "stationName": "Street Hnata Kovtsuniaka, 2",
    "localName": "",
    "latitude": "48.535159",
    "longitude": "25.034321",
    "humidity": 29.9,
    "PM10": 62.44,
    "PM2n5": 14.16,
    "Pressure": 1013,
    "Temperature": -3,
    "AirQualityIndex": 27.24
  },
  {
    "id": "SAVEDNIPRO_17895",
    "cityName": "Odesa",
    "stationName": "Street Akademika Korolova, 81",
    "localName": "",
    "latitude": "46.387139",
    "longitude": "30.723278",
    "humidity": 71.52,
    "PM10": 65.87,
    "PM2n5": 8.71,
    "Pressure": 1020,
    "Temperature": -1,
    "AirQualityIndex": 63.65
  },
  {
    "id": "SAVEDNIPRO_17896",
    "cityName": "Vyshhorod",
    "stationName": "Street Sholudenka, 24",
    "localName": "",
    "latitude": "50.597002",
    "longitude": "30.465978",
    "humidity": 64.42,
    "PM10": 42.21,
    "PM2n5": 18.44,
    "Pressure": 1006,
    "Temperature": 3,
    "AirQualityIndex": 103.55
  },
  {
    "id": "SAVEDNIPRO_18420",
    "cityName": "Berezhany",
    "stationName": "ploshcha Rynok",
    "localName": "",
    "latitude": "49.445221",
    "longitude": "24.938534",
    "humidity": 43.19,
    "PM10": 60.85,
    "PM2n5": 10.4,
    "Pressure": 1010,
    "Temperature": -2,
    "AirQualityIndex": 21.28
  },
  {
    "id": "SAVEDNIPRO_18511",
    "cityName": "Kherson",
    "stationName": "Beryslavske shose, 12A",
    "localName": "",
    "latitude": "46.665987",
    "longitude": "32.635329",
    "humidity": 45.78,
    "PM10": 31.71,
    "PM2n5": 9.18,
    "Pressure": 999,
    "Temperature": -4,
    "AirQualityIndex": 156.57
  },
  {
    "id": "SAVEDNIPRO_18729",
    "cityName": "Mala Oleksandrivka",
    "stationName": "Street Molodizhna, 12",
    "localName": "",
    "latitude": "47.2973894",
    "longitude": "33.2816014",
    "humidity": 28.09,
    "PM10": 74.06,
    "PM2n5": 15.19,
    "Pressure": 1010,
    "Temperature": -2,
    "AirQualityIndex": 131.86
  },
  {
    "id": "SAVEDNIPRO_18736",
    "cityName": "Mykolaivka",
    "stationName": "Sadivnytske Tovarystvo \"Mekhanik\"",
    "localName": "",
    "latitude": "50.449945",
    "longitude": "30.016305",
    "humidity": 31.8,
    "PM10": 67.07,
    "PM2n5": 9.93,
    "Pressure": 1002,
    "Temperature": 3,
    "AirQualityIndex": 7.08
  },
  {
    "id": "SAVEDNIPRO_18802",
    "cityName": "Kyiv",
    "stationName": "prospekt Beresteiskyi, 30",
    "localName": "",
    "latitude": "50.452248",
    "longitude": "30.464829",
    "humidity": 25.48,
    "PM10": 33.04,
    "PM2n5": 16.48,
    "Pressure": 982,
    "Temperature": -3,
    "AirQualityIndex": 110.46
  },
  {
    "id": "SAVEDNIPRO_18986",
    "cityName": "Dolishnii Luzhok",
    "stationName": "Dolishnoluzhetska SZSh Drohobytskoi miskoi rady",
    "localName": "",
    "latitude": "49.455202",
    "longitude": "23.377091",
    "humidity": 74.6,
    "PM10": 16.5,
    "PM2n5": 3.06,
    "Pressure": 1009,
    "Temperature": 0,
    "AirQualityIndex": 7.53
  },
  {
    "id": "SAVEDNIPRO_19014",
    "cityName": "Dniprorudne",
    "stationName": "Street Heroiv pratsi, 7",
    "localName": "",
    "latitude": "47.385610",
    "longitude": "35.000290",
    "humidity": 56.94,
    "PM10": 41.2,
    "PM2n5": 12.14,
    "Pressure": 980,
    "Temperature": -6,
    "AirQualityIndex": 10.09
  },
  {
    "id": "SAVEDNIPRO_19101",
    "cityName": "Novyi Buh",
    "stationName": "Street Shepelia",
    "localName": "",
    "latitude": "47.6801522",
    "longitude": "32.5082539",
    "humidity": 71.32,
    "PM10": 10.33,
    "PM2n5": 7.1,
    "Pressure": 1008,
    "Temperature": -7,
    "AirQualityIndex": 23.81
  },
  {
    "id": "SAVEDNIPRO_19104",
    "cityName": "Kyiv",
    "stationName": "prospekt Peremohy, 30",
    "localName": "",
    "latitude": "50.452174",
    "longitude": "30.464789",
    "humidity": 25.49,
    "PM10": 15.83,
    "PM2n5": 16.07,
    "Pressure": 987,
    "Temperature": -2,
    "AirQualityIndex": 48.04
  },
  {
    "id": "SAVEDNIPRO_19108",
    "cityName": "Vita-Poshtova",
    "stationName": "Britannica School",
    "localName": "",
    "latitude": "50.333593",
    "longitude": "30.351063",
    "humidity": 49.45,
    "PM10": 25.33,
    "PM2n5": 12.23,
    "Pressure": 1013,
    "Temperature": -5,
    "AirQualityIndex": 123.34
  },
  {
    "id": "SAVEDNIPRO_19116",
    "cityName": "Kyiv",
    "stationName": "Street Lysychanska, 35",
    "localName": "",
    "latitude": "50.411976",
    "longitude": "30.496778",
    "humidity": 41.24,
    "PM10": 20.94,
    "PM2n5": 2.77,
    "Pressure": 1017,
    "Temperature": -4,
    "AirQualityIndex": 17.41
  },
  {
    "id": "SAVEDNIPRO_19117",
    "cityName": "Zaporizhzhia",
    "stationName": "Street Patorzhynskoho",
    "localName": "",
    "latitude": "47.8689649",
    "longitude": "35.2297073",
    "humidity": 72.69,
    "PM10": 61.73,
    "PM2n5": 8.69,
    "Pressure": 998,
    "Temperature": -4,
    "AirQualityIndex": 7.14
  },
  {
    "id": "SAVEDNIPRO_19179",
    "cityName": "Mariupol",
    "stationName": "Street Novorosiisiiska, 12",
    "localName": "",
    "latitude": "47.067450",
    "longitude": "37.485584",
    "humidity": 60.35,
    "PM10": 79.58,
    "PM2n5": 12.35,
    "Pressure": 1016,
    "Temperature": -6,
    "AirQualityIndex": 15.22
  },
  {
    "id": "SAVEDNIPRO_19246",
    "cityName": "Hrushkivtsi",
    "stationName": "Street Peremohy, 32",
    "localName": "",
    "latitude": "49.51477",
    "longitude": "28.44255",
    "humidity": 62.33,
    "PM10": 5.92,
    "PM2n5": 15.58,
    "Pressure": 988,
    "Temperature": -1,
    "AirQualityIndex": 49.64
  },
  {
    "id": "SAVEDNIPRO_19298",
    "cityName": "Chornobai",
    "stationName": "provulok Slynka, 4",
    "localName": "",
    "latitude": "49.666631",
    "longitude": "32.325405",
    "humidity": 72.2,
    "PM10": 31.44,
    "PM2n5": 8.47,
    "Pressure": 994,
    "Temperature": 1,
    "AirQualityIndex": 155.84
  },
  {
    "id": "SAVEDNIPRO_19301",
    "cityName": "Klavdiievo-Tarasove",
    "stationName": "Street Shevchenko, 99",
    "localName": "",
    "latitude": "50.583284162702796",
    "longitude": "29.991048352270333",
    "humidity": 34.08,
    "PM10": 41.33,
    "PM2n5": 5.34,
    "Pressure": 993,
    "Temperature": 1,
    "AirQualityIndex": 20.28
  },
  {
    "id": "SAVEDNIPRO_19306",
    "cityName": "Katerynivka",
    "stationName": "Street Tsentralna, 32A",
    "localName": "",
    "latitude": "47.876249",
    "longitude": "37.344970",
    "humidity": 58.54,
    "PM10": 39.43,
    "PM2n5": 14.22,
    "Pressure": 1017,
    "Temperature": -1,
    "AirQualityIndex": 191.86
  },
  {
    "id": "SAVEDNIPRO_19320",
    "cityName": "Novohrodivka",
    "stationName": "Street Parkova, 30",
    "localName": "",
    "latitude": "48.202876",
    "longitude": "37.341606",
    "humidity": 56.63,
    "PM10": 12.45,
    "PM2n5": 17.3,
    "Pressure": 990,
    "Temperature": 0,
    "AirQualityIndex": 9.57
  },
  {
    "id": "SAVEDNIPRO_19387",
    "cityName": "Bereznehuvatske",
    "stationName": "Street Shkolna, 34",
    "localName": "",
    "latitude": "47.747778",
    "longitude": "32.279167",
    "humidity": 32.74,
    "PM10": 21.96,
    "PM2n5": 4.9,
    "Pressure": 1001,
    "Temperature": 3,
    "AirQualityIndex": 115.23
  },
  {
    "id": "SAVEDNIPRO_19454",
    "cityName": "Pavlohrad",
    "stationName": "Street Ozerna, 87",
    "localName": "",
    "latitude": "48.536410",
    "longitude": "35.866605",
    "humidity": 64.58,
    "PM10": 43.6,
    "PM2n5": 7.83,
    "Pressure": 1018,
    "Temperature": -2,
    "AirQualityIndex": 114.23
  },
  {
    "id": "SAVEDNIPRO_19476",
    "cityName": "Zymne",
    "stationName": "Street Myru",
    "localName": "",
    "latitude": "50.799637",
    "longitude": "24.327239",
    "humidity": 48.45,
    "PM10": 67.91,
    "PM2n5": 2.23,
    "Pressure": 984,
    "Temperature": 0,
    "AirQualityIndex": 107.36
  },
  {
    "id": "SAVEDNIPRO_19477",
    "cityName": "Novopokrovka",
    "stationName": "Street Molodizhna, 1",
    "localName": "",
    "latitude": "48.057804",
    "longitude": "34.606344",
    "humidity": 33.4,
    "PM10": 23.34,
    "PM2n5": 6.52,
    "Pressure": 987,
    "Temperature": -6,
    "AirQualityIndex": 24.42
  },
  {
    "id": "SAVEDNIPRO_19684",
    "cityName": "Rakiv Lis",
    "stationName": "Street Shkilna, 4",
    "localName": "",
    "latitude": "51.621694",
    "longitude": "24.921318",
    "humidity": 66.32,
    "PM10": 72.08,
    "PM2n5": 8.56,
    "Pressure": 991,
    "Temperature": -2,
    "AirQualityIndex": 43.53
  },
  {
    "id": "SAVEDNIPRO_19708",
    "cityName": "Sumy",
    "stationName": "Street Berezova, 28",
    "localName": "",
    "latitude": "50.940911",
    "longitude": "34.746837",
    "humidity": 31.35,
    "PM10": 35.74,
    "PM2n5": 16.91,
    "Pressure": 995,
    "Temperature": -6,
    "AirQualityIndex": 63.09
  },
  {
    "id": "SAVEDNIPRO_19810",
    "cityName": "Sumy",
    "stationName": "Street Zasumska, 3",
    "localName": "",
    "latitude": "50.9119348",
    "longitude": "34.7949552",
    "humidity": 55.28,
    "PM10": 6.67,
    "PM2n5": 15,
    "Pressure": 1000,
    "Temperature": -1,
    "AirQualityIndex": 188.26
  },
  {
    "id": "SAVEDNIPRO_19997",
    "cityName": "Velyki Viknyny",
    "stationName": "Velykoviknynska zahalnoosvitnia shkola I-IIIstupeniv",
    "localName": "",
    "latitude": "49.929920",
    "longitude": "25.868925",
    "humidity": 46.03,
    "PM10": 9.7,
    "PM2n5": 14.01,
    "Pressure": 984,
    "Temperature": 2,
    "AirQualityIndex": 73.68
  },
  {
    "id": "SAVEDNIPRO_20013",
    "cityName": "Pustomyty",
    "stationName": "Street Darii Diachenko, 17",
    "localName": "",
    "latitude": "49.718539",
    "longitude": "23.912361",
    "humidity": 31.58,
    "PM10": 47.14,
    "PM2n5": 6.53,
    "Pressure": 1003,
    "Temperature": 1,
    "AirQualityIndex": 2.33
  },
  {
    "id": "SAVEDNIPRO_20060",
    "cityName": "Korosten",
    "stationName": "Street Mykhaila Hrushevskoho, 22/1",
    "localName": "",
    "latitude": "50.949312",
    "longitude": "28.642018",
    "humidity": 56.86,
    "PM10": 8.04,
    "PM2n5": 6.46,
    "Pressure": 1002,
    "Temperature": -1,
    "AirQualityIndex": 75.29
  },
  {
    "id": "SAVEDNIPRO_20061",
    "cityName": "Kazanka",
    "stationName": "Street Myru, 208",
    "localName": "",
    "latitude": "47.831669",
    "longitude": "32.830301",
    "humidity": 64.4,
    "PM10": 38.59,
    "PM2n5": 7.27,
    "Pressure": 1012,
    "Temperature": -2,
    "AirQualityIndex": 141.68
  },
  {
    "id": "SAVEDNIPRO_20081",
    "cityName": "Yuzhnoukrainsk",
    "stationName": "Street Parkova, 5",
    "localName": "",
    "latitude": "47.815861",
    "longitude": "31.189776",
    "humidity": 56.3,
    "PM10": 26.84,
    "PM2n5": 16.3,
    "Pressure": 994,
    "Temperature": 0,
    "AirQualityIndex": 70.24
  },
  {
    "id": "SAVEDNIPRO_20084",
    "cityName": "Kyiv",
    "stationName": "Street Heroiv Dnipra, 1",
    "localName": "",
    "latitude": "50.518246",
    "longitude": "30.486426",
    "humidity": 59.63,
    "PM10": 77.78,
    "PM2n5": 15.65,
    "Pressure": 983,
    "Temperature": -6,
    "AirQualityIndex": 190.33
  },
  {
    "id": "SAVEDNIPRO_20086",
    "cityName": "Khmilnyk",
    "stationName": "prospekt Svobody, 12",
    "localName": "",
    "latitude": "49.555501",
    "longitude": "27.952070",
    "humidity": 72.93,
    "PM10": 61.15,
    "PM2n5": 13.25,
    "Pressure": 987,
    "Temperature": -7,
    "AirQualityIndex": 136.91
  },
  {
    "id": "SAVEDNIPRO_20088",
    "cityName": "Volodymyr",
    "stationName": "Street Danyla Halytskoho, 5",
    "localName": "",
    "latitude": "50.845376",
    "longitude": "24.319157",
    "humidity": 46.06,
    "PM10": 78.7,
    "PM2n5": 16.39,
    "Pressure": 1018,
    "Temperature": 1,
    "AirQualityIndex": 139.74
  },
  {
    "id": "SAVEDNIPRO_20091",
    "cityName": "Kiliia",
    "stationName": "Street Myru",
    "localName": "",
    "latitude": "45.444840",
    "longitude": "29.264418",
    "humidity": 50.02,
    "PM10": 66.92,
    "PM2n5": 15.85,
    "Pressure": 985,
    "Temperature": 1,
    "AirQualityIndex": 176.56
  },
  {
    "id": "SAVEDNIPRO_20095",
    "cityName": "Verkhivtseve",
    "stationName": "2-y provulok Pylypa Orlyka, 23",
    "localName": "",
    "latitude": "48.478732",
    "longitude": "34.225964",
    "humidity": 34.47,
    "PM10": 76.51,
    "PM2n5": 18.22,
    "Pressure": 1016,
    "Temperature": -1,
    "AirQualityIndex": 176.22
  },
  {
    "id": "SAVEDNIPRO_20103",
    "cityName": "Zinkiv",
    "stationName": "Street Vozdvyzhenska, 40",
    "localName": "",
    "latitude": "50.209194",
    "longitude": "34.358694",
    "humidity": 60.14,
    "PM10": 16.24,
    "PM2n5": 9.4,
    "Pressure": 993,
    "Temperature": -7,
    "AirQualityIndex": 114.93
  },
  {
    "id": "SAVEDNIPRO_20104",
    "cityName": "Lyshnia",
    "stationName": "Street Soniachna, 169",
    "localName": "",
    "latitude": "50.315879",
    "longitude": "29.962585",
    "humidity": 30.24,
    "PM10": 37.49,
    "PM2n5": 10.98,
    "Pressure": 1003,
    "Temperature": -5,
    "AirQualityIndex": 114.15
  },
  {
    "id": "SAVEDNIPRO_20106",
    "cityName": "Stebnyk",
    "stationName": "Street Mazepy",
    "localName": "",
    "latitude": "49.296660",
    "longitude": "23.551930",
    "humidity": 42.89,
    "PM10": 6.54,
    "PM2n5": 7.87,
    "Pressure": 1006,
    "Temperature": 2,
    "AirQualityIndex": 168.45
  },
  {
    "id": "SAVEDNIPRO_20107",
    "cityName": "Tairove",
    "stationName": "Street 40-richchia Peremohy, 55",
    "localName": "",
    "latitude": "46.362202",
    "longitude": "30.650345",
    "humidity": 73.26,
    "PM10": 55.92,
    "PM2n5": 16.03,
    "Pressure": 1014,
    "Temperature": -4,
    "AirQualityIndex": 111.23
  },
  {
    "id": "SAVEDNIPRO_20121",
    "cityName": "Sumy",
    "stationName": "Street Kharkivska, 35",
    "localName": "",
    "latitude": "50.903766",
    "longitude": "34.817852",
    "humidity": 60.04,
    "PM10": 30.18,
    "PM2n5": 8.35,
    "Pressure": 1013,
    "Temperature": -2,
    "AirQualityIndex": 91.51
  },
  {
    "id": "SAVEDNIPRO_20128",
    "cityName": "Kolomyia",
    "stationName": "prospekt Viacheslava Chornovola, 45",
    "localName": "",
    "latitude": "48.529049",
    "longitude": "25.039789",
    "humidity": 65.56,
    "PM10": 26.37,
    "PM2n5": 4.16,
    "Pressure": 1010,
    "Temperature": -4,
    "AirQualityIndex": 112.97
  },
  {
    "id": "SAVEDNIPRO_20131",
    "cityName": "Bobrovytsia",
    "stationName": "Street Nezalezhnosti, 46",
    "localName": "",
    "latitude": "50.741897",
    "longitude": "31.384233",
    "humidity": 71.03,
    "PM10": 46.12,
    "PM2n5": 16.09,
    "Pressure": 990,
    "Temperature": -3,
    "AirQualityIndex": 32.07
  },
  {
    "id": "SAVEDNIPRO_20296",
    "cityName": "Varash",
    "stationName": "mikroraion Peremohy, 8",
    "localName": "",
    "latitude": "51.351281",
    "longitude": "25.850776",
    "humidity": 31.84,
    "PM10": 54.76,
    "PM2n5": 2.21,
    "Pressure": 1007,
    "Temperature": 2,
    "AirQualityIndex": 144.18
  },
  {
    "id": "SAVEDNIPRO_21957",
    "cityName": "Stryzhavka",
    "stationName": "Street 40-richchia Peremohy, 7",
    "localName": "",
    "latitude": "49.309646",
    "longitude": "28.472136",
    "humidity": 37.74,
    "PM10": 2.25,
    "PM2n5": 13.25,
    "Pressure": 993,
    "Temperature": -1,
    "AirQualityIndex": 170.13
  },
  {
    "id": "SAVEDNIPRO_21958",
    "cityName": "Nebelytsia",
    "stationName": "Street Myru, 11",
    "localName": "",
    "latitude": "50.412212",
    "longitude": "29.605634",
    "humidity": 50.9,
    "PM10": 70.04,
    "PM2n5": 18.2,
    "Pressure": 982,
    "Temperature": -7,
    "AirQualityIndex": 128.97
  },
  {
    "id": "SAVEDNIPRO_21961",
    "cityName": "Pidhorodne",
    "stationName": "Street Tsentralna, 46",
    "localName": "",
    "latitude": "48.574377",
    "longitude": "35.096557",
    "humidity": 37.08,
    "PM10": 61.77,
    "PM2n5": 5.68,
    "Pressure": 1006,
    "Temperature": 1,
    "AirQualityIndex": 172.99
  },